%time,field.header.seq,field.header.stamp,field.header.frame_id,field.velocity.x,field.velocity.y,field.velocity.z,field.velocity_covariance0,field.velocity_covariance1,field.velocity_covariance2,field.velocity_covariance3,field.velocity_covariance4,field.velocity_covariance5,field.velocity_covariance6,field.velocity_covariance7,field.velocity_covariance8,field.altitude,field.beams0.range,field.beams0.range_covariance,field.beams0.velocity,field.beams0.velocity_covariance,field.beams0.pose.header.seq,field.beams0.pose.header.stamp,field.beams0.pose.header.frame_id,field.beams0.pose.pose.position.x,field.beams0.pose.pose.position.y,field.beams0.pose.pose.position.z,field.beams0.pose.pose.orientation.x,field.beams0.pose.pose.orientation.y,field.beams0.pose.pose.orientation.z,field.beams0.pose.pose.orientation.w,field.beams1.range,field.beams1.range_covariance,field.beams1.velocity,field.beams1.velocity_covariance,field.beams1.pose.header.seq,field.beams1.pose.header.stamp,field.beams1.pose.header.frame_id,field.beams1.pose.pose.position.x,field.beams1.pose.pose.position.y,field.beams1.pose.pose.position.z,field.beams1.pose.pose.orientation.x,field.beams1.pose.pose.orientation.y,field.beams1.pose.pose.orientation.z,field.beams1.pose.pose.orientation.w,field.beams2.range,field.beams2.range_covariance,field.beams2.velocity,field.beams2.velocity_covariance,field.beams2.pose.header.seq,field.beams2.pose.header.stamp,field.beams2.pose.header.frame_id,field.beams2.pose.pose.position.x,field.beams2.pose.pose.position.y,field.beams2.pose.pose.position.z,field.beams2.pose.pose.orientation.x,field.beams2.pose.pose.orientation.y,field.beams2.pose.pose.orientation.z,field.beams2.pose.pose.orientation.w,field.beams3.range,field.beams3.range_covariance,field.beams3.velocity,field.beams3.velocity_covariance,field.beams3.pose.header.seq,field.beams3.pose.header.stamp,field.beams3.pose.header.frame_id,field.beams3.pose.pose.position.x,field.beams3.pose.pose.position.y,field.beams3.pose.pose.position.z,field.beams3.pose.pose.orientation.x,field.beams3.pose.pose.orientation.y,field.beams3.pose.pose.orientation.z,field.beams3.pose.pose.orientation.w
7786000000,65,7786000000,bluerov2/dvl_link,-2.5758427128868857,-1.6741023988672288,-0.8253024578853236,0.25,0.0,0.0,0.0,0.25,0.0,0.0,0.0,0.25,7.598163604736328,9.298589706420898,0.0,0.0,0.0,0,506000000,bluerov2/dvl_sonar0_link,0.0,0.0,0.0,0.0,-0.9999999999999998,0.0,0.9663899781345132,7.578981876373291,0.0,0.0,0.0,0,506000000,bluerov2/dvl_sonar1_link,0.0,0.0,0.0,0.0,0.0,0.9999999999999998,0.9663899781345132,6.663905620574951,0.0,0.0,0.0,0,506000000,bluerov2/dvl_sonar2_link,0.0,0.0,0.0,0.0,0.9999999999999998,0.0,0.9663899781345132,6.8511762619018555,0.0,0.0,0.0,0,506000000,bluerov2/dvl_sonar3_link,0.0,0.0,0.0,0.0,0.0,-0.9999999999999998,0.9663899781345132
7898000000,66,7898000000,bluerov2/dvl_link,-2.5018657162981848,-1.5017301463317465,-1.1208997521519597,0.25,0.0,0.0,0.0,0.25,0.0,0.0,0.0,0.25,25.843647003173828,81.0,0.0,0.0,0.0,0,506000000,bluerov2/dvl_sonar0_link,0.0,0.0,0.0,0.0,-0.9999999999999998,0.0,0.9663899781345132,8.467885971069336,0.0,0.0,0.0,0,506000000,bluerov2/dvl_sonar1_link,0.0,0.0,0.0,0.0,0.0,0.9999999999999998,0.9663899781345132,7.089575290679932,0.0,0.0,0.0,0,506000000,bluerov2/dvl_sonar2_link,0.0,0.0,0.0,0.0,0.9999999999999998,0.0,0.9663899781345132,6.817121982574463,0.0,0.0,0.0,0,506000000,bluerov2/dvl_sonar3_link,0.0,0.0,0.0,0.0,0.0,-0.9999999999999998,0.9663899781345132
8010000000,67,8010000000,bluerov2/dvl_link,-2.5250469289202004,-1.0497465352716433,-1.319224202867085,0.25,0.0,0.0,0.0,0.25,0.0,0.0,0.0,0.25,26.146621704101562,81.0,0.0,0.0,0.0,0,506000000,bluerov2/dvl_sonar0_link,0.0,0.0,0.0,0.0,-0.9999999999999998,0.0,0.9663899781345132,9.464312553405762,0.0,0.0,0.0,0,506000000,bluerov2/dvl_sonar1_link,0.0,0.0,0.0,0.0,0.0,0.9999999999999998,0.9663899781345132,7.353880882263184,0.0,0.0,0.0,0,506000000,bluerov2/dvl_sonar2_link,0.0,0.0,0.0,0.0,0.9999999999999998,0.0,0.9663899781345132,6.7682976722717285,0.0,0.0,0.0,0,506000000,bluerov2/dvl_sonar3_link,0.0,0.0,0.0,0.0,0.0,-0.9999999999999998,0.9663899781345132
8120000000,68,8122000000,bluerov2/dvl_link,-2.4911631463588293,-0.9125066804455404,-1.342604737398843,0.25,0.0,0.0,0.0,0.25,0.0,0.0,0.0,0.25,8.717472076416016,12.119646072387695,0.0,0.0,0.0,0,506000000,bluerov2/dvl_sonar0_link,0.0,0.0,0.0,0.0,-0.9999999999999998,0.0,0.9663899781345132,9.015209197998047,0.0,0.0,0.0,0,506000000,bluerov2/dvl_sonar1_link,0.0,0.0,0.0,0.0,0.0,0.9999999999999998,0.9663899781345132,6.959069728851318,0.0,0.0,0.0,0,506000000,bluerov2/dvl_sonar2_link,0.0,0.0,0.0,0.0,0.9999999999999998,0.0,0.9663899781345132,6.775964260101318,0.0,0.0,0.0,0,506000000,bluerov2/dvl_sonar3_link,0.0,0.0,0.0,0.0,0.0,-0.9999999999999998,0.9663899781345132
8232000000,69,8234000000,bluerov2/dvl_link,-2.3632166920408397,-0.7706313153714112,-1.315124814313846,0.25,0.0,0.0,0.0,0.25,0.0,0.0,0.0,0.25,9.09279727935791,12.297273635864258,0.0,0.0,0.0,0,506000000,bluerov2/dvl_sonar0_link,0.0,0.0,0.0,0.0,-0.9999999999999998,0.0,0.9663899781345132,10.46267032623291,0.0,0.0,0.0,0,506000000,bluerov2/dvl_sonar1_link,0.0,0.0,0.0,0.0,0.0,0.9999999999999998,0.9663899781345132,6.627946853637695,0.0,0.0,0.0,0,506000000,bluerov2/dvl_sonar2_link,0.0,0.0,0.0,0.0,0.9999999999999998,0.0,0.9663899781345132,6.983297348022461,0.0,0.0,0.0,0,506000000,bluerov2/dvl_sonar3_link,0.0,0.0,0.0,0.0,0.0,-0.9999999999999998,0.9663899781345132
8346000000,70,8346000000,bluerov2/dvl_link,-2.0215778199794805,-0.7284569355609316,-1.2278905644261489,0.25,0.0,0.0,0.0,0.25,0.0,0.0,0.0,0.25,9.478809356689453,12.413187026977539,0.0,0.0,0.0,0,506000000,bluerov2/dvl_sonar0_link,0.0,0.0,0.0,0.0,-0.9999999999999998,0.0,0.9663899781345132,12.048677444458008,0.0,0.0,0.0,0,506000000,bluerov2/dvl_sonar1_link,0.0,0.0,0.0,0.0,0.0,0.9999999999999998,0.9663899781345132,6.351720809936523,0.0,0.0,0.0,0,506000000,bluerov2/dvl_sonar2_link,0.0,0.0,0.0,0.0,0.9999999999999998,0.0,0.9663899781345132,7.101652145385742,0.0,0.0,0.0,0,506000000,bluerov2/dvl_sonar3_link,0.0,0.0,0.0,0.0,0.0,-0.9999999999999998,0.9663899781345132
8458000000,71,8458000000,bluerov2/dvl_link,-1.7784966907984077,-0.8150128912036031,-1.1214872128226352,0.25,0.0,0.0,0.0,0.25,0.0,0.0,0.0,0.25,10.138880729675293,13.232867240905762,0.0,0.0,0.0,0,506000000,bluerov2/dvl_sonar0_link,0.0,0.0,0.0,0.0,-0.9999999999999998,0.0,0.9663899781345132,14.072832107543945,0.0,0.0,0.0,0,506000000,bluerov2/dvl_sonar1_link,0.0,0.0,0.0,0.0,0.0,0.9999999999999998,0.9663899781345132,6.156859397888184,0.0,0.0,0.0,0,506000000,bluerov2/dvl_sonar2_link,0.0,0.0,0.0,0.0,0.9999999999999998,0.0,0.9663899781345132,7.092963695526123,0.0,0.0,0.0,0,506000000,bluerov2/dvl_sonar3_link,0.0,0.0,0.0,0.0,0.0,-0.9999999999999998,0.9663899781345132
8570000000,72,8570000000,bluerov2/dvl_link,-1.6592262401089173,-0.9530024923087018,-0.8599072903002145,0.25,0.0,0.0,0.0,0.25,0.0,0.0,0.0,0.25,10.200604438781738,13.739789009094238,0.0,0.0,0.0,0,506000000,bluerov2/dvl_sonar0_link,0.0,0.0,0.0,0.0,-0.9999999999999998,0.0,0.9663899781345132,13.790645599365234,0.0,0.0,0.0,0,506000000,bluerov2/dvl_sonar1_link,0.0,0.0,0.0,0.0,0.0,0.9999999999999998,0.9663899781345132,6.055597305297852,0.0,0.0,0.0,0,506000000,bluerov2/dvl_sonar2_link,0.0,0.0,0.0,0.0,0.9999999999999998,0.0,0.9663899781345132,7.216390132904053,0.0,0.0,0.0,0,506000000,bluerov2/dvl_sonar3_link,0.0,0.0,0.0,0.0,0.0,-0.9999999999999998,0.9663899781345132
8682000000,73,8682000000,bluerov2/dvl_link,-1.4078650737423613,-1.0856660036469639,-0.6472701186815261,0.25,0.0,0.0,0.0,0.25,0.0,0.0,0.0,0.25,10.373550415039062,14.337881088256836,0.0,0.0,0.0,0,506000000,bluerov2/dvl_sonar0_link,0.0,0.0,0.0,0.0,-0.9999999999999998,0.0,0.9663899781345132,13.781726837158203,0.0,0.0,0.0,0,506000000,bluerov2/dvl_sonar1_link,0.0,0.0,0.0,0.0,0.0,0.9999999999999998,0.9663899781345132,6.014910697937012,0.0,0.0,0.0,0,506000000,bluerov2/dvl_sonar2_link,0.0,0.0,0.0,0.0,0.9999999999999998,0.0,0.9663899781345132,7.359683990478516,0.0,0.0,0.0,0,506000000,bluerov2/dvl_sonar3_link,0.0,0.0,0.0,0.0,0.0,-0.9999999999999998,0.9663899781345132
8794000000,74,8794000000,bluerov2/dvl_link,-1.1358411613879054,-1.2018806829305262,-0.3556091594854415,0.25,0.0,0.0,0.0,0.25,0.0,0.0,0.0,0.25,10.478973388671875,14.359540939331055,0.0,0.0,0.0,0,506000000,bluerov2/dvl_sonar0_link,0.0,0.0,0.0,0.0,-0.9999999999999998,0.0,0.9663899781345132,14.05001449584961,0.0,0.0,0.0,0,506000000,bluerov2/dvl_sonar1_link,0.0,0.0,0.0,0.0,0.0,0.9999999999999998,0.9663899781345132,6.063667297363281,0.0,0.0,0.0,0,506000000,bluerov2/dvl_sonar2_link,0.0,0.0,0.0,0.0,0.9999999999999998,0.0,0.9663899781345132,7.4426727294921875,0.0,0.0,0.0,0,506000000,bluerov2/dvl_sonar3_link,0.0,0.0,0.0,0.0,0.0,-0.9999999999999998,0.9663899781345132
8906000000,75,8906000000,bluerov2/dvl_link,-1.022871204867457,-1.4106835261944035,-0.26634066384420874,0.25,0.0,0.0,0.0,0.25,0.0,0.0,0.0,0.25,10.594006538391113,14.099213600158691,0.0,0.0,0.0,0,506000000,bluerov2/dvl_sonar0_link,0.0,0.0,0.0,0.0,-0.9999999999999998,0.0,0.9663899781345132,14.630993843078613,0.0,0.0,0.0,0,506000000,bluerov2/dvl_sonar1_link,0.0,0.0,0.0,0.0,0.0,0.9999999999999998,0.9663899781345132,6.167655944824219,0.0,0.0,0.0,0,506000000,bluerov2/dvl_sonar2_link,0.0,0.0,0.0,0.0,0.9999999999999998,0.0,0.9663899781345132,7.478159427642822,0.0,0.0,0.0,0,506000000,bluerov2/dvl_sonar3_link,0.0,0.0,0.0,0.0,0.0,-0.9999999999999998,0.9663899781345132
9018000000,76,9018000000,bluerov2/dvl_link,-0.7635815796156169,-1.435146058093661,-0.1635788131664769,0.25,0.0,0.0,0.0,0.25,0.0,0.0,0.0,0.25,11.017019271850586,14.697755813598633,0.0,0.0,0.0,0,506000000,bluerov2/dvl_sonar0_link,0.0,0.0,0.0,0.0,-0.9999999999999998,0.0,0.9663899781345132,15.54925537109375,0.0,0.0,0.0,0,506000000,bluerov2/dvl_sonar1_link,0.0,0.0,0.0,0.0,0.0,0.9999999999999998,0.9663899781345132,6.326613426208496,0.0,0.0,0.0,0,506000000,bluerov2/dvl_sonar2_link,0.0,0.0,0.0,0.0,0.9999999999999998,0.0,0.9663899781345132,7.494454860687256,0.0,0.0,0.0,0,506000000,bluerov2/dvl_sonar3_link,0.0,0.0,0.0,0.0,0.0,-0.9999999999999998,0.9663899781345132
9130000000,77,9130000000,bluerov2/dvl_link,-0.5249083472471492,-1.3390400618855058,0.014637664730199514,0.25,0.0,0.0,0.0,0.25,0.0,0.0,0.0,0.25,11.422907829284668,14.891939163208008,0.0,0.0,0.0,0,506000000,bluerov2/dvl_sonar0_link,0.0,0.0,0.0,0.0,-0.9999999999999998,0.0,0.9663899781345132,16.762577056884766,0.0,0.0,0.0,0,506000000,bluerov2/dvl_sonar1_link,0.0,0.0,0.0,0.0,0.0,0.9999999999999998,0.9663899781345132,6.512028217315674,0.0,0.0,0.0,0,506000000,bluerov2/dvl_sonar2_link,0.0,0.0,0.0,0.0,0.9999999999999998,0.0,0.9663899781345132,7.525086879730225,0.0,0.0,0.0,0,506000000,bluerov2/dvl_sonar3_link,0.0,0.0,0.0,0.0,0.0,-0.9999999999999998,0.9663899781345132
9242000000,78,9242000000,bluerov2/dvl_link,-0.5329829469799606,-1.501363764848993,-0.008029626003303196,0.25,0.0,0.0,0.0,0.25,0.0,0.0,0.0,0.25,28.407691955566406,81.0,0.0,0.0,0.0,0,506000000,bluerov2/dvl_sonar0_link,0.0,0.0,0.0,0.0,-0.9999999999999998,0.0,0.9663899781345132,18.329837799072266,0.0,0.0,0.0,0,506000000,bluerov2/dvl_sonar1_link,0.0,0.0,0.0,0.0,0.0,0.9999999999999998,0.9663899781345132,6.7172675132751465,0.0,0.0,0.0,0,506000000,bluerov2/dvl_sonar2_link,0.0,0.0,0.0,0.0,0.9999999999999998,0.0,0.9663899781345132,7.5836615562438965,0.0,0.0,0.0,0,506000000,bluerov2/dvl_sonar3_link,0.0,0.0,0.0,0.0,0.0,-0.9999999999999998,0.9663899781345132
9354000000,79,9354000000,bluerov2/dvl_link,-0.24616894513266635,-1.5184544474649586,0.06257280345231633,0.25,0.0,0.0,0.0,0.25,0.0,0.0,0.0,0.25,27.314369201660156,81.0,0.0,0.0,0.0,0,506000000,bluerov2/dvl_sonar0_link,0.0,0.0,0.0,0.0,-0.9999999999999998,0.0,0.9663899781345132,13.728987693786621,0.0,0.0,0.0,0,506000000,bluerov2/dvl_sonar1_link,0.0,0.0,0.0,0.0,0.0,0.9999999999999998,0.9663899781345132,6.905019283294678,0.0,0.0,0.0,0,506000000,bluerov2/dvl_sonar2_link,0.0,0.0,0.0,0.0,0.9999999999999998,0.0,0.9663899781345132,7.623470306396484,0.0,0.0,0.0,0,506000000,bluerov2/dvl_sonar3_link,0.0,0.0,0.0,0.0,0.0,-0.9999999999999998,0.9663899781345132
9466000000,80,9466000000,bluerov2/dvl_link,-0.007705246801507255,-1.606777943009149,0.13558798792350618,0.25,0.0,0.0,0.0,0.25,0.0,0.0,0.0,0.25,27.294391632080078,81.0,0.0,0.0,0.0,0,506000000,bluerov2/dvl_sonar0_link,0.0,0.0,0.0,0.0,-0.9999999999999998,0.0,0.9663899781345132,13.456039428710938,0.0,0.0,0.0,0,506000000,bluerov2/dvl_sonar1_link,0.0,0.0,0.0,0.0,0.0,0.9999999999999998,0.9663899781345132,7.101647853851318,0.0,0.0,0.0,0,506000000,bluerov2/dvl_sonar2_link,0.0,0.0,0.0,0.0,0.9999999999999998,0.0,0.9663899781345132,7.619876861572266,0.0,0.0,0.0,0,506000000,bluerov2/dvl_sonar3_link,0.0,0.0,0.0,0.0,0.0,-0.9999999999999998,0.9663899781345132
9578000000,81,9578000000,bluerov2/dvl_link,0.0788215341476235,-1.431614422732752,0.1910252859823211,0.25,0.0,0.0,0.0,0.25,0.0,0.0,0.0,0.25,27.232257843017578,81.0,0.0,0.0,0.0,0,506000000,bluerov2/dvl_sonar0_link,0.0,0.0,0.0,0.0,-0.9999999999999998,0.0,0.9663899781345132,13.008851051330566,0.0,0.0,0.0,0,506000000,bluerov2/dvl_sonar1_link,0.0,0.0,0.0,0.0,0.0,0.9999999999999998,0.9663899781345132,7.301339149475098,0.0,0.0,0.0,0,506000000,bluerov2/dvl_sonar2_link,0.0,0.0,0.0,0.0,0.9999999999999998,0.0,0.9663899781345132,7.618840217590332,0.0,0.0,0.0,0,506000000,bluerov2/dvl_sonar3_link,0.0,0.0,0.0,0.0,0.0,-0.9999999999999998,0.9663899781345132
9690000000,82,9690000000,bluerov2/dvl_link,0.19601538442115504,-1.594368954949883,0.02252693615683249,0.25,0.0,0.0,0.0,0.25,0.0,0.0,0.0,0.25,27.29778289794922,81.0,0.0,0.0,0.0,0,506000000,bluerov2/dvl_sonar0_link,0.0,0.0,0.0,0.0,-0.9999999999999998,0.0,0.9663899781345132,13.110650062561035,0.0,0.0,0.0,0,506000000,bluerov2/dvl_sonar1_link,0.0,0.0,0.0,0.0,0.0,0.9999999999999998,0.9663899781345132,7.48672342300415,0.0,0.0,0.0,0,506000000,bluerov2/dvl_sonar2_link,0.0,0.0,0.0,0.0,0.9999999999999998,0.0,0.9663899781345132,7.593757152557373,0.0,0.0,0.0,0,506000000,bluerov2/dvl_sonar3_link,0.0,0.0,0.0,0.0,0.0,-0.9999999999999998,0.9663899781345132
9802000000,83,9802000000,bluerov2/dvl_link,0.3443411925295968,-1.6183080007794297,0.00585349279653187,0.25,0.0,0.0,0.0,0.25,0.0,0.0,0.0,0.25,27.228084564208984,81.0,0.0,0.0,0.0,0,506000000,bluerov2/dvl_sonar0_link,0.0,0.0,0.0,0.0,-0.9999999999999998,0.0,0.9663899781345132,12.721949577331543,0.0,0.0,0.0,0,506000000,bluerov2/dvl_sonar1_link,0.0,0.0,0.0,0.0,0.0,0.9999999999999998,0.9663899781345132,7.663407802581787,0.0,0.0,0.0,0,506000000,bluerov2/dvl_sonar2_link,0.0,0.0,0.0,0.0,0.9999999999999998,0.0,0.9663899781345132,7.5269856452941895,0.0,0.0,0.0,0,506000000,bluerov2/dvl_sonar3_link,0.0,0.0,0.0,0.0,0.0,-0.9999999999999998,0.9663899781345132
9914000000,84,9914000000,bluerov2/dvl_link,0.4132832415431806,-1.5889621713220898,0.0921252959795524,0.25,0.0,0.0,0.0,0.25,0.0,0.0,0.0,0.25,27.250446319580078,81.0,0.0,0.0,0.0,0,506000000,bluerov2/dvl_sonar0_link,0.0,0.0,0.0,0.0,-0.9999999999999998,0.0,0.9663899781345132,12.759393692016602,0.0,0.0,0.0,0,506000000,bluerov2/dvl_sonar1_link,0.0,0.0,0.0,0.0,0.0,0.9999999999999998,0.9663899781345132,7.81173849105835,0.0,0.0,0.0,0,506000000,bluerov2/dvl_sonar2_link,0.0,0.0,0.0,0.0,0.9999999999999998,0.0,0.9663899781345132,7.430654525756836,0.0,0.0,0.0,0,506000000,bluerov2/dvl_sonar3_link,0.0,0.0,0.0,0.0,0.0,-0.9999999999999998,0.9663899781345132
10026000000,85,10026000000,bluerov2/dvl_link,0.46948184190012243,-1.6462308289849095,0.11338579915944386,0.25,0.0,0.0,0.0,0.25,0.0,0.0,0.0,0.25,27.204771041870117,81.0,0.0,0.0,0.0,0,506000000,bluerov2/dvl_sonar0_link,0.0,0.0,0.0,0.0,-0.9999999999999998,0.0,0.9663899781345132,12.520262718200684,0.0,0.0,0.0,0,506000000,bluerov2/dvl_sonar1_link,0.0,0.0,0.0,0.0,0.0,0.9999999999999998,0.9663899781345132,7.957597732543945,0.0,0.0,0.0,0,506000000,bluerov2/dvl_sonar2_link,0.0,0.0,0.0,0.0,0.9999999999999998,0.0,0.9663899781345132,7.3412251472473145,0.0,0.0,0.0,0,506000000,bluerov2/dvl_sonar3_link,0.0,0.0,0.0,0.0,0.0,-0.9999999999999998,0.9663899781345132
10138000000,86,10138000000,bluerov2/dvl_link,0.5047620692702371,-1.5892164855324555,0.1218461988280013,0.25,0.0,0.0,0.0,0.25,0.0,0.0,0.0,0.25,27.142942428588867,81.0,0.0,0.0,0.0,0,506000000,bluerov2/dvl_sonar0_link,0.0,0.0,0.0,0.0,-0.9999999999999998,0.0,0.9663899781345132,12.234186172485352,0.0,0.0,0.0,0,506000000,bluerov2/dvl_sonar1_link,0.0,0.0,0.0,0.0,0.0,0.9999999999999998,0.9663899781345132,8.097528457641602,0.0,0.0,0.0,0,506000000,bluerov2/dvl_sonar2_link,0.0,0.0,0.0,0.0,0.9999999999999998,0.0,0.9663899781345132,7.24005651473999,0.0,0.0,0.0,0,506000000,bluerov2/dvl_sonar3_link,0.0,0.0,0.0,0.0,0.0,-0.9999999999999998,0.9663899781345132
10250000000,87,10250000000,bluerov2/dvl_link,0.62433279953357,-1.5395861870370247,0.030751867443228966,0.25,0.0,0.0,0.0,0.25,0.0,0.0,0.0,0.25,27.042644500732422,81.0,0.0,0.0,0.0,0,506000000,bluerov2/dvl_sonar0_link,0.0,0.0,0.0,0.0,-0.9999999999999998,0.0,0.9663899781345132,11.823221206665039,0.0,0.0,0.0,0,506000000,bluerov2/dvl_sonar1_link,0.0,0.0,0.0,0.0,0.0,0.9999999999999998,0.9663899781345132,8.206918716430664,0.0,0.0,0.0,0,506000000,bluerov2/dvl_sonar2_link,0.0,0.0,0.0,0.0,0.9999999999999998,0.0,0.9663899781345132,7.140445232391357,0.0,0.0,0.0,0,506000000,bluerov2/dvl_sonar3_link,0.0,0.0,0.0,0.0,0.0,-0.9999999999999998,0.9663899781345132
10362000000,88,10362000000,bluerov2/dvl_link,0.6083151624221306,-1.437351498695878,0.007857819639346834,0.25,0.0,0.0,0.0,0.25,0.0,0.0,0.0,0.25,27.0428466796875,81.0,0.0,0.0,0.0,0,506000000,bluerov2/dvl_sonar0_link,0.0,0.0,0.0,0.0,-0.9999999999999998,0.0,0.9663899781345132,11.809459686279297,0.0,0.0,0.0,0,506000000,bluerov2/dvl_sonar1_link,0.0,0.0,0.0,0.0,0.0,0.9999999999999998,0.9663899781345132,8.310818672180176,0.0,0.0,0.0,0,506000000,bluerov2/dvl_sonar2_link,0.0,0.0,0.0,0.0,0.9999999999999998,0.0,0.9663899781345132,7.051100730895996,0.0,0.0,0.0,0,506000000,bluerov2/dvl_sonar3_link,0.0,0.0,0.0,0.0,0.0,-0.9999999999999998,0.9663899781345132
10474000000,89,10474000000,bluerov2/dvl_link,0.6179559265992689,-1.4021652592286358,0.06536941737614999,0.25,0.0,0.0,0.0,0.25,0.0,0.0,0.0,0.25,28.167327880859375,81.0,0.0,0.0,0.0,0,506000000,bluerov2/dvl_sonar0_link,0.0,0.0,0.0,0.0,-0.9999999999999998,0.0,0.9663899781345132,16.540685653686523,0.0,0.0,0.0,0,506000000,bluerov2/dvl_sonar1_link,0.0,0.0,0.0,0.0,0.0,0.9999999999999998,0.9663899781345132,8.211026191711426,0.0,0.0,0.0,0,506000000,bluerov2/dvl_sonar2_link,0.0,0.0,0.0,0.0,0.9999999999999998,0.0,0.9663899781345132,6.917591094970703,0.0,0.0,0.0,0,506000000,bluerov2/dvl_sonar3_link,0.0,0.0,0.0,0.0,0.0,-0.9999999999999998,0.9663899781345132
10586000000,90,10586000000,bluerov2/dvl_link,0.4734339694886999,-1.432061386964041,-0.027085062836723746,0.25,0.0,0.0,0.0,0.25,0.0,0.0,0.0,0.25,27.026399612426758,81.0,0.0,0.0,0.0,0,506000000,bluerov2/dvl_sonar0_link,0.0,0.0,0.0,0.0,-0.9999999999999998,0.0,0.9663899781345132,12.289114952087402,0.0,0.0,0.0,0,506000000,bluerov2/dvl_sonar1_link,0.0,0.0,0.0,0.0,0.0,0.9999999999999998,0.9663899781345132,8.0216703414917,0.0,0.0,0.0,0,506000000,bluerov2/dvl_sonar2_link,0.0,0.0,0.0,0.0,0.9999999999999998,0.0,0.9663899781345132,6.794817924499512,0.0,0.0,0.0,0,506000000,bluerov2/dvl_sonar3_link,0.0,0.0,0.0,0.0,0.0,-0.9999999999999998,0.9663899781345132
10698000000,91,10698000000,bluerov2/dvl_link,0.4106429941405703,-1.349349749140289,-0.05902782386082358,0.25,0.0,0.0,0.0,0.25,0.0,0.0,0.0,0.25,26.932836532592773,81.0,0.0,0.0,0.0,0,506000000,bluerov2/dvl_sonar0_link,0.0,0.0,0.0,0.0,-0.9999999999999998,0.0,0.9663899781345132,12.200753211975098,0.0,0.0,0.0,0,506000000,bluerov2/dvl_sonar1_link,0.0,0.0,0.0,0.0,0.0,0.9999999999999998,0.9663899781345132,7.840250015258789,0.0,0.0,0.0,0,506000000,bluerov2/dvl_sonar2_link,0.0,0.0,0.0,0.0,0.9999999999999998,0.0,0.9663899781345132,6.690347671508789,0.0,0.0,0.0,0,506000000,bluerov2/dvl_sonar3_link,0.0,0.0,0.0,0.0,0.0,-0.9999999999999998,0.9663899781345132
10810000000,92,10810000000,bluerov2/dvl_link,0.3822632631228923,-1.3680961876002864,0.09008698399652174,0.25,0.0,0.0,0.0,0.25,0.0,0.0,0.0,0.25,26.714262008666992,81.0,0.0,0.0,0.0,0,506000000,bluerov2/dvl_sonar0_link,0.0,0.0,0.0,0.0,-0.9999999999999998,0.0,0.9663899781345132,11.592508316040039,0.0,0.0,0.0,0,506000000,bluerov2/dvl_sonar1_link,0.0,0.0,0.0,0.0,0.0,0.9999999999999998,0.9663899781345132,7.70086669921875,0.0,0.0,0.0,0,506000000,bluerov2/dvl_sonar2_link,0.0,0.0,0.0,0.0,0.9999999999999998,0.0,0.9663899781345132,6.563671588897705,0.0,0.0,0.0,0,506000000,bluerov2/dvl_sonar3_link,0.0,0.0,0.0,0.0,0.0,-0.9999999999999998,0.9663899781345132
10922000000,93,10922000000,bluerov2/dvl_link,0.30324223537388556,-1.4677111228917306,0.03855976331064447,0.25,0.0,0.0,0.0,0.25,0.0,0.0,0.0,0.25,26.636213302612305,81.0,0.0,0.0,0.0,0,506000000,bluerov2/dvl_sonar0_link,0.0,0.0,0.0,0.0,-0.9999999999999998,0.0,0.9663899781345132,11.51507568359375,0.0,0.0,0.0,0,506000000,bluerov2/dvl_sonar1_link,0.0,0.0,0.0,0.0,0.0,0.9999999999999998,0.9663899781345132,7.5580339431762695,0.0,0.0,0.0,0,506000000,bluerov2/dvl_sonar2_link,0.0,0.0,0.0,0.0,0.9999999999999998,0.0,0.9663899781345132,6.471741676330566,0.0,0.0,0.0,0,506000000,bluerov2/dvl_sonar3_link,0.0,0.0,0.0,0.0,0.0,-0.9999999999999998,0.9663899781345132
11034000000,94,11034000000,bluerov2/dvl_link,0.33227618864442987,-1.4057946010512767,-0.06525148814680681,0.25,0.0,0.0,0.0,0.25,0.0,0.0,0.0,0.25,26.521541595458984,81.0,0.0,0.0,0.0,0,506000000,bluerov2/dvl_sonar0_link,0.0,0.0,0.0,0.0,-0.9999999999999998,0.0,0.9663899781345132,11.256608963012695,0.0,0.0,0.0,0,506000000,bluerov2/dvl_sonar1_link,0.0,0.0,0.0,0.0,0.0,0.9999999999999998,0.9663899781345132,7.44339656829834,0.0,0.0,0.0,0,506000000,bluerov2/dvl_sonar2_link,0.0,0.0,0.0,0.0,0.9999999999999998,0.0,0.9663899781345132,6.3861589431762695,0.0,0.0,0.0,0,506000000,bluerov2/dvl_sonar3_link,0.0,0.0,0.0,0.0,0.0,-0.9999999999999998,0.9663899781345132
11144000000,95,11146000000,bluerov2/dvl_link,0.2774106330052087,-1.4098150439543182,-0.0020702076094542762,0.25,0.0,0.0,0.0,0.25,0.0,0.0,0.0,0.25,26.470876693725586,81.0,0.0,0.0,0.0,0,506000000,bluerov2/dvl_sonar0_link,0.0,0.0,0.0,0.0,-0.9999999999999998,0.0,0.9663899781345132,11.188029289245605,0.0,0.0,0.0,0,506000000,bluerov2/dvl_sonar1_link,0.0,0.0,0.0,0.0,0.0,0.9999999999999998,0.9663899781345132,7.407221794128418,0.0,0.0,0.0,0,506000000,bluerov2/dvl_sonar2_link,0.0,0.0,0.0,0.0,0.9999999999999998,0.0,0.9663899781345132,6.288260459899902,0.0,0.0,0.0,0,506000000,bluerov2/dvl_sonar3_link,0.0,0.0,0.0,0.0,0.0,-0.9999999999999998,0.9663899781345132
11258000000,96,11258000000,bluerov2/dvl_link,0.18972722253456514,-1.409994609824786,-0.0831572390542681,0.25,0.0,0.0,0.0,0.25,0.0,0.0,0.0,0.25,26.450401306152344,81.0,0.0,0.0,0.0,0,506000000,bluerov2/dvl_sonar0_link,0.0,0.0,0.0,0.0,-0.9999999999999998,0.0,0.9663899781345132,11.255486488342285,0.0,0.0,0.0,0,506000000,bluerov2/dvl_sonar1_link,0.0,0.0,0.0,0.0,0.0,0.9999999999999998,0.9663899781345132,7.31932258605957,0.0,0.0,0.0,0,506000000,bluerov2/dvl_sonar2_link,0.0,0.0,0.0,0.0,0.9999999999999998,0.0,0.9663899781345132,6.226797103881836,0.0,0.0,0.0,0,506000000,bluerov2/dvl_sonar3_link,0.0,0.0,0.0,0.0,0.0,-0.9999999999999998,0.9663899781345132
11370000000,97,11370000000,bluerov2/dvl_link,-0.01306949969766949,-1.4600819440391104,0.011756375055194425,0.25,0.0,0.0,0.0,0.25,0.0,0.0,0.0,0.25,26.453182220458984,81.0,0.0,0.0,0.0,0,506000000,bluerov2/dvl_sonar0_link,0.0,0.0,0.0,0.0,-0.9999999999999998,0.0,0.9663899781345132,11.423925399780273,0.0,0.0,0.0,0,506000000,bluerov2/dvl_sonar1_link,0.0,0.0,0.0,0.0,0.0,0.9999999999999998,0.9663899781345132,7.2706074714660645,0.0,0.0,0.0,0,506000000,bluerov2/dvl_sonar2_link,0.0,0.0,0.0,0.0,0.9999999999999998,0.0,0.9663899781345132,6.118191242218018,0.0,0.0,0.0,0,506000000,bluerov2/dvl_sonar3_link,0.0,0.0,0.0,0.0,0.0,-0.9999999999999998,0.9663899781345132
11482000000,98,11482000000,bluerov2/dvl_link,0.026335590789155518,-1.4530297960837395,-0.13813610576765306,0.25,0.0,0.0,0.0,0.25,0.0,0.0,0.0,0.25,26.51702308654785,81.0,0.0,0.0,0.0,0,506000000,bluerov2/dvl_sonar0_link,0.0,0.0,0.0,0.0,-0.9999999999999998,0.0,0.9663899781345132,11.795812606811523,0.0,0.0,0.0,0,506000000,bluerov2/dvl_sonar1_link,0.0,0.0,0.0,0.0,0.0,0.9999999999999998,0.9663899781345132,7.230904579162598,0.0,0.0,0.0,0,506000000,bluerov2/dvl_sonar2_link,0.0,0.0,0.0,0.0,0.9999999999999998,0.0,0.9663899781345132,6.0413713455200195,0.0,0.0,0.0,0,506000000,bluerov2/dvl_sonar3_link,0.0,0.0,0.0,0.0,0.0,-0.9999999999999998,0.9663899781345132
11594000000,99,11594000000,bluerov2/dvl_link,0.009162669072974347,-1.5517440610395534,-0.07482682275017047,0.25,0.0,0.0,0.0,0.25,0.0,0.0,0.0,0.25,26.536510467529297,81.0,0.0,0.0,0.0,0,506000000,bluerov2/dvl_sonar0_link,0.0,0.0,0.0,0.0,-0.9999999999999998,0.0,0.9663899781345132,11.972516059875488,0.0,0.0,0.0,0,506000000,bluerov2/dvl_sonar1_link,0.0,0.0,0.0,0.0,0.0,0.9999999999999998,0.9663899781345132,7.219405174255371,0.0,0.0,0.0,0,506000000,bluerov2/dvl_sonar2_link,0.0,0.0,0.0,0.0,0.9999999999999998,0.0,0.9663899781345132,5.954119682312012,0.0,0.0,0.0,0,506000000,bluerov2/dvl_sonar3_link,0.0,0.0,0.0,0.0,0.0,-0.9999999999999998,0.9663899781345132
11706000000,100,11706000000,bluerov2/dvl_link,-0.043694680478634326,-1.6059002169603431,-0.12406472793896799,0.25,0.0,0.0,0.0,0.25,0.0,0.0,0.0,0.25,26.732091903686523,81.0,0.0,0.0,0.0,0,506000000,bluerov2/dvl_sonar0_link,0.0,0.0,0.0,0.0,-0.9999999999999998,0.0,0.9663899781345132,12.805789947509766,0.0,0.0,0.0,0,506000000,bluerov2/dvl_sonar1_link,0.0,0.0,0.0,0.0,0.0,0.9999999999999998,0.9663899781345132,7.232508659362793,0.0,0.0,0.0,0,506000000,bluerov2/dvl_sonar2_link,0.0,0.0,0.0,0.0,0.9999999999999998,0.0,0.9663899781345132,5.89007568359375,0.0,0.0,0.0,0,506000000,bluerov2/dvl_sonar3_link,0.0,0.0,0.0,0.0,0.0,-0.9999999999999998,0.9663899781345132
11818000000,101,11818000000,bluerov2/dvl_link,-0.2523067082208176,-1.5641674666133105,-0.16751802403278698,0.25,0.0,0.0,0.0,0.25,0.0,0.0,0.0,0.25,26.767375946044922,81.0,0.0,0.0,0.0,0,506000000,bluerov2/dvl_sonar0_link,0.0,0.0,0.0,0.0,-0.9999999999999998,0.0,0.9663899781345132,13.001421928405762,0.0,0.0,0.0,0,506000000,bluerov2/dvl_sonar1_link,0.0,0.0,0.0,0.0,0.0,0.9999999999999998,0.9663899781345132,7.2572550773620605,0.0,0.0,0.0,0,506000000,bluerov2/dvl_sonar2_link,0.0,0.0,0.0,0.0,0.9999999999999998,0.0,0.9663899781345132,5.8108320236206055,0.0,0.0,0.0,0,506000000,bluerov2/dvl_sonar3_link,0.0,0.0,0.0,0.0,0.0,-0.9999999999999998,0.9663899781345132
11930000000,102,11930000000,bluerov2/dvl_link,-0.2169646481313795,-1.61517160135198,-0.21065880189595568,0.25,0.0,0.0,0.0,0.25,0.0,0.0,0.0,0.25,36.95195770263672,81.0,0.0,0.0,0.0,0,506000000,bluerov2/dvl_sonar0_link,0.0,0.0,0.0,0.0,-0.9999999999999998,0.0,0.9663899781345132,53.79118728637695,0.0,0.0,0.0,0,506000000,bluerov2/dvl_sonar1_link,0.0,0.0,0.0,0.0,0.0,0.9999999999999998,0.9663899781345132,7.285778522491455,0.0,0.0,0.0,0,506000000,bluerov2/dvl_sonar2_link,0.0,0.0,0.0,0.0,0.9999999999999998,0.0,0.9663899781345132,5.73085880279541,0.0,0.0,0.0,0,506000000,bluerov2/dvl_sonar3_link,0.0,0.0,0.0,0.0,0.0,-0.9999999999999998,0.9663899781345132
12042000000,103,12042000000,bluerov2/dvl_link,-0.23693682558146928,-1.4003810952436897,-0.2957042186965021,0.25,0.0,0.0,0.0,0.25,0.0,0.0,0.0,0.25,26.691852569580078,81.0,0.0,0.0,0.0,0,506000000,bluerov2/dvl_sonar0_link,0.0,0.0,0.0,0.0,-0.9999999999999998,0.0,0.9663899781345132,12.81539249420166,0.0,0.0,0.0,0,506000000,bluerov2/dvl_sonar1_link,0.0,0.0,0.0,0.0,0.0,0.9999999999999998,0.9663899781345132,7.299459934234619,0.0,0.0,0.0,0,506000000,bluerov2/dvl_sonar2_link,0.0,0.0,0.0,0.0,0.9999999999999998,0.0,0.9663899781345132,5.65255880355835,0.0,0.0,0.0,0,506000000,bluerov2/dvl_sonar3_link,0.0,0.0,0.0,0.0,0.0,-0.9999999999999998,0.9663899781345132
12154000000,104,12154000000,bluerov2/dvl_link,-0.3997226023995312,-1.493441411039205,-0.27406317176703127,0.25,0.0,0.0,0.0,0.25,0.0,0.0,0.0,0.25,26.705739974975586,81.0,0.0,0.0,0.0,0,506000000,bluerov2/dvl_sonar0_link,0.0,0.0,0.0,0.0,-0.9999999999999998,0.0,0.9663899781345132,12.952446937561035,0.0,0.0,0.0,0,506000000,bluerov2/dvl_sonar1_link,0.0,0.0,0.0,0.0,0.0,0.9999999999999998,0.9663899781345132,7.274571418762207,0.0,0.0,0.0,0,506000000,bluerov2/dvl_sonar2_link,0.0,0.0,0.0,0.0,0.9999999999999998,0.0,0.9663899781345132,5.595939636230469,0.0,0.0,0.0,0,506000000,bluerov2/dvl_sonar3_link,0.0,0.0,0.0,0.0,0.0,-0.9999999999999998,0.9663899781345132
12266000000,105,12266000000,bluerov2/dvl_link,-0.35730304859772494,-1.413784482434097,-0.3303421878120313,0.25,0.0,0.0,0.0,0.25,0.0,0.0,0.0,0.25,26.74009895324707,81.0,0.0,0.0,0.0,0,506000000,bluerov2/dvl_sonar0_link,0.0,0.0,0.0,0.0,-0.9999999999999998,0.0,0.9663899781345132,13.113919258117676,0.0,0.0,0.0,0,506000000,bluerov2/dvl_sonar1_link,0.0,0.0,0.0,0.0,0.0,0.9999999999999998,0.9663899781345132,7.302597999572754,0.0,0.0,0.0,0,506000000,bluerov2/dvl_sonar2_link,0.0,0.0,0.0,0.0,0.9999999999999998,0.0,0.9663899781345132,5.543875694274902,0.0,0.0,0.0,0,506000000,bluerov2/dvl_sonar3_link,0.0,0.0,0.0,0.0,0.0,-0.9999999999999998,0.9663899781345132
12378000000,106,12378000000,bluerov2/dvl_link,-0.4326205756800765,-1.5193548393136929,-0.22801436451426527,0.25,0.0,0.0,0.0,0.25,0.0,0.0,0.0,0.25,26.82327651977539,81.0,0.0,0.0,0.0,0,506000000,bluerov2/dvl_sonar0_link,0.0,0.0,0.0,0.0,-0.9999999999999998,0.0,0.9663899781345132,13.490992546081543,0.0,0.0,0.0,0,506000000,bluerov2/dvl_sonar1_link,0.0,0.0,0.0,0.0,0.0,0.9999999999999998,0.9663899781345132,7.313962936401367,0.0,0.0,0.0,0,506000000,bluerov2/dvl_sonar2_link,0.0,0.0,0.0,0.0,0.9999999999999998,0.0,0.9663899781345132,5.488153457641602,0.0,0.0,0.0,0,506000000,bluerov2/dvl_sonar3_link,0.0,0.0,0.0,0.0,0.0,-0.9999999999999998,0.9663899781345132
12490000000,107,12490000000,bluerov2/dvl_link,-0.5150904643291169,-1.5217607036609444,-0.21221832669869395,0.25,0.0,0.0,0.0,0.25,0.0,0.0,0.0,0.25,26.89716339111328,81.0,0.0,0.0,0.0,0,506000000,bluerov2/dvl_sonar0_link,0.0,0.0,0.0,0.0,-0.9999999999999998,0.0,0.9663899781345132,13.865421295166016,0.0,0.0,0.0,0,506000000,bluerov2/dvl_sonar1_link,0.0,0.0,0.0,0.0,0.0,0.9999999999999998,0.9663899781345132,7.284947395324707,0.0,0.0,0.0,0,506000000,bluerov2/dvl_sonar2_link,0.0,0.0,0.0,0.0,0.9999999999999998,0.0,0.9663899781345132,5.438282489776611,0.0,0.0,0.0,0,506000000,bluerov2/dvl_sonar3_link,0.0,0.0,0.0,0.0,0.0,-0.9999999999999998,0.9663899781345132
12602000000,108,12602000000,bluerov2/dvl_link,-0.5245716074375542,-1.36397613431763,-0.21095422766596678,0.25,0.0,0.0,0.0,0.25,0.0,0.0,0.0,0.25,26.989185333251953,81.0,0.0,0.0,0.0,0,506000000,bluerov2/dvl_sonar0_link,0.0,0.0,0.0,0.0,-0.9999999999999998,0.0,0.9663899781345132,14.231035232543945,0.0,0.0,0.0,0,506000000,bluerov2/dvl_sonar1_link,0.0,0.0,0.0,0.0,0.0,0.9999999999999998,0.9663899781345132,7.280663013458252,0.0,0.0,0.0,0,506000000,bluerov2/dvl_sonar2_link,0.0,0.0,0.0,0.0,0.9999999999999998,0.0,0.9663899781345132,5.445042610168457,0.0,0.0,0.0,0,506000000,bluerov2/dvl_sonar3_link,0.0,0.0,0.0,0.0,0.0,-0.9999999999999998,0.9663899781345132
12714000000,109,12714000000,bluerov2/dvl_link,-0.5672076337989025,-1.4781934721726804,-0.17070843144762393,0.25,0.0,0.0,0.0,0.25,0.0,0.0,0.0,0.25,27.062397003173828,81.0,0.0,0.0,0.0,0,506000000,bluerov2/dvl_sonar0_link,0.0,0.0,0.0,0.0,-0.9999999999999998,0.0,0.9663899781345132,14.549835205078125,0.0,0.0,0.0,0,506000000,bluerov2/dvl_sonar1_link,0.0,0.0,0.0,0.0,0.0,0.9999999999999998,0.9663899781345132,7.285553455352783,0.0,0.0,0.0,0,506000000,bluerov2/dvl_sonar2_link,0.0,0.0,0.0,0.0,0.9999999999999998,0.0,0.9663899781345132,5.41419792175293,0.0,0.0,0.0,0,506000000,bluerov2/dvl_sonar3_link,0.0,0.0,0.0,0.0,0.0,-0.9999999999999998,0.9663899781345132
12826000000,110,12826000000,bluerov2/dvl_link,-0.5552262818828707,-1.5537891857320092,-0.22977776133218752,0.25,0.0,0.0,0.0,0.25,0.0,0.0,0.0,0.25,27.133394241333008,81.0,0.0,0.0,0.0,0,506000000,bluerov2/dvl_sonar0_link,0.0,0.0,0.0,0.0,-0.9999999999999998,0.0,0.9663899781345132,14.828505516052246,0.0,0.0,0.0,0,506000000,bluerov2/dvl_sonar1_link,0.0,0.0,0.0,0.0,0.0,0.9999999999999998,0.9663899781345132,7.325536251068115,0.0,0.0,0.0,0,506000000,bluerov2/dvl_sonar2_link,0.0,0.0,0.0,0.0,0.9999999999999998,0.0,0.9663899781345132,5.379533767700195,0.0,0.0,0.0,0,506000000,bluerov2/dvl_sonar3_link,0.0,0.0,0.0,0.0,0.0,-0.9999999999999998,0.9663899781345132
12938000000,111,12938000000,bluerov2/dvl_link,-0.5519412166041361,-1.5791739788089567,-0.24418401927532668,0.25,0.0,0.0,0.0,0.25,0.0,0.0,0.0,0.25,27.30853271484375,81.0,0.0,0.0,0.0,0,506000000,bluerov2/dvl_sonar0_link,0.0,0.0,0.0,0.0,-0.9999999999999998,0.0,0.9663899781345132,15.543067932128906,0.0,0.0,0.0,0,506000000,bluerov2/dvl_sonar1_link,0.0,0.0,0.0,0.0,0.0,0.9999999999999998,0.9663899781345132,7.3512349128723145,0.0,0.0,0.0,0,506000000,bluerov2/dvl_sonar2_link,0.0,0.0,0.0,0.0,0.9999999999999998,0.0,0.9663899781345132,5.339831829071045,0.0,0.0,0.0,0,506000000,bluerov2/dvl_sonar3_link,0.0,0.0,0.0,0.0,0.0,-0.9999999999999998,0.9663899781345132
13050000000,112,13050000000,bluerov2/dvl_link,-0.48426399377487367,-1.459491260887937,-0.13623103682273185,0.25,0.0,0.0,0.0,0.25,0.0,0.0,0.0,0.25,34.58003616333008,81.0,0.0,0.0,0.0,0,506000000,bluerov2/dvl_sonar0_link,0.0,0.0,0.0,0.0,-0.9999999999999998,0.0,0.9663899781345132,44.60797119140625,0.0,0.0,0.0,0,506000000,bluerov2/dvl_sonar1_link,0.0,0.0,0.0,0.0,0.0,0.9999999999999998,0.9663899781345132,7.38426399230957,0.0,0.0,0.0,0,506000000,bluerov2/dvl_sonar2_link,0.0,0.0,0.0,0.0,0.9999999999999998,0.0,0.9663899781345132,5.3279128074646,0.0,0.0,0.0,0,506000000,bluerov2/dvl_sonar3_link,0.0,0.0,0.0,0.0,0.0,-0.9999999999999998,0.9663899781345132
13162000000,113,13162000000,bluerov2/dvl_link,-0.4967155745343243,-1.402947142304573,-0.16338536256735686,0.25,0.0,0.0,0.0,0.25,0.0,0.0,0.0,0.25,34.59578323364258,81.0,0.0,0.0,0.0,0,506000000,bluerov2/dvl_sonar0_link,0.0,0.0,0.0,0.0,-0.9999999999999998,0.0,0.9663899781345132,44.663936614990234,0.0,0.0,0.0,0,506000000,bluerov2/dvl_sonar1_link,0.0,0.0,0.0,0.0,0.0,0.9999999999999998,0.9663899781345132,7.428471565246582,0.0,0.0,0.0,0,506000000,bluerov2/dvl_sonar2_link,0.0,0.0,0.0,0.0,0.9999999999999998,0.0,0.9663899781345132,5.29072380065918,0.0,0.0,0.0,0,506000000,bluerov2/dvl_sonar3_link,0.0,0.0,0.0,0.0,0.0,-0.9999999999999998,0.9663899781345132
13274000000,114,13274000000,bluerov2/dvl_link,-0.3941177050854503,-1.4202141802122186,-0.04971035679967942,0.25,0.0,0.0,0.0,0.25,0.0,0.0,0.0,0.25,34.73014831542969,81.0,0.0,0.0,0.0,0,506000000,bluerov2/dvl_sonar0_link,0.0,0.0,0.0,0.0,-0.9999999999999998,0.0,0.9663899781345132,45.18877410888672,0.0,0.0,0.0,0,506000000,bluerov2/dvl_sonar1_link,0.0,0.0,0.0,0.0,0.0,0.9999999999999998,0.9663899781345132,7.475329399108887,0.0,0.0,0.0,0,506000000,bluerov2/dvl_sonar2_link,0.0,0.0,0.0,0.0,0.9999999999999998,0.0,0.9663899781345132,5.2564921379089355,0.0,0.0,0.0,0,506000000,bluerov2/dvl_sonar3_link,0.0,0.0,0.0,0.0,0.0,-0.9999999999999998,0.9663899781345132
13386000000,115,13386000000,bluerov2/dvl_link,-0.40430718128402277,-1.4307050816193045,-0.030225016146394112,0.25,0.0,0.0,0.0,0.25,0.0,0.0,0.0,0.25,34.986637115478516,81.0,0.0,0.0,0.0,0,506000000,bluerov2/dvl_sonar0_link,0.0,0.0,0.0,0.0,-0.9999999999999998,0.0,0.9663899781345132,46.20950698852539,0.0,0.0,0.0,0,506000000,bluerov2/dvl_sonar1_link,0.0,0.0,0.0,0.0,0.0,0.9999999999999998,0.9663899781345132,7.505190849304199,0.0,0.0,0.0,0,506000000,bluerov2/dvl_sonar2_link,0.0,0.0,0.0,0.0,0.9999999999999998,0.0,0.9663899781345132,5.2318572998046875,0.0,0.0,0.0,0,506000000,bluerov2/dvl_sonar3_link,0.0,0.0,0.0,0.0,0.0,-0.9999999999999998,0.9663899781345132
13496000000,116,13498000000,bluerov2/dvl_link,-0.47814541141693906,-1.3214881836943948,-0.030340021850269988,0.25,0.0,0.0,0.0,0.25,0.0,0.0,0.0,0.25,35.338741302490234,81.0,0.0,0.0,0.0,0,506000000,bluerov2/dvl_sonar0_link,0.0,0.0,0.0,0.0,-0.9999999999999998,0.0,0.9663899781345132,47.63142013549805,0.0,0.0,0.0,0,506000000,bluerov2/dvl_sonar1_link,0.0,0.0,0.0,0.0,0.0,0.9999999999999998,0.9663899781345132,7.545438766479492,0.0,0.0,0.0,0,506000000,bluerov2/dvl_sonar2_link,0.0,0.0,0.0,0.0,0.9999999999999998,0.0,0.9663899781345132,5.178104400634766,0.0,0.0,0.0,0,506000000,bluerov2/dvl_sonar3_link,0.0,0.0,0.0,0.0,0.0,-0.9999999999999998,0.9663899781345132
13610000000,117,13610000000,bluerov2/dvl_link,-0.40043743860942427,-1.378078020376182,-0.020352433825756647,0.25,0.0,0.0,0.0,0.25,0.0,0.0,0.0,0.25,35.702632904052734,81.0,0.0,0.0,0.0,0,506000000,bluerov2/dvl_sonar0_link,0.0,0.0,0.0,0.0,-0.9999999999999998,0.0,0.9663899781345132,49.138668060302734,0.0,0.0,0.0,0,506000000,bluerov2/dvl_sonar1_link,0.0,0.0,0.0,0.0,0.0,0.9999999999999998,0.9663899781345132,7.544344902038574,0.0,0.0,0.0,0,506000000,bluerov2/dvl_sonar2_link,0.0,0.0,0.0,0.0,0.9999999999999998,0.0,0.9663899781345132,5.12751579284668,0.0,0.0,0.0,0,506000000,bluerov2/dvl_sonar3_link,0.0,0.0,0.0,0.0,0.0,-0.9999999999999998,0.9663899781345132
13722000000,118,13722000000,bluerov2/dvl_link,-0.2840509070072502,-1.3974966038359047,-0.057233208893081575,0.25,0.0,0.0,0.0,0.25,0.0,0.0,0.0,0.25,36.16566467285156,81.0,0.0,0.0,0.0,0,506000000,bluerov2/dvl_sonar0_link,0.0,0.0,0.0,0.0,-0.9999999999999998,0.0,0.9663899781345132,50.813026428222656,0.0,0.0,0.0,0,506000000,bluerov2/dvl_sonar1_link,0.0,0.0,0.0,0.0,0.0,0.9999999999999998,0.9663899781345132,7.774925231933594,0.0,0.0,0.0,0,506000000,bluerov2/dvl_sonar2_link,0.0,0.0,0.0,0.0,0.9999999999999998,0.0,0.9663899781345132,5.074700355529785,0.0,0.0,0.0,0,506000000,bluerov2/dvl_sonar3_link,0.0,0.0,0.0,0.0,0.0,-0.9999999999999998,0.9663899781345132
13834000000,119,13834000000,bluerov2/dvl_link,-0.25579683993071933,-1.474993570699031,0.013036429816888948,0.25,0.0,0.0,0.0,0.25,0.0,0.0,0.0,0.25,36.57502746582031,81.0,0.0,0.0,0.0,0,506000000,bluerov2/dvl_sonar0_link,0.0,0.0,0.0,0.0,-0.9999999999999998,0.0,0.9663899781345132,52.736568450927734,0.0,0.0,0.0,0,506000000,bluerov2/dvl_sonar1_link,0.0,0.0,0.0,0.0,0.0,0.9999999999999998,0.9663899781345132,7.5461931228637695,0.0,0.0,0.0,0,506000000,bluerov2/dvl_sonar2_link,0.0,0.0,0.0,0.0,0.9999999999999998,0.0,0.9663899781345132,5.017346382141113,0.0,0.0,0.0,0,506000000,bluerov2/dvl_sonar3_link,0.0,0.0,0.0,0.0,0.0,-0.9999999999999998,0.9663899781345132
13946000000,120,13946000000,bluerov2/dvl_link,-0.3142694337190361,-1.4947511195049312,-0.07233790631355295,0.25,0.0,0.0,0.0,0.25,0.0,0.0,0.0,0.25,36.96917724609375,81.0,0.0,0.0,0.0,0,506000000,bluerov2/dvl_sonar0_link,0.0,0.0,0.0,0.0,-0.9999999999999998,0.0,0.9663899781345132,54.424110412597656,0.0,0.0,0.0,0,506000000,bluerov2/dvl_sonar1_link,0.0,0.0,0.0,0.0,0.0,0.9999999999999998,0.9663899781345132,7.500180244445801,0.0,0.0,0.0,0,506000000,bluerov2/dvl_sonar2_link,0.0,0.0,0.0,0.0,0.9999999999999998,0.0,0.9663899781345132,4.95242977142334,0.0,0.0,0.0,0,506000000,bluerov2/dvl_sonar3_link,0.0,0.0,0.0,0.0,0.0,-0.9999999999999998,0.9663899781345132
14058000000,121,14058000000,bluerov2/dvl_link,-0.2069643373197758,-1.467212064427367,-0.13449492003898797,0.25,0.0,0.0,0.0,0.25,0.0,0.0,0.0,0.25,37.2639045715332,81.0,0.0,0.0,0.0,0,506000000,bluerov2/dvl_sonar0_link,0.0,0.0,0.0,0.0,-0.9999999999999998,0.0,0.9663899781345132,55.73950958251953,0.0,0.0,0.0,0,506000000,bluerov2/dvl_sonar1_link,0.0,0.0,0.0,0.0,0.0,0.9999999999999998,0.9663899781345132,7.437739849090576,0.0,0.0,0.0,0,506000000,bluerov2/dvl_sonar2_link,0.0,0.0,0.0,0.0,0.9999999999999998,0.0,0.9663899781345132,4.878365993499756,0.0,0.0,0.0,0,506000000,bluerov2/dvl_sonar3_link,0.0,0.0,0.0,0.0,0.0,-0.9999999999999998,0.9663899781345132
14170000000,122,14170000000,bluerov2/dvl_link,-0.22882606988794782,-1.5032526135481918,-0.03694876012068419,0.25,0.0,0.0,0.0,0.25,0.0,0.0,0.0,0.25,37.46064758300781,81.0,0.0,0.0,0.0,0,506000000,bluerov2/dvl_sonar0_link,0.0,0.0,0.0,0.0,-0.9999999999999998,0.0,0.9663899781345132,56.70277404785156,0.0,0.0,0.0,0,506000000,bluerov2/dvl_sonar1_link,0.0,0.0,0.0,0.0,0.0,0.9999999999999998,0.9663899781345132,7.339544296264648,0.0,0.0,0.0,0,506000000,bluerov2/dvl_sonar2_link,0.0,0.0,0.0,0.0,0.9999999999999998,0.0,0.9663899781345132,4.800285339355469,0.0,0.0,0.0,0,506000000,bluerov2/dvl_sonar3_link,0.0,0.0,0.0,0.0,0.0,-0.9999999999999998,0.9663899781345132
14282000000,123,14282000000,bluerov2/dvl_link,-0.18496589290464455,-1.4196142328491557,0.011109212987133639,0.25,0.0,0.0,0.0,0.25,0.0,0.0,0.0,0.25,37.68696975708008,81.0,0.0,0.0,0.0,0,506000000,bluerov2/dvl_sonar0_link,0.0,0.0,0.0,0.0,-0.9999999999999998,0.0,0.9663899781345132,57.80342483520508,0.0,0.0,0.0,0,506000000,bluerov2/dvl_sonar1_link,0.0,0.0,0.0,0.0,0.0,0.9999999999999998,0.9663899781345132,7.229962348937988,0.0,0.0,0.0,0,506000000,bluerov2/dvl_sonar2_link,0.0,0.0,0.0,0.0,0.9999999999999998,0.0,0.9663899781345132,4.714493274688721,0.0,0.0,0.0,0,506000000,bluerov2/dvl_sonar3_link,0.0,0.0,0.0,0.0,0.0,-0.9999999999999998,0.9663899781345132
14394000000,124,14394000000,bluerov2/dvl_link,-0.2315080691024316,-1.4624585058422337,-0.0015740418787582797,0.25,0.0,0.0,0.0,0.25,0.0,0.0,0.0,0.25,37.9703254699707,81.0,0.0,0.0,0.0,0,506000000,bluerov2/dvl_sonar0_link,0.0,0.0,0.0,0.0,-0.9999999999999998,0.0,0.9663899781345132,59.15634536743164,0.0,0.0,0.0,0,506000000,bluerov2/dvl_sonar1_link,0.0,0.0,0.0,0.0,0.0,0.9999999999999998,0.9663899781345132,7.096518039703369,0.0,0.0,0.0,0,506000000,bluerov2/dvl_sonar2_link,0.0,0.0,0.0,0.0,0.9999999999999998,0.0,0.9663899781345132,4.628452301025391,0.0,0.0,0.0,0,506000000,bluerov2/dvl_sonar3_link,0.0,0.0,0.0,0.0,0.0,-0.9999999999999998,0.9663899781345132
14506000000,125,14506000000,bluerov2/dvl_link,-0.19797057234945906,-1.4425716387678282,-0.046020295021714216,0.25,0.0,0.0,0.0,0.25,0.0,0.0,0.0,0.25,38.229007720947266,81.0,0.0,0.0,0.0,0,506000000,bluerov2/dvl_sonar0_link,0.0,0.0,0.0,0.0,-0.9999999999999998,0.0,0.9663899781345132,60.41313552856445,0.0,0.0,0.0,0,506000000,bluerov2/dvl_sonar1_link,0.0,0.0,0.0,0.0,0.0,0.9999999999999998,0.9663899781345132,6.969477653503418,0.0,0.0,0.0,0,506000000,bluerov2/dvl_sonar2_link,0.0,0.0,0.0,0.0,0.9999999999999998,0.0,0.9663899781345132,4.533423900604248,0.0,0.0,0.0,0,506000000,bluerov2/dvl_sonar3_link,0.0,0.0,0.0,0.0,0.0,-0.9999999999999998,0.9663899781345132
14618000000,126,14618000000,bluerov2/dvl_link,-0.12554394377170658,-1.442070433655555,-0.06358008086285162,0.25,0.0,0.0,0.0,0.25,0.0,0.0,0.0,0.25,38.47300338745117,81.0,0.0,0.0,0.0,0,506000000,bluerov2/dvl_sonar0_link,0.0,0.0,0.0,0.0,-0.9999999999999998,0.0,0.9663899781345132,61.6069450378418,0.0,0.0,0.0,0,506000000,bluerov2/dvl_sonar1_link,0.0,0.0,0.0,0.0,0.0,0.9999999999999998,0.9663899781345132,6.833108425140381,0.0,0.0,0.0,0,506000000,bluerov2/dvl_sonar2_link,0.0,0.0,0.0,0.0,0.9999999999999998,0.0,0.9663899781345132,4.451951503753662,0.0,0.0,0.0,0,506000000,bluerov2/dvl_sonar3_link,0.0,0.0,0.0,0.0,0.0,-0.9999999999999998,0.9663899781345132
14730000000,127,14730000000,bluerov2/dvl_link,-0.10848565040362337,-1.5338741110895944,-0.11846050752727787,0.25,0.0,0.0,0.0,0.25,0.0,0.0,0.0,0.25,38.77037811279297,81.0,0.0,0.0,0.0,0,506000000,bluerov2/dvl_sonar0_link,0.0,0.0,0.0,0.0,-0.9999999999999998,0.0,0.9663899781345132,63.015281677246094,0.0,0.0,0.0,0,506000000,bluerov2/dvl_sonar1_link,0.0,0.0,0.0,0.0,0.0,0.9999999999999998,0.9663899781345132,6.70611047744751,0.0,0.0,0.0,0,506000000,bluerov2/dvl_sonar2_link,0.0,0.0,0.0,0.0,0.9999999999999998,0.0,0.9663899781345132,4.360111713409424,0.0,0.0,0.0,0,506000000,bluerov2/dvl_sonar3_link,0.0,0.0,0.0,0.0,0.0,-0.9999999999999998,0.9663899781345132
14842000000,128,14842000000,bluerov2/dvl_link,-0.10942971423368827,-1.5295073095884024,-0.0324839383979415,0.25,0.0,0.0,0.0,0.25,0.0,0.0,0.0,0.25,39.05712890625,81.0,0.0,0.0,0.0,0,506000000,bluerov2/dvl_sonar0_link,0.0,0.0,0.0,0.0,-0.9999999999999998,0.0,0.9663899781345132,64.3824234008789,0.0,0.0,0.0,0,506000000,bluerov2/dvl_sonar1_link,0.0,0.0,0.0,0.0,0.0,0.9999999999999998,0.9663899781345132,6.578610897064209,0.0,0.0,0.0,0,506000000,bluerov2/dvl_sonar2_link,0.0,0.0,0.0,0.0,0.9999999999999998,0.0,0.9663899781345132,4.267482757568359,0.0,0.0,0.0,0,506000000,bluerov2/dvl_sonar3_link,0.0,0.0,0.0,0.0,0.0,-0.9999999999999998,0.9663899781345132
14954000000,129,14954000000,bluerov2/dvl_link,-0.1226174417827827,-1.5310687913824212,-0.047595859678379177,0.25,0.0,0.0,0.0,0.25,0.0,0.0,0.0,0.25,39.25434875488281,81.0,0.0,0.0,0.0,0,506000000,bluerov2/dvl_sonar0_link,0.0,0.0,0.0,0.0,-0.9999999999999998,0.0,0.9663899781345132,65.54305267333984,0.0,0.0,0.0,0,506000000,bluerov2/dvl_sonar1_link,0.0,0.0,0.0,0.0,0.0,0.9999999999999998,0.9663899781345132,6.353383541107178,0.0,0.0,0.0,0,506000000,bluerov2/dvl_sonar2_link,0.0,0.0,0.0,0.0,0.9999999999999998,0.0,0.9663899781345132,4.120962142944336,0.0,0.0,0.0,0,506000000,bluerov2/dvl_sonar3_link,0.0,0.0,0.0,0.0,0.0,-0.9999999999999998,0.9663899781345132
15066000000,130,15066000000,bluerov2/dvl_link,-0.012581421550848113,-1.5107584956457167,-0.13194399059220024,0.25,0.0,0.0,0.0,0.25,0.0,0.0,0.0,0.25,39.290592193603516,81.0,0.0,0.0,0.0,0,506000000,bluerov2/dvl_sonar0_link,0.0,0.0,0.0,0.0,-0.9999999999999998,0.0,0.9663899781345132,65.907470703125,0.0,0.0,0.0,0,506000000,bluerov2/dvl_sonar1_link,0.0,0.0,0.0,0.0,0.0,0.9999999999999998,0.9663899781345132,6.209075450897217,0.0,0.0,0.0,0,506000000,bluerov2/dvl_sonar2_link,0.0,0.0,0.0,0.0,0.9999999999999998,0.0,0.9663899781345132,4.045822620391846,0.0,0.0,0.0,0,506000000,bluerov2/dvl_sonar3_link,0.0,0.0,0.0,0.0,0.0,-0.9999999999999998,0.9663899781345132
15178000000,131,15178000000,bluerov2/dvl_link,-0.09233886443592215,-1.542876834264612,-0.074325457236495,0.25,0.0,0.0,0.0,0.25,0.0,0.0,0.0,0.25,39.16149139404297,81.0,0.0,0.0,0.0,0,506000000,bluerov2/dvl_sonar0_link,0.0,0.0,0.0,0.0,-0.9999999999999998,0.0,0.9663899781345132,65.62207794189453,0.0,0.0,0.0,0,506000000,bluerov2/dvl_sonar1_link,0.0,0.0,0.0,0.0,0.0,0.9999999999999998,0.9663899781345132,6.069415092468262,0.0,0.0,0.0,0,506000000,bluerov2/dvl_sonar2_link,0.0,0.0,0.0,0.0,0.9999999999999998,0.0,0.9663899781345132,3.9544856548309326,0.0,0.0,0.0,0,506000000,bluerov2/dvl_sonar3_link,0.0,0.0,0.0,0.0,0.0,-0.9999999999999998,0.9663899781345132
15290000000,132,15290000000,bluerov2/dvl_link,0.00772675238114795,-1.566828193740073,-0.04742748132661446,0.25,0.0,0.0,0.0,0.25,0.0,0.0,0.0,0.25,38.98639678955078,81.0,0.0,0.0,0.0,0,506000000,bluerov2/dvl_sonar0_link,0.0,0.0,0.0,0.0,-0.9999999999999998,0.0,0.9663899781345132,65.14288330078125,0.0,0.0,0.0,0,506000000,bluerov2/dvl_sonar1_link,0.0,0.0,0.0,0.0,0.0,0.9999999999999998,0.9663899781345132,5.93594217300415,0.0,0.0,0.0,0,506000000,bluerov2/dvl_sonar2_link,0.0,0.0,0.0,0.0,0.9999999999999998,0.0,0.9663899781345132,3.86676025390625,0.0,0.0,0.0,0,506000000,bluerov2/dvl_sonar3_link,0.0,0.0,0.0,0.0,0.0,-0.9999999999999998,0.9663899781345132
15402000000,133,15402000000,bluerov2/dvl_link,-0.06181743846997265,-1.5257434838298989,-0.037023173255116115,0.25,0.0,0.0,0.0,0.25,0.0,0.0,0.0,0.25,38.88741683959961,81.0,0.0,0.0,0.0,0,506000000,bluerov2/dvl_sonar0_link,0.0,0.0,0.0,0.0,-0.9999999999999998,0.0,0.9663899781345132,64.9673080444336,0.0,0.0,0.0,0,506000000,bluerov2/dvl_sonar1_link,0.0,0.0,0.0,0.0,0.0,0.9999999999999998,0.9663899781345132,5.801175117492676,0.0,0.0,0.0,0,506000000,bluerov2/dvl_sonar2_link,0.0,0.0,0.0,0.0,0.9999999999999998,0.0,0.9663899781345132,3.781174898147583,0.0,0.0,0.0,0,506000000,bluerov2/dvl_sonar3_link,0.0,0.0,0.0,0.0,0.0,-0.9999999999999998,0.9663899781345132
15514000000,134,15514000000,bluerov2/dvl_link,-0.0653427437443666,-1.5552765183454584,-0.04603437020533297,0.25,0.0,0.0,0.0,0.25,0.0,0.0,0.0,0.25,38.78401184082031,81.0,0.0,0.0,0.0,0,506000000,bluerov2/dvl_sonar0_link,0.0,0.0,0.0,0.0,-0.9999999999999998,0.0,0.9663899781345132,64.7485580444336,0.0,0.0,0.0,0,506000000,bluerov2/dvl_sonar1_link,0.0,0.0,0.0,0.0,0.0,0.9999999999999998,0.9663899781345132,5.696308612823486,0.0,0.0,0.0,0,506000000,bluerov2/dvl_sonar2_link,0.0,0.0,0.0,0.0,0.9999999999999998,0.0,0.9663899781345132,3.691178560256958,0.0,0.0,0.0,0,506000000,bluerov2/dvl_sonar3_link,0.0,0.0,0.0,0.0,0.0,-0.9999999999999998,0.9663899781345132
15626000000,135,15626000000,bluerov2/dvl_link,-0.01000573770049168,-1.505357568770919,-0.08315557058600048,0.25,0.0,0.0,0.0,0.25,0.0,0.0,0.0,0.25,38.67558288574219,81.0,0.0,0.0,0.0,0,506000000,bluerov2/dvl_sonar0_link,0.0,0.0,0.0,0.0,-0.9999999999999998,0.0,0.9663899781345132,64.49602508544922,0.0,0.0,0.0,0,506000000,bluerov2/dvl_sonar1_link,0.0,0.0,0.0,0.0,0.0,0.9999999999999998,0.9663899781345132,5.602689743041992,0.0,0.0,0.0,0,506000000,bluerov2/dvl_sonar2_link,0.0,0.0,0.0,0.0,0.9999999999999998,0.0,0.9663899781345132,3.603602886199951,0.0,0.0,0.0,0,506000000,bluerov2/dvl_sonar3_link,0.0,0.0,0.0,0.0,0.0,-0.9999999999999998,0.9663899781345132
15738000000,136,15738000000,bluerov2/dvl_link,-0.13957408546945943,-1.4741528520119922,-0.026853971262714604,0.25,0.0,0.0,0.0,0.25,0.0,0.0,0.0,0.25,38.67558288574219,81.0,0.0,0.0,0.0,0,506000000,bluerov2/dvl_sonar0_link,0.0,0.0,0.0,0.0,-0.9999999999999998,0.0,0.9663899781345132,64.49602508544922,0.0,0.0,0.0,0,506000000,bluerov2/dvl_sonar1_link,0.0,0.0,0.0,0.0,0.0,0.9999999999999998,0.9663899781345132,5.602689743041992,0.0,0.0,0.0,0,506000000,bluerov2/dvl_sonar2_link,0.0,0.0,0.0,0.0,0.9999999999999998,0.0,0.9663899781345132,3.603602886199951,0.0,0.0,0.0,0,506000000,bluerov2/dvl_sonar3_link,0.0,0.0,0.0,0.0,0.0,-0.9999999999999998,0.9663899781345132
15848000000,137,15850000000,bluerov2/dvl_link,-0.15481670395814442,-1.5217585043013795,-0.11035860790286735,0.25,0.0,0.0,0.0,0.25,0.0,0.0,0.0,0.25,38.67558288574219,81.0,0.0,0.0,0.0,0,506000000,bluerov2/dvl_sonar0_link,0.0,0.0,0.0,0.0,-0.9999999999999998,0.0,0.9663899781345132,64.49602508544922,0.0,0.0,0.0,0,506000000,bluerov2/dvl_sonar1_link,0.0,0.0,0.0,0.0,0.0,0.9999999999999998,0.9663899781345132,5.602689743041992,0.0,0.0,0.0,0,506000000,bluerov2/dvl_sonar2_link,0.0,0.0,0.0,0.0,0.9999999999999998,0.0,0.9663899781345132,3.603602886199951,0.0,0.0,0.0,0,506000000,bluerov2/dvl_sonar3_link,0.0,0.0,0.0,0.0,0.0,-0.9999999999999998,0.9663899781345132
15960000000,138,15962000000,bluerov2/dvl_link,-0.21415178252859962,-1.4707739059172535,-0.05071391516634231,0.25,0.0,0.0,0.0,0.25,0.0,0.0,0.0,0.25,38.67558288574219,81.0,0.0,0.0,0.0,0,506000000,bluerov2/dvl_sonar0_link,0.0,0.0,0.0,0.0,-0.9999999999999998,0.0,0.9663899781345132,64.49602508544922,0.0,0.0,0.0,0,506000000,bluerov2/dvl_sonar1_link,0.0,0.0,0.0,0.0,0.0,0.9999999999999998,0.9663899781345132,5.602689743041992,0.0,0.0,0.0,0,506000000,bluerov2/dvl_sonar2_link,0.0,0.0,0.0,0.0,0.9999999999999998,0.0,0.9663899781345132,3.603602886199951,0.0,0.0,0.0,0,506000000,bluerov2/dvl_sonar3_link,0.0,0.0,0.0,0.0,0.0,-0.9999999999999998,0.9663899781345132
16074000000,139,16074000000,bluerov2/dvl_link,-0.12234334910252243,-1.3849168768285018,-0.1435592249575734,0.25,0.0,0.0,0.0,0.25,0.0,0.0,0.0,0.25,38.67558288574219,81.0,0.0,0.0,0.0,0,506000000,bluerov2/dvl_sonar0_link,0.0,0.0,0.0,0.0,-0.9999999999999998,0.0,0.9663899781345132,64.49602508544922,0.0,0.0,0.0,0,506000000,bluerov2/dvl_sonar1_link,0.0,0.0,0.0,0.0,0.0,0.9999999999999998,0.9663899781345132,5.602689743041992,0.0,0.0,0.0,0,506000000,bluerov2/dvl_sonar2_link,0.0,0.0,0.0,0.0,0.9999999999999998,0.0,0.9663899781345132,3.603602886199951,0.0,0.0,0.0,0,506000000,bluerov2/dvl_sonar3_link,0.0,0.0,0.0,0.0,0.0,-0.9999999999999998,0.9663899781345132
16186000000,140,16186000000,bluerov2/dvl_link,-0.13770319832574762,-1.5008815571374745,-0.05210948851933879,0.25,0.0,0.0,0.0,0.25,0.0,0.0,0.0,0.25,38.2330322265625,81.0,0.0,0.0,0.0,0,506000000,bluerov2/dvl_sonar0_link,0.0,0.0,0.0,0.0,-0.9999999999999998,0.0,0.9663899781345132,63.995384216308594,0.0,0.0,0.0,0,506000000,bluerov2/dvl_sonar1_link,0.0,0.0,0.0,0.0,0.0,0.9999999999999998,0.9663899781345132,4.994296550750732,0.0,0.0,0.0,0,506000000,bluerov2/dvl_sonar2_link,0.0,0.0,0.0,0.0,0.9999999999999998,0.0,0.9663899781345132,2.9424500465393066,0.0,0.0,0.0,0,506000000,bluerov2/dvl_sonar3_link,0.0,0.0,0.0,0.0,0.0,-0.9999999999999998,0.9663899781345132
16298000000,141,16298000000,bluerov2/dvl_link,-0.1563580093291223,-1.4059688013000256,-0.06550024279944461,0.25,0.0,0.0,0.0,0.25,0.0,0.0,0.0,0.25,38.07788848876953,81.0,0.0,0.0,0.0,0,506000000,bluerov2/dvl_sonar0_link,0.0,0.0,0.0,0.0,-0.9999999999999998,0.0,0.9663899781345132,63.60603713989258,0.0,0.0,0.0,0,506000000,bluerov2/dvl_sonar1_link,0.0,0.0,0.0,0.0,0.0,0.9999999999999998,0.9663899781345132,4.805084705352783,0.0,0.0,0.0,0,506000000,bluerov2/dvl_sonar2_link,0.0,0.0,0.0,0.0,0.9999999999999998,0.0,0.9663899781345132,2.9004406929016113,0.0,0.0,0.0,0,506000000,bluerov2/dvl_sonar3_link,0.0,0.0,0.0,0.0,0.0,-0.9999999999999998,0.9663899781345132
16410000000,142,16410000000,bluerov2/dvl_link,-0.17052900360768913,-1.4468362925797462,-0.12337182541370445,0.25,0.0,0.0,0.0,0.25,0.0,0.0,0.0,0.25,37.969482421875,81.0,0.0,0.0,0.0,0,506000000,bluerov2/dvl_sonar0_link,0.0,0.0,0.0,0.0,-0.9999999999999998,0.0,0.9663899781345132,63.415584564208984,0.0,0.0,0.0,0,506000000,bluerov2/dvl_sonar1_link,0.0,0.0,0.0,0.0,0.0,0.9999999999999998,0.9663899781345132,4.636819839477539,0.0,0.0,0.0,0,506000000,bluerov2/dvl_sonar2_link,0.0,0.0,0.0,0.0,0.9999999999999998,0.0,0.9663899781345132,2.8255105018615723,0.0,0.0,0.0,0,506000000,bluerov2/dvl_sonar3_link,0.0,0.0,0.0,0.0,0.0,-0.9999999999999998,0.9663899781345132
16522000000,143,16522000000,bluerov2/dvl_link,-0.13267019634087435,-1.3082756865391394,-0.030403512998719476,0.25,0.0,0.0,0.0,0.25,0.0,0.0,0.0,0.25,37.83199691772461,81.0,0.0,0.0,0.0,0,506000000,bluerov2/dvl_sonar0_link,0.0,0.0,0.0,0.0,-0.9999999999999998,0.0,0.9663899781345132,63.09386444091797,0.0,0.0,0.0,0,506000000,bluerov2/dvl_sonar1_link,0.0,0.0,0.0,0.0,0.0,0.9999999999999998,0.9663899781345132,4.529597759246826,0.0,0.0,0.0,0,506000000,bluerov2/dvl_sonar2_link,0.0,0.0,0.0,0.0,0.9999999999999998,0.0,0.9663899781345132,2.704516887664795,0.0,0.0,0.0,0,506000000,bluerov2/dvl_sonar3_link,0.0,0.0,0.0,0.0,0.0,-0.9999999999999998,0.9663899781345132
16634000000,144,16634000000,bluerov2/dvl_link,-0.21746334777549714,-1.3681508594648204,-0.17171268015673888,0.25,0.0,0.0,0.0,0.25,0.0,0.0,0.0,0.25,37.65715026855469,81.0,0.0,0.0,0.0,0,506000000,bluerov2/dvl_sonar0_link,0.0,0.0,0.0,0.0,-0.9999999999999998,0.0,0.9663899781345132,62.586395263671875,0.0,0.0,0.0,0,506000000,bluerov2/dvl_sonar1_link,0.0,0.0,0.0,0.0,0.0,0.9999999999999998,0.9663899781345132,4.398236274719238,0.0,0.0,0.0,0,506000000,bluerov2/dvl_sonar2_link,0.0,0.0,0.0,0.0,0.9999999999999998,0.0,0.9663899781345132,2.6439664363861084,0.0,0.0,0.0,0,506000000,bluerov2/dvl_sonar3_link,0.0,0.0,0.0,0.0,0.0,-0.9999999999999998,0.9663899781345132
16746000000,145,16746000000,bluerov2/dvl_link,-0.13955317894858027,-1.4810471690666314,-0.12267100612037392,0.25,0.0,0.0,0.0,0.25,0.0,0.0,0.0,0.25,37.402584075927734,81.0,0.0,0.0,0.0,0,506000000,bluerov2/dvl_sonar0_link,0.0,0.0,0.0,0.0,-0.9999999999999998,0.0,0.9663899781345132,61.766353607177734,0.0,0.0,0.0,0,506000000,bluerov2/dvl_sonar1_link,0.0,0.0,0.0,0.0,0.0,0.9999999999999998,0.9663899781345132,4.297392845153809,0.0,0.0,0.0,0,506000000,bluerov2/dvl_sonar2_link,0.0,0.0,0.0,0.0,0.9999999999999998,0.0,0.9663899781345132,2.5465810298919678,0.0,0.0,0.0,0,506000000,bluerov2/dvl_sonar3_link,0.0,0.0,0.0,0.0,0.0,-0.9999999999999998,0.9663899781345132
16858000000,146,16858000000,bluerov2/dvl_link,-0.16241391127627347,-1.6387989689836553,-0.1219971946925589,0.25,0.0,0.0,0.0,0.25,0.0,0.0,0.0,0.25,37.21662139892578,81.0,0.0,0.0,0.0,0,506000000,bluerov2/dvl_sonar0_link,0.0,0.0,0.0,0.0,-0.9999999999999998,0.0,0.9663899781345132,61.14287185668945,0.0,0.0,0.0,0,506000000,bluerov2/dvl_sonar1_link,0.0,0.0,0.0,0.0,0.0,0.9999999999999998,0.9663899781345132,4.132288932800293,0.0,0.0,0.0,0,506000000,bluerov2/dvl_sonar2_link,0.0,0.0,0.0,0.0,0.9999999999999998,0.0,0.9663899781345132,2.5913243293762207,0.0,0.0,0.0,0,506000000,bluerov2/dvl_sonar3_link,0.0,0.0,0.0,0.0,0.0,-0.9999999999999998,0.9663899781345132
16970000000,147,16970000000,bluerov2/dvl_link,-0.206754815330089,-1.5200474899383627,-0.1418029811025099,0.25,0.0,0.0,0.0,0.25,0.0,0.0,0.0,0.25,36.94194412231445,81.0,0.0,0.0,0.0,0,506000000,bluerov2/dvl_sonar0_link,0.0,0.0,0.0,0.0,-0.9999999999999998,0.0,0.9663899781345132,60.646121978759766,0.0,0.0,0.0,0,506000000,bluerov2/dvl_sonar1_link,0.0,0.0,0.0,0.0,0.0,0.9999999999999998,0.9663899781345132,4.0238423347473145,0.0,0.0,0.0,0,506000000,bluerov2/dvl_sonar2_link,0.0,0.0,0.0,0.0,0.9999999999999998,0.0,0.9663899781345132,2.0978119373321533,0.0,0.0,0.0,0,506000000,bluerov2/dvl_sonar3_link,0.0,0.0,0.0,0.0,0.0,-0.9999999999999998,0.9663899781345132
17082000000,148,17082000000,bluerov2/dvl_link,-0.14059192814078805,-1.410670025455338,-0.22941516385995053,0.25,0.0,0.0,0.0,0.25,0.0,0.0,0.0,0.25,17.64801788330078,4.44397497177124,0.0,0.0,0.0,0,506000000,bluerov2/dvl_sonar0_link,0.0,0.0,0.0,0.0,-0.9999999999999998,0.0,0.9663899781345132,60.21278381347656,0.0,0.0,0.0,0,506000000,bluerov2/dvl_sonar1_link,0.0,0.0,0.0,0.0,0.0,0.9999999999999998,0.9663899781345132,3.9179141521453857,0.0,0.0,0.0,0,506000000,bluerov2/dvl_sonar2_link,0.0,0.0,0.0,0.0,0.9999999999999998,0.0,0.9663899781345132,2.0173933506011963,0.0,0.0,0.0,0,506000000,bluerov2/dvl_sonar3_link,0.0,0.0,0.0,0.0,0.0,-0.9999999999999998,0.9663899781345132
17194000000,149,17194000000,bluerov2/dvl_link,-0.2000806655794012,-1.4189073698345245,-0.12336410119280641,0.25,0.0,0.0,0.0,0.25,0.0,0.0,0.0,0.25,17.215316772460938,4.304855823516846,0.0,0.0,0.0,0,506000000,bluerov2/dvl_sonar0_link,0.0,0.0,0.0,0.0,-0.9999999999999998,0.0,0.9663899781345132,59.8646125793457,0.0,0.0,0.0,0,506000000,bluerov2/dvl_sonar1_link,0.0,0.0,0.0,0.0,0.0,0.9999999999999998,0.9663899781345132,2.760937213897705,0.0,0.0,0.0,0,506000000,bluerov2/dvl_sonar2_link,0.0,0.0,0.0,0.0,0.9999999999999998,0.0,0.9663899781345132,1.9308531284332275,0.0,0.0,0.0,0,506000000,bluerov2/dvl_sonar3_link,0.0,0.0,0.0,0.0,0.0,-0.9999999999999998,0.9663899781345132
17306000000,150,17306000000,bluerov2/dvl_link,-0.19234406597456624,-1.4668650660064717,-0.19026295743690677,0.25,0.0,0.0,0.0,0.25,0.0,0.0,0.0,0.25,16.80447769165039,3.4627130031585693,0.0,0.0,0.0,0,506000000,bluerov2/dvl_sonar0_link,0.0,0.0,0.0,0.0,-0.9999999999999998,0.0,0.9663899781345132,59.245201110839844,0.0,0.0,0.0,0,506000000,bluerov2/dvl_sonar1_link,0.0,0.0,0.0,0.0,0.0,0.9999999999999998,0.9663899781345132,2.6716017723083496,0.0,0.0,0.0,0,506000000,bluerov2/dvl_sonar2_link,0.0,0.0,0.0,0.0,0.9999999999999998,0.0,0.9663899781345132,1.838395595550537,0.0,0.0,0.0,0,506000000,bluerov2/dvl_sonar3_link,0.0,0.0,0.0,0.0,0.0,-0.9999999999999998,0.9663899781345132
17418000000,151,17418000000,bluerov2/dvl_link,-0.19415190999087284,-1.501643675872601,-0.15062288149714068,0.25,0.0,0.0,0.0,0.25,0.0,0.0,0.0,0.25,16.51087760925293,3.2905097007751465,0.0,0.0,0.0,0,506000000,bluerov2/dvl_sonar0_link,0.0,0.0,0.0,0.0,-0.9999999999999998,0.0,0.9663899781345132,58.44718933105469,0.0,0.0,0.0,0,506000000,bluerov2/dvl_sonar1_link,0.0,0.0,0.0,0.0,0.0,0.9999999999999998,0.9663899781345132,2.540800094604492,0.0,0.0,0.0,0,506000000,bluerov2/dvl_sonar2_link,0.0,0.0,0.0,0.0,0.9999999999999998,0.0,0.9663899781345132,1.765012264251709,0.0,0.0,0.0,0,506000000,bluerov2/dvl_sonar3_link,0.0,0.0,0.0,0.0,0.0,-0.9999999999999998,0.9663899781345132
17530000000,152,17530000000,bluerov2/dvl_link,-0.256576166538224,-1.540016997507841,-0.1348341963843262,0.25,0.0,0.0,0.0,0.25,0.0,0.0,0.0,0.25,16.283353805541992,3.193577766418457,0.0,0.0,0.0,0,506000000,bluerov2/dvl_sonar0_link,0.0,0.0,0.0,0.0,-0.9999999999999998,0.0,0.9663899781345132,57.71022033691406,0.0,0.0,0.0,0,506000000,bluerov2/dvl_sonar1_link,0.0,0.0,0.0,0.0,0.0,0.9999999999999998,0.9663899781345132,2.4765396118164062,0.0,0.0,0.0,0,506000000,bluerov2/dvl_sonar2_link,0.0,0.0,0.0,0.0,0.9999999999999998,0.0,0.9663899781345132,1.7530776262283325,0.0,0.0,0.0,0,506000000,bluerov2/dvl_sonar3_link,0.0,0.0,0.0,0.0,0.0,-0.9999999999999998,0.9663899781345132
