%time,field.header.seq,field.header.stamp,field.header.frame_id,field.velocity.x,field.velocity.y,field.velocity.z,field.velocity_covariance0,field.velocity_covariance1,field.velocity_covariance2,field.velocity_covariance3,field.velocity_covariance4,field.velocity_covariance5,field.velocity_covariance6,field.velocity_covariance7,field.velocity_covariance8,field.altitude,field.beams0.range,field.beams0.range_covariance,field.beams0.velocity,field.beams0.velocity_covariance,field.beams0.pose.header.seq,field.beams0.pose.header.stamp,field.beams0.pose.header.frame_id,field.beams0.pose.pose.position.x,field.beams0.pose.pose.position.y,field.beams0.pose.pose.position.z,field.beams0.pose.pose.orientation.x,field.beams0.pose.pose.orientation.y,field.beams0.pose.pose.orientation.z,field.beams0.pose.pose.orientation.w,field.beams1.range,field.beams1.range_covariance,field.beams1.velocity,field.beams1.velocity_covariance,field.beams1.pose.header.seq,field.beams1.pose.header.stamp,field.beams1.pose.header.frame_id,field.beams1.pose.pose.position.x,field.beams1.pose.pose.position.y,field.beams1.pose.pose.position.z,field.beams1.pose.pose.orientation.x,field.beams1.pose.pose.orientation.y,field.beams1.pose.pose.orientation.z,field.beams1.pose.pose.orientation.w,field.beams2.range,field.beams2.range_covariance,field.beams2.velocity,field.beams2.velocity_covariance,field.beams2.pose.header.seq,field.beams2.pose.header.stamp,field.beams2.pose.header.frame_id,field.beams2.pose.pose.position.x,field.beams2.pose.pose.position.y,field.beams2.pose.pose.position.z,field.beams2.pose.pose.orientation.x,field.beams2.pose.pose.orientation.y,field.beams2.pose.pose.orientation.z,field.beams2.pose.pose.orientation.w,field.beams3.range,field.beams3.range_covariance,field.beams3.velocity,field.beams3.velocity_covariance,field.beams3.pose.header.seq,field.beams3.pose.header.stamp,field.beams3.pose.header.frame_id,field.beams3.pose.pose.position.x,field.beams3.pose.pose.position.y,field.beams3.pose.pose.position.z,field.beams3.pose.pose.orientation.x,field.beams3.pose.pose.orientation.y,field.beams3.pose.pose.orientation.z,field.beams3.pose.pose.orientation.w
5645000000,46,5645000000,bluerov2/dvl_link,1.0319648614720123,0.020636751825232093,0.012754947336319544,0.25,0.0,0.0,0.0,0.25,0.0,0.0,0.0,0.25,33.174747467041016,81.0,0.0,0.0,0.0,0,493000000,bluerov2/dvl_sonar0_link,0.0,0.0,0.0,0.0,-0.9999999999999998,0.0,0.9663899781345132,6.531777381896973,0.0,0.0,0.0,0,493000000,bluerov2/dvl_sonar1_link,0.0,0.0,0.0,0.0,0.0,0.9999999999999998,0.9663899781345132,3.7987899780273438,0.0,0.0,0.0,0,493000000,bluerov2/dvl_sonar2_link,0.0,0.0,0.0,0.0,0.9999999999999998,0.0,0.9663899781345132,41.36842346191406,0.0,0.0,0.0,0,493000000,bluerov2/dvl_sonar3_link,0.0,0.0,0.0,0.0,0.0,-0.9999999999999998,0.9663899781345132
5757000000,47,5757000000,bluerov2/dvl_link,1.0327218905802453,-0.055209931307620086,0.01488987601034281,0.25,0.0,0.0,0.0,0.25,0.0,0.0,0.0,0.25,33.18881607055664,81.0,0.0,0.0,0.0,0,493000000,bluerov2/dvl_sonar0_link,0.0,0.0,0.0,0.0,-0.9999999999999998,0.0,0.9663899781345132,6.520899295806885,0.0,0.0,0.0,0,493000000,bluerov2/dvl_sonar1_link,0.0,0.0,0.0,0.0,0.0,0.9999999999999998,0.9663899781345132,3.806764841079712,0.0,0.0,0.0,0,493000000,bluerov2/dvl_sonar2_link,0.0,0.0,0.0,0.0,0.9999999999999998,0.0,0.9663899781345132,41.4276008605957,0.0,0.0,0.0,0,493000000,bluerov2/dvl_sonar3_link,0.0,0.0,0.0,0.0,0.0,-0.9999999999999998,0.9663899781345132
5869000000,48,5869000000,bluerov2/dvl_link,0.947363895075821,0.16220399679808278,-0.023410036064101174,0.25,0.0,0.0,0.0,0.25,0.0,0.0,0.0,0.25,33.205238342285156,81.0,0.0,0.0,0.0,0,493000000,bluerov2/dvl_sonar0_link,0.0,0.0,0.0,0.0,-0.9999999999999998,0.0,0.9663899781345132,6.500690460205078,0.0,0.0,0.0,0,493000000,bluerov2/dvl_sonar1_link,0.0,0.0,0.0,0.0,0.0,0.9999999999999998,0.9663899781345132,3.806123971939087,0.0,0.0,0.0,0,493000000,bluerov2/dvl_sonar2_link,0.0,0.0,0.0,0.0,0.9999999999999998,0.0,0.9663899781345132,41.51414489746094,0.0,0.0,0.0,0,493000000,bluerov2/dvl_sonar3_link,0.0,0.0,0.0,0.0,0.0,-0.9999999999999998,0.9663899781345132
5981000000,49,5981000000,bluerov2/dvl_link,1.0137074401276494,-0.038881473342055106,0.06599705438628783,0.25,0.0,0.0,0.0,0.25,0.0,0.0,0.0,0.25,33.221988677978516,81.0,0.0,0.0,0.0,0,493000000,bluerov2/dvl_sonar0_link,0.0,0.0,0.0,0.0,-0.9999999999999998,0.0,0.9663899781345132,6.478784084320068,0.0,0.0,0.0,0,493000000,bluerov2/dvl_sonar1_link,0.0,0.0,0.0,0.0,0.0,0.9999999999999998,0.9663899781345132,3.8000125885009766,0.0,0.0,0.0,0,493000000,bluerov2/dvl_sonar2_link,0.0,0.0,0.0,0.0,0.9999999999999998,0.0,0.9663899781345132,41.60916519165039,0.0,0.0,0.0,0,493000000,bluerov2/dvl_sonar3_link,0.0,0.0,0.0,0.0,0.0,-0.9999999999999998,0.9663899781345132
6093000000,50,6093000000,bluerov2/dvl_link,1.05508594405582,0.04227761174498797,0.02296062586144944,0.25,0.0,0.0,0.0,0.25,0.0,0.0,0.0,0.25,33.238800048828125,81.0,0.0,0.0,0.0,0,493000000,bluerov2/dvl_sonar0_link,0.0,0.0,0.0,0.0,-0.9999999999999998,0.0,0.9663899781345132,6.471299171447754,0.0,0.0,0.0,0,493000000,bluerov2/dvl_sonar1_link,0.0,0.0,0.0,0.0,0.0,0.9999999999999998,0.9663899781345132,3.8086555004119873,0.0,0.0,0.0,0,493000000,bluerov2/dvl_sonar2_link,0.0,0.0,0.0,0.0,0.9999999999999998,0.0,0.9663899781345132,41.67524337768555,0.0,0.0,0.0,0,493000000,bluerov2/dvl_sonar3_link,0.0,0.0,0.0,0.0,0.0,-0.9999999999999998,0.9663899781345132
6205000000,51,6205000000,bluerov2/dvl_link,0.9846129819554857,0.027049853481128726,-0.00393610584883753,0.25,0.0,0.0,0.0,0.25,0.0,0.0,0.0,0.25,33.24897766113281,81.0,0.0,0.0,0.0,0,493000000,bluerov2/dvl_sonar0_link,0.0,0.0,0.0,0.0,-0.9999999999999998,0.0,0.9663899781345132,6.454808235168457,0.0,0.0,0.0,0,493000000,bluerov2/dvl_sonar1_link,0.0,0.0,0.0,0.0,0.0,0.9999999999999998,0.9663899781345132,3.803804397583008,0.0,0.0,0.0,0,493000000,bluerov2/dvl_sonar2_link,0.0,0.0,0.0,0.0,0.9999999999999998,0.0,0.9663899781345132,41.73729705810547,0.0,0.0,0.0,0,493000000,bluerov2/dvl_sonar3_link,0.0,0.0,0.0,0.0,0.0,-0.9999999999999998,0.9663899781345132
6317000000,52,6317000000,bluerov2/dvl_link,1.0280113732536307,0.008913841062296611,0.027195611570603104,0.25,0.0,0.0,0.0,0.25,0.0,0.0,0.0,0.25,33.25351333618164,81.0,0.0,0.0,0.0,0,493000000,bluerov2/dvl_sonar0_link,0.0,0.0,0.0,0.0,-0.9999999999999998,0.0,0.9663899781345132,6.455950736999512,0.0,0.0,0.0,0,493000000,bluerov2/dvl_sonar1_link,0.0,0.0,0.0,0.0,0.0,0.9999999999999998,0.9663899781345132,3.8043766021728516,0.0,0.0,0.0,0,493000000,bluerov2/dvl_sonar2_link,0.0,0.0,0.0,0.0,0.9999999999999998,0.0,0.9663899781345132,41.75373077392578,0.0,0.0,0.0,0,493000000,bluerov2/dvl_sonar3_link,0.0,0.0,0.0,0.0,0.0,-0.9999999999999998,0.9663899781345132
6429000000,53,6429000000,bluerov2/dvl_link,1.046149027626759,0.03475921417800859,-0.01607421823375889,0.25,0.0,0.0,0.0,0.25,0.0,0.0,0.0,0.25,33.254150390625,81.0,0.0,0.0,0.0,0,493000000,bluerov2/dvl_sonar0_link,0.0,0.0,0.0,0.0,-0.9999999999999998,0.0,0.9663899781345132,6.4531755447387695,0.0,0.0,0.0,0,493000000,bluerov2/dvl_sonar1_link,0.0,0.0,0.0,0.0,0.0,0.9999999999999998,0.9663899781345132,3.797401189804077,0.0,0.0,0.0,0,493000000,bluerov2/dvl_sonar2_link,0.0,0.0,0.0,0.0,0.9999999999999998,0.0,0.9663899781345132,41.76601791381836,0.0,0.0,0.0,0,493000000,bluerov2/dvl_sonar3_link,0.0,0.0,0.0,0.0,0.0,-0.9999999999999998,0.9663899781345132
6541000000,54,6541000000,bluerov2/dvl_link,0.9974363699833124,0.054896081590391776,-0.054643913036414096,0.25,0.0,0.0,0.0,0.25,0.0,0.0,0.0,0.25,33.260643005371094,81.0,0.0,0.0,0.0,0,493000000,bluerov2/dvl_sonar0_link,0.0,0.0,0.0,0.0,-0.9999999999999998,0.0,0.9663899781345132,6.442986488342285,0.0,0.0,0.0,0,493000000,bluerov2/dvl_sonar1_link,0.0,0.0,0.0,0.0,0.0,0.9999999999999998,0.9663899781345132,3.801561117172241,0.0,0.0,0.0,0,493000000,bluerov2/dvl_sonar2_link,0.0,0.0,0.0,0.0,0.9999999999999998,0.0,0.9663899781345132,41.798030853271484,0.0,0.0,0.0,0,493000000,bluerov2/dvl_sonar3_link,0.0,0.0,0.0,0.0,0.0,-0.9999999999999998,0.9663899781345132
6653000000,55,6653000000,bluerov2/dvl_link,1.040387559290258,-0.057520188808880185,0.025417609399933278,0.25,0.0,0.0,0.0,0.25,0.0,0.0,0.0,0.25,33.27855682373047,81.0,0.0,0.0,0.0,0,493000000,bluerov2/dvl_sonar0_link,0.0,0.0,0.0,0.0,-0.9999999999999998,0.0,0.9663899781345132,6.443190097808838,0.0,0.0,0.0,0,493000000,bluerov2/dvl_sonar1_link,0.0,0.0,0.0,0.0,0.0,0.9999999999999998,0.9663899781345132,3.809623956680298,0.0,0.0,0.0,0,493000000,bluerov2/dvl_sonar2_link,0.0,0.0,0.0,0.0,0.9999999999999998,0.0,0.9663899781345132,41.86140823364258,0.0,0.0,0.0,0,493000000,bluerov2/dvl_sonar3_link,0.0,0.0,0.0,0.0,0.0,-0.9999999999999998,0.9663899781345132
6765000000,56,6765000000,bluerov2/dvl_link,1.0306636745605382,0.09607047628950909,0.048071718568307574,0.25,0.0,0.0,0.0,0.25,0.0,0.0,0.0,0.25,33.28644561767578,81.0,0.0,0.0,0.0,0,493000000,bluerov2/dvl_sonar0_link,0.0,0.0,0.0,0.0,-0.9999999999999998,0.0,0.9663899781345132,6.432553291320801,0.0,0.0,0.0,0,493000000,bluerov2/dvl_sonar1_link,0.0,0.0,0.0,0.0,0.0,0.9999999999999998,0.9663899781345132,3.8003950119018555,0.0,0.0,0.0,0,493000000,bluerov2/dvl_sonar2_link,0.0,0.0,0.0,0.0,0.9999999999999998,0.0,0.9663899781345132,41.91282653808594,0.0,0.0,0.0,0,493000000,bluerov2/dvl_sonar3_link,0.0,0.0,0.0,0.0,0.0,-0.9999999999999998,0.9663899781345132
6877000000,57,6877000000,bluerov2/dvl_link,1.1077821636256182,0.04238744828667886,-0.09327182300796504,0.25,0.0,0.0,0.0,0.25,0.0,0.0,0.0,0.25,33.3015022277832,81.0,0.0,0.0,0.0,0,493000000,bluerov2/dvl_sonar0_link,0.0,0.0,0.0,0.0,-0.9999999999999998,0.0,0.9663899781345132,6.418282985687256,0.0,0.0,0.0,0,493000000,bluerov2/dvl_sonar1_link,0.0,0.0,0.0,0.0,0.0,0.9999999999999998,0.9663899781345132,3.809479236602783,0.0,0.0,0.0,0,493000000,bluerov2/dvl_sonar2_link,0.0,0.0,0.0,0.0,0.9999999999999998,0.0,0.9663899781345132,41.97825241088867,0.0,0.0,0.0,0,493000000,bluerov2/dvl_sonar3_link,0.0,0.0,0.0,0.0,0.0,-0.9999999999999998,0.9663899781345132
6989000000,58,6989000000,bluerov2/dvl_link,0.950077404626346,0.05302244171588432,-0.012662705815461785,0.25,0.0,0.0,0.0,0.25,0.0,0.0,0.0,0.25,33.32400894165039,81.0,0.0,0.0,0.0,0,493000000,bluerov2/dvl_sonar0_link,0.0,0.0,0.0,0.0,-0.9999999999999998,0.0,0.9663899781345132,6.40880012512207,0.0,0.0,0.0,0,493000000,bluerov2/dvl_sonar1_link,0.0,0.0,0.0,0.0,0.0,0.9999999999999998,0.9663899781345132,3.8090968132019043,0.0,0.0,0.0,0,493000000,bluerov2/dvl_sonar2_link,0.0,0.0,0.0,0.0,0.9999999999999998,0.0,0.9663899781345132,42.07814407348633,0.0,0.0,0.0,0,493000000,bluerov2/dvl_sonar3_link,0.0,0.0,0.0,0.0,0.0,-0.9999999999999998,0.9663899781345132
7101000000,59,7101000000,bluerov2/dvl_link,1.0635635359207232,0.04250751523373504,0.014049997213894426,0.25,0.0,0.0,0.0,0.25,0.0,0.0,0.0,0.25,33.33937072753906,81.0,0.0,0.0,0.0,0,493000000,bluerov2/dvl_sonar0_link,0.0,0.0,0.0,0.0,-0.9999999999999998,0.0,0.9663899781345132,6.3985114097595215,0.0,0.0,0.0,0,493000000,bluerov2/dvl_sonar1_link,0.0,0.0,0.0,0.0,0.0,0.9999999999999998,0.9663899781345132,3.8100907802581787,0.0,0.0,0.0,0,493000000,bluerov2/dvl_sonar2_link,0.0,0.0,0.0,0.0,0.9999999999999998,0.0,0.9663899781345132,42.14888000488281,0.0,0.0,0.0,0,493000000,bluerov2/dvl_sonar3_link,0.0,0.0,0.0,0.0,0.0,-0.9999999999999998,0.9663899781345132
7213000000,60,7213000000,bluerov2/dvl_link,0.9725474643931439,-0.003716202237335906,0.003193357670519434,0.25,0.0,0.0,0.0,0.25,0.0,0.0,0.0,0.25,33.3514404296875,81.0,0.0,0.0,0.0,0,493000000,bluerov2/dvl_sonar0_link,0.0,0.0,0.0,0.0,-0.9999999999999998,0.0,0.9663899781345132,6.378673553466797,0.0,0.0,0.0,0,493000000,bluerov2/dvl_sonar1_link,0.0,0.0,0.0,0.0,0.0,0.9999999999999998,0.9663899781345132,3.807521343231201,0.0,0.0,0.0,0,493000000,bluerov2/dvl_sonar2_link,0.0,0.0,0.0,0.0,0.9999999999999998,0.0,0.9663899781345132,42.21956253051758,0.0,0.0,0.0,0,493000000,bluerov2/dvl_sonar3_link,0.0,0.0,0.0,0.0,0.0,-0.9999999999999998,0.9663899781345132
7325000000,61,7325000000,bluerov2/dvl_link,0.9239416282571885,-0.018306874072239403,0.01248274400595251,0.25,0.0,0.0,0.0,0.25,0.0,0.0,0.0,0.25,33.36919403076172,81.0,0.0,0.0,0.0,0,493000000,bluerov2/dvl_sonar0_link,0.0,0.0,0.0,0.0,-0.9999999999999998,0.0,0.9663899781345132,6.366634368896484,0.0,0.0,0.0,0,493000000,bluerov2/dvl_sonar1_link,0.0,0.0,0.0,0.0,0.0,0.9999999999999998,0.9663899781345132,3.8008852005004883,0.0,0.0,0.0,0,493000000,bluerov2/dvl_sonar2_link,0.0,0.0,0.0,0.0,0.9999999999999998,0.0,0.9663899781345132,42.309242248535156,0.0,0.0,0.0,0,493000000,bluerov2/dvl_sonar3_link,0.0,0.0,0.0,0.0,0.0,-0.9999999999999998,0.9663899781345132
7437000000,62,7437000000,bluerov2/dvl_link,1.0042844998124791,-0.022536439840791705,0.01730958344263938,0.25,0.0,0.0,0.0,0.25,0.0,0.0,0.0,0.25,33.38109588623047,81.0,0.0,0.0,0.0,0,493000000,bluerov2/dvl_sonar0_link,0.0,0.0,0.0,0.0,-0.9999999999999998,0.0,0.9663899781345132,6.357861518859863,0.0,0.0,0.0,0,493000000,bluerov2/dvl_sonar1_link,0.0,0.0,0.0,0.0,0.0,0.9999999999999998,0.9663899781345132,3.8084917068481445,0.0,0.0,0.0,0,493000000,bluerov2/dvl_sonar2_link,0.0,0.0,0.0,0.0,0.9999999999999998,0.0,0.9663899781345132,42.35801696777344,0.0,0.0,0.0,0,493000000,bluerov2/dvl_sonar3_link,0.0,0.0,0.0,0.0,0.0,-0.9999999999999998,0.9663899781345132
7549000000,63,7549000000,bluerov2/dvl_link,1.0145768244746496,0.006784974494671754,0.017333557399655343,0.25,0.0,0.0,0.0,0.25,0.0,0.0,0.0,0.25,33.38374328613281,81.0,0.0,0.0,0.0,0,493000000,bluerov2/dvl_sonar0_link,0.0,0.0,0.0,0.0,-0.9999999999999998,0.0,0.9663899781345132,6.356642723083496,0.0,0.0,0.0,0,493000000,bluerov2/dvl_sonar1_link,0.0,0.0,0.0,0.0,0.0,0.9999999999999998,0.9663899781345132,3.8003711700439453,0.0,0.0,0.0,0,493000000,bluerov2/dvl_sonar2_link,0.0,0.0,0.0,0.0,0.9999999999999998,0.0,0.9663899781345132,42.37795639038086,0.0,0.0,0.0,0,493000000,bluerov2/dvl_sonar3_link,0.0,0.0,0.0,0.0,0.0,-0.9999999999999998,0.9663899781345132
7661000000,64,7661000000,bluerov2/dvl_link,0.9309841943443089,-0.048194923376248935,-0.06542084412716163,0.25,0.0,0.0,0.0,0.25,0.0,0.0,0.0,0.25,33.38918685913086,81.0,0.0,0.0,0.0,0,493000000,bluerov2/dvl_sonar0_link,0.0,0.0,0.0,0.0,-0.9999999999999998,0.0,0.9663899781345132,6.343804836273193,0.0,0.0,0.0,0,493000000,bluerov2/dvl_sonar1_link,0.0,0.0,0.0,0.0,0.0,0.9999999999999998,0.9663899781345132,3.7992005348205566,0.0,0.0,0.0,0,493000000,bluerov2/dvl_sonar2_link,0.0,0.0,0.0,0.0,0.9999999999999998,0.0,0.9663899781345132,42.41374588012695,0.0,0.0,0.0,0,493000000,bluerov2/dvl_sonar3_link,0.0,0.0,0.0,0.0,0.0,-0.9999999999999998,0.9663899781345132
7773000000,65,7773000000,bluerov2/dvl_link,1.0032434917866793,0.008299930645111782,-0.026831473001601314,0.25,0.0,0.0,0.0,0.25,0.0,0.0,0.0,0.25,33.39191818237305,81.0,0.0,0.0,0.0,0,493000000,bluerov2/dvl_sonar0_link,0.0,0.0,0.0,0.0,-0.9999999999999998,0.0,0.9663899781345132,6.349277019500732,0.0,0.0,0.0,0,493000000,bluerov2/dvl_sonar1_link,0.0,0.0,0.0,0.0,0.0,0.9999999999999998,0.9663899781345132,3.7982451915740967,0.0,0.0,0.0,0,493000000,bluerov2/dvl_sonar2_link,0.0,0.0,0.0,0.0,0.9999999999999998,0.0,0.9663899781345132,42.42015075683594,0.0,0.0,0.0,0,493000000,bluerov2/dvl_sonar3_link,0.0,0.0,0.0,0.0,0.0,-0.9999999999999998,0.9663899781345132
7885000000,66,7885000000,bluerov2/dvl_link,0.9869129572606777,0.025109082779159547,0.026426404270839803,0.25,0.0,0.0,0.0,0.25,0.0,0.0,0.0,0.25,33.402626037597656,81.0,0.0,0.0,0.0,0,493000000,bluerov2/dvl_sonar0_link,0.0,0.0,0.0,0.0,-0.9999999999999998,0.0,0.9663899781345132,6.332555294036865,0.0,0.0,0.0,0,493000000,bluerov2/dvl_sonar1_link,0.0,0.0,0.0,0.0,0.0,0.9999999999999998,0.9663899781345132,3.8060920238494873,0.0,0.0,0.0,0,493000000,bluerov2/dvl_sonar2_link,0.0,0.0,0.0,0.0,0.9999999999999998,0.0,0.9663899781345132,42.47185516357422,0.0,0.0,0.0,0,493000000,bluerov2/dvl_sonar3_link,0.0,0.0,0.0,0.0,0.0,-0.9999999999999998,0.9663899781345132
7997000000,67,7997000000,bluerov2/dvl_link,1.1015365139302205,0.007665625543843774,-0.07997003415705758,0.25,0.0,0.0,0.0,0.25,0.0,0.0,0.0,0.25,33.418540954589844,81.0,0.0,0.0,0.0,0,493000000,bluerov2/dvl_sonar0_link,0.0,0.0,0.0,0.0,-0.9999999999999998,0.0,0.9663899781345132,6.32963228225708,0.0,0.0,0.0,0,493000000,bluerov2/dvl_sonar1_link,0.0,0.0,0.0,0.0,0.0,0.9999999999999998,0.9663899781345132,3.8069581985473633,0.0,0.0,0.0,0,493000000,bluerov2/dvl_sonar2_link,0.0,0.0,0.0,0.0,0.9999999999999998,0.0,0.9663899781345132,42.53757095336914,0.0,0.0,0.0,0,493000000,bluerov2/dvl_sonar3_link,0.0,0.0,0.0,0.0,0.0,-0.9999999999999998,0.9663899781345132
8109000000,68,8109000000,bluerov2/dvl_link,0.9147791740248181,0.05759819671385845,0.01716969556652424,0.25,0.0,0.0,0.0,0.25,0.0,0.0,0.0,0.25,33.4231071472168,81.0,0.0,0.0,0.0,0,493000000,bluerov2/dvl_sonar0_link,0.0,0.0,0.0,0.0,-0.9999999999999998,0.0,0.9663899781345132,6.312803745269775,0.0,0.0,0.0,0,493000000,bluerov2/dvl_sonar1_link,0.0,0.0,0.0,0.0,0.0,0.9999999999999998,0.9663899781345132,3.803976058959961,0.0,0.0,0.0,0,493000000,bluerov2/dvl_sonar2_link,0.0,0.0,0.0,0.0,0.9999999999999998,0.0,0.9663899781345132,42.57564163208008,0.0,0.0,0.0,0,493000000,bluerov2/dvl_sonar3_link,0.0,0.0,0.0,0.0,0.0,-0.9999999999999998,0.9663899781345132
8221000000,69,8221000000,bluerov2/dvl_link,0.8846085786603697,-0.05429228866911866,-0.03103172704999055,0.25,0.0,0.0,0.0,0.25,0.0,0.0,0.0,0.25,33.429473876953125,81.0,0.0,0.0,0.0,0,493000000,bluerov2/dvl_sonar0_link,0.0,0.0,0.0,0.0,-0.9999999999999998,0.0,0.9663899781345132,6.313796520233154,0.0,0.0,0.0,0,493000000,bluerov2/dvl_sonar1_link,0.0,0.0,0.0,0.0,0.0,0.9999999999999998,0.9663899781345132,3.801508665084839,0.0,0.0,0.0,0,493000000,bluerov2/dvl_sonar2_link,0.0,0.0,0.0,0.0,0.9999999999999998,0.0,0.9663899781345132,42.60260009765625,0.0,0.0,0.0,0,493000000,bluerov2/dvl_sonar3_link,0.0,0.0,0.0,0.0,0.0,-0.9999999999999998,0.9663899781345132
8333000000,70,8333000000,bluerov2/dvl_link,0.9169740533715081,0.025481981309504673,0.05419731547786095,0.25,0.0,0.0,0.0,0.25,0.0,0.0,0.0,0.25,33.429866790771484,81.0,0.0,0.0,0.0,0,493000000,bluerov2/dvl_sonar0_link,0.0,0.0,0.0,0.0,-0.9999999999999998,0.0,0.9663899781345132,6.317608833312988,0.0,0.0,0.0,0,493000000,bluerov2/dvl_sonar1_link,0.0,0.0,0.0,0.0,0.0,0.9999999999999998,0.9663899781345132,3.8064944744110107,0.0,0.0,0.0,0,493000000,bluerov2/dvl_sonar2_link,0.0,0.0,0.0,0.0,0.9999999999999998,0.0,0.9663899781345132,42.59535598754883,0.0,0.0,0.0,0,493000000,bluerov2/dvl_sonar3_link,0.0,0.0,0.0,0.0,0.0,-0.9999999999999998,0.9663899781345132
8445000000,71,8445000000,bluerov2/dvl_link,0.8684100704313493,0.023377381165526977,0.07824110202453256,0.25,0.0,0.0,0.0,0.25,0.0,0.0,0.0,0.25,33.430633544921875,81.0,0.0,0.0,0.0,0,493000000,bluerov2/dvl_sonar0_link,0.0,0.0,0.0,0.0,-0.9999999999999998,0.0,0.9663899781345132,6.306125164031982,0.0,0.0,0.0,0,493000000,bluerov2/dvl_sonar1_link,0.0,0.0,0.0,0.0,0.0,0.9999999999999998,0.9663899781345132,3.8075830936431885,0.0,0.0,0.0,0,493000000,bluerov2/dvl_sonar2_link,0.0,0.0,0.0,0.0,0.9999999999999998,0.0,0.9663899781345132,42.60882568359375,0.0,0.0,0.0,0,493000000,bluerov2/dvl_sonar3_link,0.0,0.0,0.0,0.0,0.0,-0.9999999999999998,0.9663899781345132
8557000000,72,8557000000,bluerov2/dvl_link,1.0387784447527748,0.004141164326854933,-0.06030153449178457,0.25,0.0,0.0,0.0,0.25,0.0,0.0,0.0,0.25,33.43042755126953,81.0,0.0,0.0,0.0,0,493000000,bluerov2/dvl_sonar0_link,0.0,0.0,0.0,0.0,-0.9999999999999998,0.0,0.9663899781345132,6.312090873718262,0.0,0.0,0.0,0,493000000,bluerov2/dvl_sonar1_link,0.0,0.0,0.0,0.0,0.0,0.9999999999999998,0.9663899781345132,3.8060102462768555,0.0,0.0,0.0,0,493000000,bluerov2/dvl_sonar2_link,0.0,0.0,0.0,0.0,0.9999999999999998,0.0,0.9663899781345132,42.60361099243164,0.0,0.0,0.0,0,493000000,bluerov2/dvl_sonar3_link,0.0,0.0,0.0,0.0,0.0,-0.9999999999999998,0.9663899781345132
8669000000,73,8669000000,bluerov2/dvl_link,1.0152529889319053,0.03977144763065304,-0.03954252642302447,0.25,0.0,0.0,0.0,0.25,0.0,0.0,0.0,0.25,33.43595504760742,81.0,0.0,0.0,0.0,0,493000000,bluerov2/dvl_sonar0_link,0.0,0.0,0.0,0.0,-0.9999999999999998,0.0,0.9663899781345132,6.31047248840332,0.0,0.0,0.0,0,493000000,bluerov2/dvl_sonar1_link,0.0,0.0,0.0,0.0,0.0,0.9999999999999998,0.9663899781345132,3.804226875305176,0.0,0.0,0.0,0,493000000,bluerov2/dvl_sonar2_link,0.0,0.0,0.0,0.0,0.9999999999999998,0.0,0.9663899781345132,42.629119873046875,0.0,0.0,0.0,0,493000000,bluerov2/dvl_sonar3_link,0.0,0.0,0.0,0.0,0.0,-0.9999999999999998,0.9663899781345132
8781000000,74,8781000000,bluerov2/dvl_link,0.9601610721147484,0.12401027809163995,0.005745674208564163,0.25,0.0,0.0,0.0,0.25,0.0,0.0,0.0,0.25,33.44805145263672,81.0,0.0,0.0,0.0,0,493000000,bluerov2/dvl_sonar0_link,0.0,0.0,0.0,0.0,-0.9999999999999998,0.0,0.9663899781345132,6.300768852233887,0.0,0.0,0.0,0,493000000,bluerov2/dvl_sonar1_link,0.0,0.0,0.0,0.0,0.0,0.9999999999999998,0.9663899781345132,3.8031277656555176,0.0,0.0,0.0,0,493000000,bluerov2/dvl_sonar2_link,0.0,0.0,0.0,0.0,0.9999999999999998,0.0,0.9663899781345132,42.688316345214844,0.0,0.0,0.0,0,493000000,bluerov2/dvl_sonar3_link,0.0,0.0,0.0,0.0,0.0,-0.9999999999999998,0.9663899781345132
8893000000,75,8893000000,bluerov2/dvl_link,0.9591590657045195,-0.030302778462637715,-0.030529805461898044,0.25,0.0,0.0,0.0,0.25,0.0,0.0,0.0,0.25,33.45468521118164,81.0,0.0,0.0,0.0,0,493000000,bluerov2/dvl_sonar0_link,0.0,0.0,0.0,0.0,-0.9999999999999998,0.0,0.9663899781345132,6.282751560211182,0.0,0.0,0.0,0,493000000,bluerov2/dvl_sonar1_link,0.0,0.0,0.0,0.0,0.0,0.9999999999999998,0.9663899781345132,3.804210901260376,0.0,0.0,0.0,0,493000000,bluerov2/dvl_sonar2_link,0.0,0.0,0.0,0.0,0.9999999999999998,0.0,0.9663899781345132,42.73177719116211,0.0,0.0,0.0,0,493000000,bluerov2/dvl_sonar3_link,0.0,0.0,0.0,0.0,0.0,-0.9999999999999998,0.9663899781345132
9005000000,76,9005000000,bluerov2/dvl_link,0.9746600719849906,0.04114671776570514,0.0015946632663567913,0.25,0.0,0.0,0.0,0.25,0.0,0.0,0.0,0.25,33.46073532104492,81.0,0.0,0.0,0.0,0,493000000,bluerov2/dvl_sonar0_link,0.0,0.0,0.0,0.0,-0.9999999999999998,0.0,0.9663899781345132,6.295569896697998,0.0,0.0,0.0,0,493000000,bluerov2/dvl_sonar1_link,0.0,0.0,0.0,0.0,0.0,0.9999999999999998,0.9663899781345132,3.814913272857666,0.0,0.0,0.0,0,493000000,bluerov2/dvl_sonar2_link,0.0,0.0,0.0,0.0,0.9999999999999998,0.0,0.9663899781345132,42.73245620727539,0.0,0.0,0.0,0,493000000,bluerov2/dvl_sonar3_link,0.0,0.0,0.0,0.0,0.0,-0.9999999999999998,0.9663899781345132
9117000000,77,9117000000,bluerov2/dvl_link,0.9353687117458191,-0.08297747915581422,0.1026540912088725,0.25,0.0,0.0,0.0,0.25,0.0,0.0,0.0,0.25,33.461692810058594,81.0,0.0,0.0,0.0,0,493000000,bluerov2/dvl_sonar0_link,0.0,0.0,0.0,0.0,-0.9999999999999998,0.0,0.9663899781345132,6.280457496643066,0.0,0.0,0.0,0,493000000,bluerov2/dvl_sonar1_link,0.0,0.0,0.0,0.0,0.0,0.9999999999999998,0.9663899781345132,3.810483455657959,0.0,0.0,0.0,0,493000000,bluerov2/dvl_sonar2_link,0.0,0.0,0.0,0.0,0.9999999999999998,0.0,0.9663899781345132,42.755828857421875,0.0,0.0,0.0,0,493000000,bluerov2/dvl_sonar3_link,0.0,0.0,0.0,0.0,0.0,-0.9999999999999998,0.9663899781345132
9229000000,78,9229000000,bluerov2/dvl_link,0.9968626629249255,-0.021994192449129694,-0.09334612921896945,0.25,0.0,0.0,0.0,0.25,0.0,0.0,0.0,0.25,33.46387481689453,81.0,0.0,0.0,0.0,0,493000000,bluerov2/dvl_sonar0_link,0.0,0.0,0.0,0.0,-0.9999999999999998,0.0,0.9663899781345132,6.283946514129639,0.0,0.0,0.0,0,493000000,bluerov2/dvl_sonar1_link,0.0,0.0,0.0,0.0,0.0,0.9999999999999998,0.9663899781345132,3.803809404373169,0.0,0.0,0.0,0,493000000,bluerov2/dvl_sonar2_link,0.0,0.0,0.0,0.0,0.9999999999999998,0.0,0.9663899781345132,42.76774215698242,0.0,0.0,0.0,0,493000000,bluerov2/dvl_sonar3_link,0.0,0.0,0.0,0.0,0.0,-0.9999999999999998,0.9663899781345132
9341000000,79,9341000000,bluerov2/dvl_link,0.9479472178223696,0.05701586585290903,0.08632162899259332,0.25,0.0,0.0,0.0,0.25,0.0,0.0,0.0,0.25,33.46553039550781,81.0,0.0,0.0,0.0,0,493000000,bluerov2/dvl_sonar0_link,0.0,0.0,0.0,0.0,-0.9999999999999998,0.0,0.9663899781345132,6.277570724487305,0.0,0.0,0.0,0,493000000,bluerov2/dvl_sonar1_link,0.0,0.0,0.0,0.0,0.0,0.9999999999999998,0.9663899781345132,3.8072521686553955,0.0,0.0,0.0,0,493000000,bluerov2/dvl_sonar2_link,0.0,0.0,0.0,0.0,0.9999999999999998,0.0,0.9663899781345132,42.777305603027344,0.0,0.0,0.0,0,493000000,bluerov2/dvl_sonar3_link,0.0,0.0,0.0,0.0,0.0,-0.9999999999999998,0.9663899781345132
9453000000,80,9453000000,bluerov2/dvl_link,1.017763262658936,0.02595316625396956,-0.060732594128082976,0.25,0.0,0.0,0.0,0.25,0.0,0.0,0.0,0.25,33.471832275390625,81.0,0.0,0.0,0.0,0,493000000,bluerov2/dvl_sonar0_link,0.0,0.0,0.0,0.0,-0.9999999999999998,0.0,0.9663899781345132,6.288824558258057,0.0,0.0,0.0,0,493000000,bluerov2/dvl_sonar1_link,0.0,0.0,0.0,0.0,0.0,0.9999999999999998,0.9663899781345132,3.802156448364258,0.0,0.0,0.0,0,493000000,bluerov2/dvl_sonar2_link,0.0,0.0,0.0,0.0,0.9999999999999998,0.0,0.9663899781345132,42.79634094238281,0.0,0.0,0.0,0,493000000,bluerov2/dvl_sonar3_link,0.0,0.0,0.0,0.0,0.0,-0.9999999999999998,0.9663899781345132
9565000000,81,9565000000,bluerov2/dvl_link,0.918592325315769,-0.08634907795473022,-0.020014275965037992,0.25,0.0,0.0,0.0,0.25,0.0,0.0,0.0,0.25,33.478294372558594,81.0,0.0,0.0,0.0,0,493000000,bluerov2/dvl_sonar0_link,0.0,0.0,0.0,0.0,-0.9999999999999998,0.0,0.9663899781345132,6.277316570281982,0.0,0.0,0.0,0,493000000,bluerov2/dvl_sonar1_link,0.0,0.0,0.0,0.0,0.0,0.9999999999999998,0.9663899781345132,3.8059864044189453,0.0,0.0,0.0,0,493000000,bluerov2/dvl_sonar2_link,0.0,0.0,0.0,0.0,0.9999999999999998,0.0,0.9663899781345132,42.82987594604492,0.0,0.0,0.0,0,493000000,bluerov2/dvl_sonar3_link,0.0,0.0,0.0,0.0,0.0,-0.9999999999999998,0.9663899781345132
9677000000,82,9677000000,bluerov2/dvl_link,1.0648687238299082,0.020093482361399524,0.03131559170199781,0.25,0.0,0.0,0.0,0.25,0.0,0.0,0.0,0.25,33.482215881347656,81.0,0.0,0.0,0.0,0,493000000,bluerov2/dvl_sonar0_link,0.0,0.0,0.0,0.0,-0.9999999999999998,0.0,0.9663899781345132,6.2655134201049805,0.0,0.0,0.0,0,493000000,bluerov2/dvl_sonar1_link,0.0,0.0,0.0,0.0,0.0,0.9999999999999998,0.9663899781345132,3.810373544692993,0.0,0.0,0.0,0,493000000,bluerov2/dvl_sonar2_link,0.0,0.0,0.0,0.0,0.9999999999999998,0.0,0.9663899781345132,42.85297775268555,0.0,0.0,0.0,0,493000000,bluerov2/dvl_sonar3_link,0.0,0.0,0.0,0.0,0.0,-0.9999999999999998,0.9663899781345132
9789000000,83,9789000000,bluerov2/dvl_link,0.9963320086876247,-0.04304093656864016,-0.04113129539052671,0.25,0.0,0.0,0.0,0.25,0.0,0.0,0.0,0.25,33.49171447753906,81.0,0.0,0.0,0.0,0,493000000,bluerov2/dvl_sonar0_link,0.0,0.0,0.0,0.0,-0.9999999999999998,0.0,0.9663899781345132,6.262874126434326,0.0,0.0,0.0,0,493000000,bluerov2/dvl_sonar1_link,0.0,0.0,0.0,0.0,0.0,0.9999999999999998,0.9663899781345132,3.8040459156036377,0.0,0.0,0.0,0,493000000,bluerov2/dvl_sonar2_link,0.0,0.0,0.0,0.0,0.9999999999999998,0.0,0.9663899781345132,42.89994430541992,0.0,0.0,0.0,0,493000000,bluerov2/dvl_sonar3_link,0.0,0.0,0.0,0.0,0.0,-0.9999999999999998,0.9663899781345132
9901000000,84,9901000000,bluerov2/dvl_link,0.9846757643264067,-0.07822781191617306,0.03645210629452698,0.25,0.0,0.0,0.0,0.25,0.0,0.0,0.0,0.25,33.50139236450195,81.0,0.0,0.0,0.0,0,493000000,bluerov2/dvl_sonar0_link,0.0,0.0,0.0,0.0,-0.9999999999999998,0.0,0.9663899781345132,6.2546796798706055,0.0,0.0,0.0,0,493000000,bluerov2/dvl_sonar1_link,0.0,0.0,0.0,0.0,0.0,0.9999999999999998,0.9663899781345132,3.804399013519287,0.0,0.0,0.0,0,493000000,bluerov2/dvl_sonar2_link,0.0,0.0,0.0,0.0,0.9999999999999998,0.0,0.9663899781345132,42.94649124145508,0.0,0.0,0.0,0,493000000,bluerov2/dvl_sonar3_link,0.0,0.0,0.0,0.0,0.0,-0.9999999999999998,0.9663899781345132
10013000000,85,10013000000,bluerov2/dvl_link,1.0502483417987687,-0.009984530472251826,0.04090594968714348,0.25,0.0,0.0,0.0,0.25,0.0,0.0,0.0,0.25,33.499298095703125,81.0,0.0,0.0,0.0,0,493000000,bluerov2/dvl_sonar0_link,0.0,0.0,0.0,0.0,-0.9999999999999998,0.0,0.9663899781345132,6.256145000457764,0.0,0.0,0.0,0,493000000,bluerov2/dvl_sonar1_link,0.0,0.0,0.0,0.0,0.0,0.9999999999999998,0.9663899781345132,3.8042242527008057,0.0,0.0,0.0,0,493000000,bluerov2/dvl_sonar2_link,0.0,0.0,0.0,0.0,0.9999999999999998,0.0,0.9663899781345132,42.936832427978516,0.0,0.0,0.0,0,493000000,bluerov2/dvl_sonar3_link,0.0,0.0,0.0,0.0,0.0,-0.9999999999999998,0.9663899781345132
10125000000,86,10125000000,bluerov2/dvl_link,1.0395491373031434,0.02307532354211399,-0.03765957449025442,0.25,0.0,0.0,0.0,0.25,0.0,0.0,0.0,0.25,33.49757766723633,81.0,0.0,0.0,0.0,0,493000000,bluerov2/dvl_sonar0_link,0.0,0.0,0.0,0.0,-0.9999999999999998,0.0,0.9663899781345132,6.249629974365234,0.0,0.0,0.0,0,493000000,bluerov2/dvl_sonar1_link,0.0,0.0,0.0,0.0,0.0,0.9999999999999998,0.9663899781345132,3.807093620300293,0.0,0.0,0.0,0,493000000,bluerov2/dvl_sonar2_link,0.0,0.0,0.0,0.0,0.9999999999999998,0.0,0.9663899781345132,42.933589935302734,0.0,0.0,0.0,0,493000000,bluerov2/dvl_sonar3_link,0.0,0.0,0.0,0.0,0.0,-0.9999999999999998,0.9663899781345132
10237000000,87,10237000000,bluerov2/dvl_link,1.1680280140186774,0.03613126574294101,-0.004695576652866527,0.25,0.0,0.0,0.0,0.25,0.0,0.0,0.0,0.25,33.508060455322266,81.0,0.0,0.0,0.0,0,493000000,bluerov2/dvl_sonar0_link,0.0,0.0,0.0,0.0,-0.9999999999999998,0.0,0.9663899781345132,6.2505035400390625,0.0,0.0,0.0,0,493000000,bluerov2/dvl_sonar1_link,0.0,0.0,0.0,0.0,0.0,0.9999999999999998,0.9663899781345132,3.8059499263763428,0.0,0.0,0.0,0,493000000,bluerov2/dvl_sonar2_link,0.0,0.0,0.0,0.0,0.9999999999999998,0.0,0.9663899781345132,42.97579574584961,0.0,0.0,0.0,0,493000000,bluerov2/dvl_sonar3_link,0.0,0.0,0.0,0.0,0.0,-0.9999999999999998,0.9663899781345132
10349000000,88,10349000000,bluerov2/dvl_link,1.0641250738097494,0.005896220790850572,-0.05484141623610972,0.25,0.0,0.0,0.0,0.25,0.0,0.0,0.0,0.25,33.483863830566406,81.0,0.0,0.0,0.0,0,493000000,bluerov2/dvl_sonar0_link,0.0,0.0,0.0,0.0,-0.9999999999999998,0.0,0.9663899781345132,6.237953186035156,0.0,0.0,0.0,0,493000000,bluerov2/dvl_sonar1_link,0.0,0.0,0.0,0.0,0.0,0.9999999999999998,0.9663899781345132,3.799875020980835,0.0,0.0,0.0,0,493000000,bluerov2/dvl_sonar2_link,0.0,0.0,0.0,0.0,0.9999999999999998,0.0,0.9663899781345132,42.89762496948242,0.0,0.0,0.0,0,493000000,bluerov2/dvl_sonar3_link,0.0,0.0,0.0,0.0,0.0,-0.9999999999999998,0.9663899781345132
10461000000,89,10461000000,bluerov2/dvl_link,1.0805364545942813,0.01856000792804804,-0.04575363188845998,0.25,0.0,0.0,0.0,0.25,0.0,0.0,0.0,0.25,33.44001007080078,81.0,0.0,0.0,0.0,0,493000000,bluerov2/dvl_sonar0_link,0.0,0.0,0.0,0.0,-0.9999999999999998,0.0,0.9663899781345132,6.231128215789795,0.0,0.0,0.0,0,493000000,bluerov2/dvl_sonar1_link,0.0,0.0,0.0,0.0,0.0,0.9999999999999998,0.9663899781345132,3.8001904487609863,0.0,0.0,0.0,0,493000000,bluerov2/dvl_sonar2_link,0.0,0.0,0.0,0.0,0.9999999999999998,0.0,0.9663899781345132,42.728729248046875,0.0,0.0,0.0,0,493000000,bluerov2/dvl_sonar3_link,0.0,0.0,0.0,0.0,0.0,-0.9999999999999998,0.9663899781345132
10573000000,90,10573000000,bluerov2/dvl_link,1.0918174885631913,0.06669181496798322,0.05562928094070213,0.25,0.0,0.0,0.0,0.25,0.0,0.0,0.0,0.25,33.40721893310547,81.0,0.0,0.0,0.0,0,493000000,bluerov2/dvl_sonar0_link,0.0,0.0,0.0,0.0,-0.9999999999999998,0.0,0.9663899781345132,6.2306389808654785,0.0,0.0,0.0,0,493000000,bluerov2/dvl_sonar1_link,0.0,0.0,0.0,0.0,0.0,0.9999999999999998,0.9663899781345132,3.8138225078582764,0.0,0.0,0.0,0,493000000,bluerov2/dvl_sonar2_link,0.0,0.0,0.0,0.0,0.9999999999999998,0.0,0.9663899781345132,42.58441162109375,0.0,0.0,0.0,0,493000000,bluerov2/dvl_sonar3_link,0.0,0.0,0.0,0.0,0.0,-0.9999999999999998,0.9663899781345132
10685000000,91,10685000000,bluerov2/dvl_link,1.1047351455644137,0.006797645056177937,0.015041520960016857,0.25,0.0,0.0,0.0,0.25,0.0,0.0,0.0,0.25,33.36911392211914,81.0,0.0,0.0,0.0,0,493000000,bluerov2/dvl_sonar0_link,0.0,0.0,0.0,0.0,-0.9999999999999998,0.0,0.9663899781345132,6.225363254547119,0.0,0.0,0.0,0,493000000,bluerov2/dvl_sonar1_link,0.0,0.0,0.0,0.0,0.0,0.9999999999999998,0.9663899781345132,3.8047170639038086,0.0,0.0,0.0,0,493000000,bluerov2/dvl_sonar2_link,0.0,0.0,0.0,0.0,0.9999999999999998,0.0,0.9663899781345132,42.44636917114258,0.0,0.0,0.0,0,493000000,bluerov2/dvl_sonar3_link,0.0,0.0,0.0,0.0,0.0,-0.9999999999999998,0.9663899781345132
10797000000,92,10797000000,bluerov2/dvl_link,1.0418662337159035,0.03679763409392893,-0.008756624239990239,0.25,0.0,0.0,0.0,0.25,0.0,0.0,0.0,0.25,33.32917022705078,81.0,0.0,0.0,0.0,0,493000000,bluerov2/dvl_sonar0_link,0.0,0.0,0.0,0.0,-0.9999999999999998,0.0,0.9663899781345132,6.2196431159973145,0.0,0.0,0.0,0,493000000,bluerov2/dvl_sonar1_link,0.0,0.0,0.0,0.0,0.0,0.9999999999999998,0.9663899781345132,3.805324077606201,0.0,0.0,0.0,0,493000000,bluerov2/dvl_sonar2_link,0.0,0.0,0.0,0.0,0.9999999999999998,0.0,0.9663899781345132,42.29171371459961,0.0,0.0,0.0,0,493000000,bluerov2/dvl_sonar3_link,0.0,0.0,0.0,0.0,0.0,-0.9999999999999998,0.9663899781345132
10909000000,93,10909000000,bluerov2/dvl_link,1.0015832984093969,-0.01278921014646605,0.027645258644202423,0.25,0.0,0.0,0.0,0.25,0.0,0.0,0.0,0.25,33.29576873779297,81.0,0.0,0.0,0.0,0,493000000,bluerov2/dvl_sonar0_link,0.0,0.0,0.0,0.0,-0.9999999999999998,0.0,0.9663899781345132,6.2141547203063965,0.0,0.0,0.0,0,493000000,bluerov2/dvl_sonar1_link,0.0,0.0,0.0,0.0,0.0,0.9999999999999998,0.9663899781345132,3.8079633712768555,0.0,0.0,0.0,0,493000000,bluerov2/dvl_sonar2_link,0.0,0.0,0.0,0.0,0.9999999999999998,0.0,0.9663899781345132,42.16094970703125,0.0,0.0,0.0,0,493000000,bluerov2/dvl_sonar3_link,0.0,0.0,0.0,0.0,0.0,-0.9999999999999998,0.9663899781345132
11021000000,94,11021000000,bluerov2/dvl_link,0.9184162942657692,-0.017841116575378943,0.003326204165800104,0.25,0.0,0.0,0.0,0.25,0.0,0.0,0.0,0.25,33.26113510131836,81.0,0.0,0.0,0.0,0,493000000,bluerov2/dvl_sonar0_link,0.0,0.0,0.0,0.0,-0.9999999999999998,0.0,0.9663899781345132,6.220057487487793,0.0,0.0,0.0,0,493000000,bluerov2/dvl_sonar1_link,0.0,0.0,0.0,0.0,0.0,0.9999999999999998,0.9663899781345132,3.796753168106079,0.0,0.0,0.0,0,493000000,bluerov2/dvl_sonar2_link,0.0,0.0,0.0,0.0,0.9999999999999998,0.0,0.9663899781345132,42.02773666381836,0.0,0.0,0.0,0,493000000,bluerov2/dvl_sonar3_link,0.0,0.0,0.0,0.0,0.0,-0.9999999999999998,0.9663899781345132
11133000000,95,11133000000,bluerov2/dvl_link,0.9327955850640979,-0.10596886739379204,-0.041167167315182614,0.25,0.0,0.0,0.0,0.25,0.0,0.0,0.0,0.25,33.236202239990234,81.0,0.0,0.0,0.0,0,493000000,bluerov2/dvl_sonar0_link,0.0,0.0,0.0,0.0,-0.9999999999999998,0.0,0.9663899781345132,6.22471284866333,0.0,0.0,0.0,0,493000000,bluerov2/dvl_sonar1_link,0.0,0.0,0.0,0.0,0.0,0.9999999999999998,0.9663899781345132,3.799051523208618,0.0,0.0,0.0,0,493000000,bluerov2/dvl_sonar2_link,0.0,0.0,0.0,0.0,0.9999999999999998,0.0,0.9663899781345132,41.921043395996094,0.0,0.0,0.0,0,493000000,bluerov2/dvl_sonar3_link,0.0,0.0,0.0,0.0,0.0,-0.9999999999999998,0.9663899781345132
11245000000,96,11245000000,bluerov2/dvl_link,0.9920881428127876,0.07862984751341948,-0.10400222211756563,0.25,0.0,0.0,0.0,0.25,0.0,0.0,0.0,0.25,33.20568084716797,81.0,0.0,0.0,0.0,0,493000000,bluerov2/dvl_sonar0_link,0.0,0.0,0.0,0.0,-0.9999999999999998,0.0,0.9663899781345132,6.221411228179932,0.0,0.0,0.0,0,493000000,bluerov2/dvl_sonar1_link,0.0,0.0,0.0,0.0,0.0,0.9999999999999998,0.9663899781345132,3.80603289604187,0.0,0.0,0.0,0,493000000,bluerov2/dvl_sonar2_link,0.0,0.0,0.0,0.0,0.9999999999999998,0.0,0.9663899781345132,41.79527282714844,0.0,0.0,0.0,0,493000000,bluerov2/dvl_sonar3_link,0.0,0.0,0.0,0.0,0.0,-0.9999999999999998,0.9663899781345132
11357000000,97,11357000000,bluerov2/dvl_link,0.9021123105777152,0.09521012310331792,-0.031285222503656764,0.25,0.0,0.0,0.0,0.25,0.0,0.0,0.0,0.25,33.168174743652344,81.0,0.0,0.0,0.0,0,493000000,bluerov2/dvl_sonar0_link,0.0,0.0,0.0,0.0,-0.9999999999999998,0.0,0.9663899781345132,6.21115779876709,0.0,0.0,0.0,0,493000000,bluerov2/dvl_sonar1_link,0.0,0.0,0.0,0.0,0.0,0.9999999999999998,0.9663899781345132,3.799745559692383,0.0,0.0,0.0,0,493000000,bluerov2/dvl_sonar2_link,0.0,0.0,0.0,0.0,0.9999999999999998,0.0,0.9663899781345132,41.66179275512695,0.0,0.0,0.0,0,493000000,bluerov2/dvl_sonar3_link,0.0,0.0,0.0,0.0,0.0,-0.9999999999999998,0.9663899781345132
11469000000,98,11469000000,bluerov2/dvl_link,0.9301515773001429,-0.01900667458349632,0.01272518563223293,0.25,0.0,0.0,0.0,0.25,0.0,0.0,0.0,0.25,33.133262634277344,81.0,0.0,0.0,0.0,0,493000000,bluerov2/dvl_sonar0_link,0.0,0.0,0.0,0.0,-0.9999999999999998,0.0,0.9663899781345132,6.205921649932861,0.0,0.0,0.0,0,493000000,bluerov2/dvl_sonar1_link,0.0,0.0,0.0,0.0,0.0,0.9999999999999998,0.9663899781345132,3.8060574531555176,0.0,0.0,0.0,0,493000000,bluerov2/dvl_sonar2_link,0.0,0.0,0.0,0.0,0.9999999999999998,0.0,0.9663899781345132,41.52105712890625,0.0,0.0,0.0,0,493000000,bluerov2/dvl_sonar3_link,0.0,0.0,0.0,0.0,0.0,-0.9999999999999998,0.9663899781345132
11581000000,99,11581000000,bluerov2/dvl_link,1.1427244293003285,-0.0856936791235064,0.0240895905108299,0.25,0.0,0.0,0.0,0.25,0.0,0.0,0.0,0.25,33.09613800048828,81.0,0.0,0.0,0.0,0,493000000,bluerov2/dvl_sonar0_link,0.0,0.0,0.0,0.0,-0.9999999999999998,0.0,0.9663899781345132,6.196234703063965,0.0,0.0,0.0,0,493000000,bluerov2/dvl_sonar1_link,0.0,0.0,0.0,0.0,0.0,0.9999999999999998,0.9663899781345132,3.801562547683716,0.0,0.0,0.0,0,493000000,bluerov2/dvl_sonar2_link,0.0,0.0,0.0,0.0,0.9999999999999998,0.0,0.9663899781345132,41.38676452636719,0.0,0.0,0.0,0,493000000,bluerov2/dvl_sonar3_link,0.0,0.0,0.0,0.0,0.0,-0.9999999999999998,0.9663899781345132
11693000000,100,11693000000,bluerov2/dvl_link,0.9825996278644468,-0.1196946767910492,-0.027686610533679806,0.25,0.0,0.0,0.0,0.25,0.0,0.0,0.0,0.25,33.069374084472656,81.0,0.0,0.0,0.0,0,493000000,bluerov2/dvl_sonar0_link,0.0,0.0,0.0,0.0,-0.9999999999999998,0.0,0.9663899781345132,6.1960978507995605,0.0,0.0,0.0,0,493000000,bluerov2/dvl_sonar1_link,0.0,0.0,0.0,0.0,0.0,0.9999999999999998,0.9663899781345132,3.8117356300354004,0.0,0.0,0.0,0,493000000,bluerov2/dvl_sonar2_link,0.0,0.0,0.0,0.0,0.9999999999999998,0.0,0.9663899781345132,41.269657135009766,0.0,0.0,0.0,0,493000000,bluerov2/dvl_sonar3_link,0.0,0.0,0.0,0.0,0.0,-0.9999999999999998,0.9663899781345132
11805000000,101,11805000000,bluerov2/dvl_link,0.9165289835921545,0.056607890415945716,-0.0653825680383553,0.25,0.0,0.0,0.0,0.25,0.0,0.0,0.0,0.25,33.041385650634766,81.0,0.0,0.0,0.0,0,493000000,bluerov2/dvl_sonar0_link,0.0,0.0,0.0,0.0,-0.9999999999999998,0.0,0.9663899781345132,6.210671901702881,0.0,0.0,0.0,0,493000000,bluerov2/dvl_sonar1_link,0.0,0.0,0.0,0.0,0.0,0.9999999999999998,0.9663899781345132,3.8023247718811035,0.0,0.0,0.0,0,493000000,bluerov2/dvl_sonar2_link,0.0,0.0,0.0,0.0,0.9999999999999998,0.0,0.9663899781345132,41.15254592895508,0.0,0.0,0.0,0,493000000,bluerov2/dvl_sonar3_link,0.0,0.0,0.0,0.0,0.0,-0.9999999999999998,0.9663899781345132
11917000000,102,11917000000,bluerov2/dvl_link,0.8747582192230041,-0.051508999843044315,0.009144188184755151,0.25,0.0,0.0,0.0,0.25,0.0,0.0,0.0,0.25,33.00428009033203,81.0,0.0,0.0,0.0,0,493000000,bluerov2/dvl_sonar0_link,0.0,0.0,0.0,0.0,-0.9999999999999998,0.0,0.9663899781345132,6.194825649261475,0.0,0.0,0.0,0,493000000,bluerov2/dvl_sonar1_link,0.0,0.0,0.0,0.0,0.0,0.9999999999999998,0.9663899781345132,3.800506591796875,0.0,0.0,0.0,0,493000000,bluerov2/dvl_sonar2_link,0.0,0.0,0.0,0.0,0.9999999999999998,0.0,0.9663899781345132,41.02179718017578,0.0,0.0,0.0,0,493000000,bluerov2/dvl_sonar3_link,0.0,0.0,0.0,0.0,0.0,-0.9999999999999998,0.9663899781345132
12029000000,103,12029000000,bluerov2/dvl_link,0.8939577401249568,0.057634561749596525,-0.12223890787406472,0.25,0.0,0.0,0.0,0.25,0.0,0.0,0.0,0.25,32.975318908691406,81.0,0.0,0.0,0.0,0,493000000,bluerov2/dvl_sonar0_link,0.0,0.0,0.0,0.0,-0.9999999999999998,0.0,0.9663899781345132,6.19678258895874,0.0,0.0,0.0,0,493000000,bluerov2/dvl_sonar1_link,0.0,0.0,0.0,0.0,0.0,0.9999999999999998,0.9663899781345132,3.806955337524414,0.0,0.0,0.0,0,493000000,bluerov2/dvl_sonar2_link,0.0,0.0,0.0,0.0,0.9999999999999998,0.0,0.9663899781345132,40.89752960205078,0.0,0.0,0.0,0,493000000,bluerov2/dvl_sonar3_link,0.0,0.0,0.0,0.0,0.0,-0.9999999999999998,0.9663899781345132
12141000000,104,12141000000,bluerov2/dvl_link,0.9238622552939663,-0.019388235743923433,0.07216479966971669,0.25,0.0,0.0,0.0,0.25,0.0,0.0,0.0,0.25,32.951072692871094,81.0,0.0,0.0,0.0,0,493000000,bluerov2/dvl_sonar0_link,0.0,0.0,0.0,0.0,-0.9999999999999998,0.0,0.9663899781345132,6.211251258850098,0.0,0.0,0.0,0,493000000,bluerov2/dvl_sonar1_link,0.0,0.0,0.0,0.0,0.0,0.9999999999999998,0.9663899781345132,3.8075859546661377,0.0,0.0,0.0,0,493000000,bluerov2/dvl_sonar2_link,0.0,0.0,0.0,0.0,0.9999999999999998,0.0,0.9663899781345132,40.78546142578125,0.0,0.0,0.0,0,493000000,bluerov2/dvl_sonar3_link,0.0,0.0,0.0,0.0,0.0,-0.9999999999999998,0.9663899781345132
12253000000,105,12253000000,bluerov2/dvl_link,0.8860105178365822,0.043678029868507925,0.06350088182558153,0.25,0.0,0.0,0.0,0.25,0.0,0.0,0.0,0.25,32.917198181152344,81.0,0.0,0.0,0.0,0,493000000,bluerov2/dvl_sonar0_link,0.0,0.0,0.0,0.0,-0.9999999999999998,0.0,0.9663899781345132,6.201387882232666,0.0,0.0,0.0,0,493000000,bluerov2/dvl_sonar1_link,0.0,0.0,0.0,0.0,0.0,0.9999999999999998,0.9663899781345132,3.802760601043701,0.0,0.0,0.0,0,493000000,bluerov2/dvl_sonar2_link,0.0,0.0,0.0,0.0,0.9999999999999998,0.0,0.9663899781345132,40.664649963378906,0.0,0.0,0.0,0,493000000,bluerov2/dvl_sonar3_link,0.0,0.0,0.0,0.0,0.0,-0.9999999999999998,0.9663899781345132
12365000000,106,12365000000,bluerov2/dvl_link,0.9025104628717857,-0.019024108752082824,0.03888157322112969,0.25,0.0,0.0,0.0,0.25,0.0,0.0,0.0,0.25,32.88856506347656,81.0,0.0,0.0,0.0,0,493000000,bluerov2/dvl_sonar0_link,0.0,0.0,0.0,0.0,-0.9999999999999998,0.0,0.9663899781345132,6.200841903686523,0.0,0.0,0.0,0,493000000,bluerov2/dvl_sonar1_link,0.0,0.0,0.0,0.0,0.0,0.9999999999999998,0.9663899781345132,3.8042149543762207,0.0,0.0,0.0,0,493000000,bluerov2/dvl_sonar2_link,0.0,0.0,0.0,0.0,0.9999999999999998,0.0,0.9663899781345132,40.54920959472656,0.0,0.0,0.0,0,493000000,bluerov2/dvl_sonar3_link,0.0,0.0,0.0,0.0,0.0,-0.9999999999999998,0.9663899781345132
12477000000,107,12477000000,bluerov2/dvl_link,1.034670508573999,-0.00412256541442153,0.005272918525534201,0.25,0.0,0.0,0.0,0.25,0.0,0.0,0.0,0.25,32.861968994140625,81.0,0.0,0.0,0.0,0,493000000,bluerov2/dvl_sonar0_link,0.0,0.0,0.0,0.0,-0.9999999999999998,0.0,0.9663899781345132,6.2062907218933105,0.0,0.0,0.0,0,493000000,bluerov2/dvl_sonar1_link,0.0,0.0,0.0,0.0,0.0,0.9999999999999998,0.9663899781345132,3.8058254718780518,0.0,0.0,0.0,0,493000000,bluerov2/dvl_sonar2_link,0.0,0.0,0.0,0.0,0.9999999999999998,0.0,0.9663899781345132,40.43576431274414,0.0,0.0,0.0,0,493000000,bluerov2/dvl_sonar3_link,0.0,0.0,0.0,0.0,0.0,-0.9999999999999998,0.9663899781345132
12589000000,108,12589000000,bluerov2/dvl_link,0.9728972883074443,0.0428036101783469,-0.0073452855107776875,0.25,0.0,0.0,0.0,0.25,0.0,0.0,0.0,0.25,32.83782958984375,81.0,0.0,0.0,0.0,0,493000000,bluerov2/dvl_sonar0_link,0.0,0.0,0.0,0.0,-0.9999999999999998,0.0,0.9663899781345132,6.218709468841553,0.0,0.0,0.0,0,493000000,bluerov2/dvl_sonar1_link,0.0,0.0,0.0,0.0,0.0,0.9999999999999998,0.9663899781345132,3.8037476539611816,0.0,0.0,0.0,0,493000000,bluerov2/dvl_sonar2_link,0.0,0.0,0.0,0.0,0.9999999999999998,0.0,0.9663899781345132,40.32886505126953,0.0,0.0,0.0,0,493000000,bluerov2/dvl_sonar3_link,0.0,0.0,0.0,0.0,0.0,-0.9999999999999998,0.9663899781345132
12701000000,109,12701000000,bluerov2/dvl_link,1.0483618200583509,-0.044183459271723395,-0.11477723423329851,0.25,0.0,0.0,0.0,0.25,0.0,0.0,0.0,0.25,32.80058288574219,81.0,0.0,0.0,0.0,0,493000000,bluerov2/dvl_sonar0_link,0.0,0.0,0.0,0.0,-0.9999999999999998,0.0,0.9663899781345132,6.202215671539307,0.0,0.0,0.0,0,493000000,bluerov2/dvl_sonar1_link,0.0,0.0,0.0,0.0,0.0,0.9999999999999998,0.9663899781345132,3.805884599685669,0.0,0.0,0.0,0,493000000,bluerov2/dvl_sonar2_link,0.0,0.0,0.0,0.0,0.9999999999999998,0.0,0.9663899781345132,40.19422912597656,0.0,0.0,0.0,0,493000000,bluerov2/dvl_sonar3_link,0.0,0.0,0.0,0.0,0.0,-0.9999999999999998,0.9663899781345132
12813000000,110,12813000000,bluerov2/dvl_link,0.9532403006348585,-0.06792651083484451,0.02922314693799262,0.25,0.0,0.0,0.0,0.25,0.0,0.0,0.0,0.25,32.76805114746094,81.0,0.0,0.0,0.0,0,493000000,bluerov2/dvl_sonar0_link,0.0,0.0,0.0,0.0,-0.9999999999999998,0.0,0.9663899781345132,6.217541694641113,0.0,0.0,0.0,0,493000000,bluerov2/dvl_sonar1_link,0.0,0.0,0.0,0.0,0.0,0.9999999999999998,0.9663899781345132,3.8004543781280518,0.0,0.0,0.0,0,493000000,bluerov2/dvl_sonar2_link,0.0,0.0,0.0,0.0,0.9999999999999998,0.0,0.9663899781345132,40.05420684814453,0.0,0.0,0.0,0,493000000,bluerov2/dvl_sonar3_link,0.0,0.0,0.0,0.0,0.0,-0.9999999999999998,0.9663899781345132
12925000000,111,12925000000,bluerov2/dvl_link,1.14019123339888,-0.031609848858505186,0.0029691052921485446,0.25,0.0,0.0,0.0,0.25,0.0,0.0,0.0,0.25,32.73853302001953,81.0,0.0,0.0,0.0,0,493000000,bluerov2/dvl_sonar0_link,0.0,0.0,0.0,0.0,-0.9999999999999998,0.0,0.9663899781345132,6.213846683502197,0.0,0.0,0.0,0,493000000,bluerov2/dvl_sonar1_link,0.0,0.0,0.0,0.0,0.0,0.9999999999999998,0.9663899781345132,3.8037750720977783,0.0,0.0,0.0,0,493000000,bluerov2/dvl_sonar2_link,0.0,0.0,0.0,0.0,0.9999999999999998,0.0,0.9663899781345132,39.9365234375,0.0,0.0,0.0,0,493000000,bluerov2/dvl_sonar3_link,0.0,0.0,0.0,0.0,0.0,-0.9999999999999998,0.9663899781345132
13037000000,112,13037000000,bluerov2/dvl_link,1.0393544546555031,-0.024653440647367388,0.017538265426057867,0.25,0.0,0.0,0.0,0.25,0.0,0.0,0.0,0.25,32.70853805541992,81.0,0.0,0.0,0.0,0,493000000,bluerov2/dvl_sonar0_link,0.0,0.0,0.0,0.0,-0.9999999999999998,0.0,0.9663899781345132,6.22105073928833,0.0,0.0,0.0,0,493000000,bluerov2/dvl_sonar1_link,0.0,0.0,0.0,0.0,0.0,0.9999999999999998,0.9663899781345132,3.80554461479187,0.0,0.0,0.0,0,493000000,bluerov2/dvl_sonar2_link,0.0,0.0,0.0,0.0,0.9999999999999998,0.0,0.9663899781345132,39.80755615234375,0.0,0.0,0.0,0,493000000,bluerov2/dvl_sonar3_link,0.0,0.0,0.0,0.0,0.0,-0.9999999999999998,0.9663899781345132
13149000000,113,13149000000,bluerov2/dvl_link,1.1057459836493988,0.005676760252676574,-0.05445043788979382,0.25,0.0,0.0,0.0,0.25,0.0,0.0,0.0,0.25,32.67256164550781,81.0,0.0,0.0,0.0,0,493000000,bluerov2/dvl_sonar0_link,0.0,0.0,0.0,0.0,-0.9999999999999998,0.0,0.9663899781345132,6.204392433166504,0.0,0.0,0.0,0,493000000,bluerov2/dvl_sonar1_link,0.0,0.0,0.0,0.0,0.0,0.9999999999999998,0.9663899781345132,3.8165624141693115,0.0,0.0,0.0,0,493000000,bluerov2/dvl_sonar2_link,0.0,0.0,0.0,0.0,0.9999999999999998,0.0,0.9663899781345132,39.669288635253906,0.0,0.0,0.0,0,493000000,bluerov2/dvl_sonar3_link,0.0,0.0,0.0,0.0,0.0,-0.9999999999999998,0.9663899781345132
13261000000,114,13261000000,bluerov2/dvl_link,1.052864917084183,0.08375824550989534,0.0038349117866984545,0.25,0.0,0.0,0.0,0.25,0.0,0.0,0.0,0.25,32.635643005371094,81.0,0.0,0.0,0.0,0,493000000,bluerov2/dvl_sonar0_link,0.0,0.0,0.0,0.0,-0.9999999999999998,0.0,0.9663899781345132,6.20188570022583,0.0,0.0,0.0,0,493000000,bluerov2/dvl_sonar1_link,0.0,0.0,0.0,0.0,0.0,0.9999999999999998,0.9663899781345132,3.8041679859161377,0.0,0.0,0.0,0,493000000,bluerov2/dvl_sonar2_link,0.0,0.0,0.0,0.0,0.9999999999999998,0.0,0.9663899781345132,39.53651809692383,0.0,0.0,0.0,0,493000000,bluerov2/dvl_sonar3_link,0.0,0.0,0.0,0.0,0.0,-0.9999999999999998,0.9663899781345132
13373000000,115,13373000000,bluerov2/dvl_link,1.06212100175952,0.022704583693576308,-0.022359703418661243,0.25,0.0,0.0,0.0,0.25,0.0,0.0,0.0,0.25,32.59956359863281,81.0,0.0,0.0,0.0,0,493000000,bluerov2/dvl_sonar0_link,0.0,0.0,0.0,0.0,-0.9999999999999998,0.0,0.9663899781345132,6.197041034698486,0.0,0.0,0.0,0,493000000,bluerov2/dvl_sonar1_link,0.0,0.0,0.0,0.0,0.0,0.9999999999999998,0.9663899781345132,3.803600788116455,0.0,0.0,0.0,0,493000000,bluerov2/dvl_sonar2_link,0.0,0.0,0.0,0.0,0.9999999999999998,0.0,0.9663899781345132,39.39759826660156,0.0,0.0,0.0,0,493000000,bluerov2/dvl_sonar3_link,0.0,0.0,0.0,0.0,0.0,-0.9999999999999998,0.9663899781345132
13485000000,116,13485000000,bluerov2/dvl_link,1.0685533243739254,0.06334900357346054,-0.007284238285919901,0.25,0.0,0.0,0.0,0.25,0.0,0.0,0.0,0.25,32.566627502441406,81.0,0.0,0.0,0.0,0,493000000,bluerov2/dvl_sonar0_link,0.0,0.0,0.0,0.0,-0.9999999999999998,0.0,0.9663899781345132,6.204018592834473,0.0,0.0,0.0,0,493000000,bluerov2/dvl_sonar1_link,0.0,0.0,0.0,0.0,0.0,0.9999999999999998,0.9663899781345132,3.800671100616455,0.0,0.0,0.0,0,493000000,bluerov2/dvl_sonar2_link,0.0,0.0,0.0,0.0,0.9999999999999998,0.0,0.9663899781345132,39.26181411743164,0.0,0.0,0.0,0,493000000,bluerov2/dvl_sonar3_link,0.0,0.0,0.0,0.0,0.0,-0.9999999999999998,0.9663899781345132
13597000000,117,13597000000,bluerov2/dvl_link,1.0599902340650051,0.01899427503351238,-0.12826391967691167,0.25,0.0,0.0,0.0,0.25,0.0,0.0,0.0,0.25,32.5349006652832,81.0,0.0,0.0,0.0,0,493000000,bluerov2/dvl_sonar0_link,0.0,0.0,0.0,0.0,-0.9999999999999998,0.0,0.9663899781345132,6.207981586456299,0.0,0.0,0.0,0,493000000,bluerov2/dvl_sonar1_link,0.0,0.0,0.0,0.0,0.0,0.9999999999999998,0.9663899781345132,3.8042209148406982,0.0,0.0,0.0,0,493000000,bluerov2/dvl_sonar2_link,0.0,0.0,0.0,0.0,0.9999999999999998,0.0,0.9663899781345132,39.12739944458008,0.0,0.0,0.0,0,493000000,bluerov2/dvl_sonar3_link,0.0,0.0,0.0,0.0,0.0,-0.9999999999999998,0.9663899781345132
13709000000,118,13709000000,bluerov2/dvl_link,1.001631197734029,-0.021298353672128553,0.0021898473560923765,0.25,0.0,0.0,0.0,0.25,0.0,0.0,0.0,0.25,32.49486541748047,81.0,0.0,0.0,0.0,0,493000000,bluerov2/dvl_sonar0_link,0.0,0.0,0.0,0.0,-0.9999999999999998,0.0,0.9663899781345132,6.201186656951904,0.0,0.0,0.0,0,493000000,bluerov2/dvl_sonar1_link,0.0,0.0,0.0,0.0,0.0,0.9999999999999998,0.9663899781345132,3.796363592147827,0.0,0.0,0.0,0,493000000,bluerov2/dvl_sonar2_link,0.0,0.0,0.0,0.0,0.9999999999999998,0.0,0.9663899781345132,38.981910705566406,0.0,0.0,0.0,0,493000000,bluerov2/dvl_sonar3_link,0.0,0.0,0.0,0.0,0.0,-0.9999999999999998,0.9663899781345132
13821000000,119,13821000000,bluerov2/dvl_link,1.0557935419691904,0.03442253098995688,-0.029722669089718746,0.25,0.0,0.0,0.0,0.25,0.0,0.0,0.0,0.25,32.46358108520508,81.0,0.0,0.0,0.0,0,493000000,bluerov2/dvl_sonar0_link,0.0,0.0,0.0,0.0,-0.9999999999999998,0.0,0.9663899781345132,6.198349475860596,0.0,0.0,0.0,0,493000000,bluerov2/dvl_sonar1_link,0.0,0.0,0.0,0.0,0.0,0.9999999999999998,0.9663899781345132,3.812077760696411,0.0,0.0,0.0,0,493000000,bluerov2/dvl_sonar2_link,0.0,0.0,0.0,0.0,0.9999999999999998,0.0,0.9663899781345132,38.843894958496094,0.0,0.0,0.0,0,493000000,bluerov2/dvl_sonar3_link,0.0,0.0,0.0,0.0,0.0,-0.9999999999999998,0.9663899781345132
13933000000,120,13933000000,bluerov2/dvl_link,0.9852516793000268,0.004056222179777946,0.005778409801207895,0.25,0.0,0.0,0.0,0.25,0.0,0.0,0.0,0.25,32.430084228515625,81.0,0.0,0.0,0.0,0,493000000,bluerov2/dvl_sonar0_link,0.0,0.0,0.0,0.0,-0.9999999999999998,0.0,0.9663899781345132,6.19915246963501,0.0,0.0,0.0,0,493000000,bluerov2/dvl_sonar1_link,0.0,0.0,0.0,0.0,0.0,0.9999999999999998,0.9663899781345132,3.799771785736084,0.0,0.0,0.0,0,493000000,bluerov2/dvl_sonar2_link,0.0,0.0,0.0,0.0,0.9999999999999998,0.0,0.9663899781345132,38.72141647338867,0.0,0.0,0.0,0,493000000,bluerov2/dvl_sonar3_link,0.0,0.0,0.0,0.0,0.0,-0.9999999999999998,0.9663899781345132
14045000000,121,14045000000,bluerov2/dvl_link,1.05797245321629,0.08665840038282467,0.05990936618989355,0.25,0.0,0.0,0.0,0.25,0.0,0.0,0.0,0.25,32.395790100097656,81.0,0.0,0.0,0.0,0,493000000,bluerov2/dvl_sonar0_link,0.0,0.0,0.0,0.0,-0.9999999999999998,0.0,0.9663899781345132,6.195269584655762,0.0,0.0,0.0,0,493000000,bluerov2/dvl_sonar1_link,0.0,0.0,0.0,0.0,0.0,0.9999999999999998,0.9663899781345132,3.8030502796173096,0.0,0.0,0.0,0,493000000,bluerov2/dvl_sonar2_link,0.0,0.0,0.0,0.0,0.9999999999999998,0.0,0.9663899781345132,38.584842681884766,0.0,0.0,0.0,0,493000000,bluerov2/dvl_sonar3_link,0.0,0.0,0.0,0.0,0.0,-0.9999999999999998,0.9663899781345132
14157000000,122,14157000000,bluerov2/dvl_link,1.0378333740547074,0.0745373776072442,0.010891041733890841,0.25,0.0,0.0,0.0,0.25,0.0,0.0,0.0,0.25,32.36558532714844,81.0,0.0,0.0,0.0,0,493000000,bluerov2/dvl_sonar0_link,0.0,0.0,0.0,0.0,-0.9999999999999998,0.0,0.9663899781345132,6.197413921356201,0.0,0.0,0.0,0,493000000,bluerov2/dvl_sonar1_link,0.0,0.0,0.0,0.0,0.0,0.9999999999999998,0.9663899781345132,3.8046212196350098,0.0,0.0,0.0,0,493000000,bluerov2/dvl_sonar2_link,0.0,0.0,0.0,0.0,0.9999999999999998,0.0,0.9663899781345132,38.4603157043457,0.0,0.0,0.0,0,493000000,bluerov2/dvl_sonar3_link,0.0,0.0,0.0,0.0,0.0,-0.9999999999999998,0.9663899781345132
14269000000,123,14269000000,bluerov2/dvl_link,0.9697349967210886,-0.16583770792638514,-0.0135705320614356,0.25,0.0,0.0,0.0,0.25,0.0,0.0,0.0,0.25,32.335628509521484,81.0,0.0,0.0,0.0,0,493000000,bluerov2/dvl_sonar0_link,0.0,0.0,0.0,0.0,-0.9999999999999998,0.0,0.9663899781345132,6.200362682342529,0.0,0.0,0.0,0,493000000,bluerov2/dvl_sonar1_link,0.0,0.0,0.0,0.0,0.0,0.9999999999999998,0.9663899781345132,3.8079674243927,0.0,0.0,0.0,0,493000000,bluerov2/dvl_sonar2_link,0.0,0.0,0.0,0.0,0.9999999999999998,0.0,0.9663899781345132,38.33418655395508,0.0,0.0,0.0,0,493000000,bluerov2/dvl_sonar3_link,0.0,0.0,0.0,0.0,0.0,-0.9999999999999998,0.9663899781345132
14381000000,124,14381000000,bluerov2/dvl_link,0.9749656161295697,0.044345736758174575,-0.011109857471279856,0.25,0.0,0.0,0.0,0.25,0.0,0.0,0.0,0.25,32.29928970336914,81.0,0.0,0.0,0.0,0,493000000,bluerov2/dvl_sonar0_link,0.0,0.0,0.0,0.0,-0.9999999999999998,0.0,0.9663899781345132,6.197666645050049,0.0,0.0,0.0,0,493000000,bluerov2/dvl_sonar1_link,0.0,0.0,0.0,0.0,0.0,0.9999999999999998,0.9663899781345132,3.804647922515869,0.0,0.0,0.0,0,493000000,bluerov2/dvl_sonar2_link,0.0,0.0,0.0,0.0,0.9999999999999998,0.0,0.9663899781345132,38.19484329223633,0.0,0.0,0.0,0,493000000,bluerov2/dvl_sonar3_link,0.0,0.0,0.0,0.0,0.0,-0.9999999999999998,0.9663899781345132
14493000000,125,14493000000,bluerov2/dvl_link,0.9530692669849444,0.004825995833370438,-0.05466270066339024,0.25,0.0,0.0,0.0,0.25,0.0,0.0,0.0,0.25,32.26625061035156,81.0,0.0,0.0,0.0,0,493000000,bluerov2/dvl_sonar0_link,0.0,0.0,0.0,0.0,-0.9999999999999998,0.0,0.9663899781345132,6.201152324676514,0.0,0.0,0.0,0,493000000,bluerov2/dvl_sonar1_link,0.0,0.0,0.0,0.0,0.0,0.9999999999999998,0.9663899781345132,3.800034284591675,0.0,0.0,0.0,0,493000000,bluerov2/dvl_sonar2_link,0.0,0.0,0.0,0.0,0.9999999999999998,0.0,0.9663899781345132,38.06381607055664,0.0,0.0,0.0,0,493000000,bluerov2/dvl_sonar3_link,0.0,0.0,0.0,0.0,0.0,-0.9999999999999998,0.9663899781345132
14605000000,126,14605000000,bluerov2/dvl_link,1.01274877312239,0.006291283049801548,-0.023095850081200884,0.25,0.0,0.0,0.0,0.25,0.0,0.0,0.0,0.25,32.23464584350586,81.0,0.0,0.0,0.0,0,493000000,bluerov2/dvl_sonar0_link,0.0,0.0,0.0,0.0,-0.9999999999999998,0.0,0.9663899781345132,6.191718101501465,0.0,0.0,0.0,0,493000000,bluerov2/dvl_sonar1_link,0.0,0.0,0.0,0.0,0.0,0.9999999999999998,0.9663899781345132,3.802539587020874,0.0,0.0,0.0,0,493000000,bluerov2/dvl_sonar2_link,0.0,0.0,0.0,0.0,0.9999999999999998,0.0,0.9663899781345132,37.94432830810547,0.0,0.0,0.0,0,493000000,bluerov2/dvl_sonar3_link,0.0,0.0,0.0,0.0,0.0,-0.9999999999999998,0.9663899781345132
14717000000,127,14717000000,bluerov2/dvl_link,1.0332368382744987,0.03277371385275556,0.0699091168065154,0.25,0.0,0.0,0.0,0.25,0.0,0.0,0.0,0.25,32.19896697998047,81.0,0.0,0.0,0.0,0,493000000,bluerov2/dvl_sonar0_link,0.0,0.0,0.0,0.0,-0.9999999999999998,0.0,0.9663899781345132,6.1883368492126465,0.0,0.0,0.0,0,493000000,bluerov2/dvl_sonar1_link,0.0,0.0,0.0,0.0,0.0,0.9999999999999998,0.9663899781345132,3.7953243255615234,0.0,0.0,0.0,0,493000000,bluerov2/dvl_sonar2_link,0.0,0.0,0.0,0.0,0.9999999999999998,0.0,0.9663899781345132,37.81219482421875,0.0,0.0,0.0,0,493000000,bluerov2/dvl_sonar3_link,0.0,0.0,0.0,0.0,0.0,-0.9999999999999998,0.9663899781345132
14829000000,128,14829000000,bluerov2/dvl_link,1.0158800251561093,-0.02424139013257596,0.06892330141269286,0.25,0.0,0.0,0.0,0.25,0.0,0.0,0.0,0.25,32.16896057128906,81.0,0.0,0.0,0.0,0,493000000,bluerov2/dvl_sonar0_link,0.0,0.0,0.0,0.0,-0.9999999999999998,0.0,0.9663899781345132,6.194055080413818,0.0,0.0,0.0,0,493000000,bluerov2/dvl_sonar1_link,0.0,0.0,0.0,0.0,0.0,0.9999999999999998,0.9663899781345132,3.8104631900787354,0.0,0.0,0.0,0,493000000,bluerov2/dvl_sonar2_link,0.0,0.0,0.0,0.0,0.9999999999999998,0.0,0.9663899781345132,37.67133331298828,0.0,0.0,0.0,0,493000000,bluerov2/dvl_sonar3_link,0.0,0.0,0.0,0.0,0.0,-0.9999999999999998,0.9663899781345132
14941000000,129,14941000000,bluerov2/dvl_link,0.9479091158586211,0.018771780914245695,0.04849906073689898,0.25,0.0,0.0,0.0,0.25,0.0,0.0,0.0,0.25,32.13481521606445,81.0,0.0,0.0,0.0,0,493000000,bluerov2/dvl_sonar0_link,0.0,0.0,0.0,0.0,-0.9999999999999998,0.0,0.9663899781345132,6.188875198364258,0.0,0.0,0.0,0,493000000,bluerov2/dvl_sonar1_link,0.0,0.0,0.0,0.0,0.0,0.9999999999999998,0.9663899781345132,3.800612449645996,0.0,0.0,0.0,0,493000000,bluerov2/dvl_sonar2_link,0.0,0.0,0.0,0.0,0.9999999999999998,0.0,0.9663899781345132,37.549774169921875,0.0,0.0,0.0,0,493000000,bluerov2/dvl_sonar3_link,0.0,0.0,0.0,0.0,0.0,-0.9999999999999998,0.9663899781345132
15053000000,130,15053000000,bluerov2/dvl_link,1.0244626848674034,0.01607592781392935,0.02064000208612716,0.25,0.0,0.0,0.0,0.25,0.0,0.0,0.0,0.25,32.10157775878906,81.0,0.0,0.0,0.0,0,493000000,bluerov2/dvl_sonar0_link,0.0,0.0,0.0,0.0,-0.9999999999999998,0.0,0.9663899781345132,6.185308456420898,0.0,0.0,0.0,0,493000000,bluerov2/dvl_sonar1_link,0.0,0.0,0.0,0.0,0.0,0.9999999999999998,0.9663899781345132,3.793889284133911,0.0,0.0,0.0,0,493000000,bluerov2/dvl_sonar2_link,0.0,0.0,0.0,0.0,0.9999999999999998,0.0,0.9663899781345132,37.42710494995117,0.0,0.0,0.0,0,493000000,bluerov2/dvl_sonar3_link,0.0,0.0,0.0,0.0,0.0,-0.9999999999999998,0.9663899781345132
15165000000,131,15165000000,bluerov2/dvl_link,1.0007395865238309,0.0718559493061147,0.017720649437292006,0.25,0.0,0.0,0.0,0.25,0.0,0.0,0.0,0.25,32.07630157470703,81.0,0.0,0.0,0.0,0,493000000,bluerov2/dvl_sonar0_link,0.0,0.0,0.0,0.0,-0.9999999999999998,0.0,0.9663899781345132,6.189878940582275,0.0,0.0,0.0,0,493000000,bluerov2/dvl_sonar1_link,0.0,0.0,0.0,0.0,0.0,0.9999999999999998,0.9663899781345132,3.8008759021759033,0.0,0.0,0.0,0,493000000,bluerov2/dvl_sonar2_link,0.0,0.0,0.0,0.0,0.9999999999999998,0.0,0.9663899781345132,37.31444549560547,0.0,0.0,0.0,0,493000000,bluerov2/dvl_sonar3_link,0.0,0.0,0.0,0.0,0.0,-0.9999999999999998,0.9663899781345132
15277000000,132,15277000000,bluerov2/dvl_link,0.9910328841643983,0.03296377096507394,0.021286569287075997,0.25,0.0,0.0,0.0,0.25,0.0,0.0,0.0,0.25,32.05382537841797,81.0,0.0,0.0,0.0,0,493000000,bluerov2/dvl_sonar0_link,0.0,0.0,0.0,0.0,-0.9999999999999998,0.0,0.9663899781345132,6.200823783874512,0.0,0.0,0.0,0,493000000,bluerov2/dvl_sonar1_link,0.0,0.0,0.0,0.0,0.0,0.9999999999999998,0.9663899781345132,3.807396173477173,0.0,0.0,0.0,0,493000000,bluerov2/dvl_sonar2_link,0.0,0.0,0.0,0.0,0.9999999999999998,0.0,0.9663899781345132,37.20708084106445,0.0,0.0,0.0,0,493000000,bluerov2/dvl_sonar3_link,0.0,0.0,0.0,0.0,0.0,-0.9999999999999998,0.9663899781345132
15389000000,133,15389000000,bluerov2/dvl_link,1.1357977099996337,0.0022045703640436115,-0.007487480158748578,0.25,0.0,0.0,0.0,0.25,0.0,0.0,0.0,0.25,32.018577575683594,81.0,0.0,0.0,0.0,0,493000000,bluerov2/dvl_sonar0_link,0.0,0.0,0.0,0.0,-0.9999999999999998,0.0,0.9663899781345132,6.200488090515137,0.0,0.0,0.0,0,493000000,bluerov2/dvl_sonar1_link,0.0,0.0,0.0,0.0,0.0,0.9999999999999998,0.9663899781345132,3.8007209300994873,0.0,0.0,0.0,0,493000000,bluerov2/dvl_sonar2_link,0.0,0.0,0.0,0.0,0.9999999999999998,0.0,0.9663899781345132,37.0731086730957,0.0,0.0,0.0,0,493000000,bluerov2/dvl_sonar3_link,0.0,0.0,0.0,0.0,0.0,-0.9999999999999998,0.9663899781345132
