%time,field.header.seq,field.header.stamp,field.header.frame_id,field.velocity.x,field.velocity.y,field.velocity.z,field.velocity_covariance0,field.velocity_covariance1,field.velocity_covariance2,field.velocity_covariance3,field.velocity_covariance4,field.velocity_covariance5,field.velocity_covariance6,field.velocity_covariance7,field.velocity_covariance8,field.altitude,field.beams0.range,field.beams0.range_covariance,field.beams0.velocity,field.beams0.velocity_covariance,field.beams0.pose.header.seq,field.beams0.pose.header.stamp,field.beams0.pose.header.frame_id,field.beams0.pose.pose.position.x,field.beams0.pose.pose.position.y,field.beams0.pose.pose.position.z,field.beams0.pose.pose.orientation.x,field.beams0.pose.pose.orientation.y,field.beams0.pose.pose.orientation.z,field.beams0.pose.pose.orientation.w,field.beams1.range,field.beams1.range_covariance,field.beams1.velocity,field.beams1.velocity_covariance,field.beams1.pose.header.seq,field.beams1.pose.header.stamp,field.beams1.pose.header.frame_id,field.beams1.pose.pose.position.x,field.beams1.pose.pose.position.y,field.beams1.pose.pose.position.z,field.beams1.pose.pose.orientation.x,field.beams1.pose.pose.orientation.y,field.beams1.pose.pose.orientation.z,field.beams1.pose.pose.orientation.w,field.beams2.range,field.beams2.range_covariance,field.beams2.velocity,field.beams2.velocity_covariance,field.beams2.pose.header.seq,field.beams2.pose.header.stamp,field.beams2.pose.header.frame_id,field.beams2.pose.pose.position.x,field.beams2.pose.pose.position.y,field.beams2.pose.pose.position.z,field.beams2.pose.pose.orientation.x,field.beams2.pose.pose.orientation.y,field.beams2.pose.pose.orientation.z,field.beams2.pose.pose.orientation.w,field.beams3.range,field.beams3.range_covariance,field.beams3.velocity,field.beams3.velocity_covariance,field.beams3.pose.header.seq,field.beams3.pose.header.stamp,field.beams3.pose.header.frame_id,field.beams3.pose.pose.position.x,field.beams3.pose.pose.position.y,field.beams3.pose.pose.position.z,field.beams3.pose.pose.orientation.x,field.beams3.pose.pose.orientation.y,field.beams3.pose.pose.orientation.z,field.beams3.pose.pose.orientation.w
3452000000,29,3452000000,bluerov2/dvl_link,-0.7576049003198303,-1.8382834230507692,-0.1331175575508507,0.25,0.0,0.0,0.0,0.25,0.0,0.0,0.0,0.25,25.797046661376953,81.0,0.0,0.0,0.0,0,204000000,bluerov2/dvl_sonar0_link,0.0,0.0,0.0,0.0,-0.9999999999999998,0.0,0.9663899781345132,8.44560432434082,0.0,0.0,0.0,0,204000000,bluerov2/dvl_sonar1_link,0.0,0.0,0.0,0.0,0.0,0.9999999999999998,0.9663899781345132,6.757358551025391,0.0,0.0,0.0,0,204000000,bluerov2/dvl_sonar2_link,0.0,0.0,0.0,0.0,0.9999999999999998,0.0,0.9663899781345132,6.985231876373291,0.0,0.0,0.0,0,204000000,bluerov2/dvl_sonar3_link,0.0,0.0,0.0,0.0,0.0,-0.9999999999999998,0.9663899781345132
3564000000,30,3564000000,bluerov2/dvl_link,-0.9853880554394161,-1.7513760140156347,-0.36584146316896443,0.25,0.0,0.0,0.0,0.25,0.0,0.0,0.0,0.25,25.902544021606445,81.0,0.0,0.0,0.0,0,204000000,bluerov2/dvl_sonar0_link,0.0,0.0,0.0,0.0,-0.9999999999999998,0.0,0.9663899781345132,8.826339721679688,0.0,0.0,0.0,0,204000000,bluerov2/dvl_sonar1_link,0.0,0.0,0.0,0.0,0.0,0.9999999999999998,0.9663899781345132,6.881378650665283,0.0,0.0,0.0,0,204000000,bluerov2/dvl_sonar2_link,0.0,0.0,0.0,0.0,0.9999999999999998,0.0,0.9663899781345132,6.902459621429443,0.0,0.0,0.0,0,204000000,bluerov2/dvl_sonar3_link,0.0,0.0,0.0,0.0,0.0,-0.9999999999999998,0.9663899781345132
3676000000,31,3676000000,bluerov2/dvl_link,-0.988975182297216,-1.8899452080185317,-0.40455384671896294,0.25,0.0,0.0,0.0,0.25,0.0,0.0,0.0,0.25,26.044540405273438,81.0,0.0,0.0,0.0,0,204000000,bluerov2/dvl_sonar0_link,0.0,0.0,0.0,0.0,-0.9999999999999998,0.0,0.9663899781345132,9.332306861877441,0.0,0.0,0.0,0,204000000,bluerov2/dvl_sonar1_link,0.0,0.0,0.0,0.0,0.0,0.9999999999999998,0.9663899781345132,7.03483772277832,0.0,0.0,0.0,0,204000000,bluerov2/dvl_sonar2_link,0.0,0.0,0.0,0.0,0.9999999999999998,0.0,0.9663899781345132,6.811019420623779,0.0,0.0,0.0,0,204000000,bluerov2/dvl_sonar3_link,0.0,0.0,0.0,0.0,0.0,-0.9999999999999998,0.9663899781345132
3788000000,32,3788000000,bluerov2/dvl_link,-0.9658822398030954,-1.8393125000647759,-0.6538018523571307,0.25,0.0,0.0,0.0,0.25,0.0,0.0,0.0,0.25,26.247880935668945,81.0,0.0,0.0,0.0,0,204000000,bluerov2/dvl_sonar0_link,0.0,0.0,0.0,0.0,-0.9999999999999998,0.0,0.9663899781345132,9.988319396972656,0.0,0.0,0.0,0,204000000,bluerov2/dvl_sonar1_link,0.0,0.0,0.0,0.0,0.0,0.9999999999999998,0.9663899781345132,7.182276725769043,0.0,0.0,0.0,0,204000000,bluerov2/dvl_sonar2_link,0.0,0.0,0.0,0.0,0.9999999999999998,0.0,0.9663899781345132,6.820933818817139,0.0,0.0,0.0,0,204000000,bluerov2/dvl_sonar3_link,0.0,0.0,0.0,0.0,0.0,-0.9999999999999998,0.9663899781345132
3900000000,33,3900000000,bluerov2/dvl_link,-0.9810855086819343,-1.747637283708021,-0.7961255648961472,0.25,0.0,0.0,0.0,0.25,0.0,0.0,0.0,0.25,26.166322708129883,81.0,0.0,0.0,0.0,0,204000000,bluerov2/dvl_sonar0_link,0.0,0.0,0.0,0.0,-0.9999999999999998,0.0,0.9663899781345132,9.58838939666748,0.0,0.0,0.0,0,204000000,bluerov2/dvl_sonar1_link,0.0,0.0,0.0,0.0,0.0,0.9999999999999998,0.9663899781345132,7.309922218322754,0.0,0.0,0.0,0,204000000,bluerov2/dvl_sonar2_link,0.0,0.0,0.0,0.0,0.9999999999999998,0.0,0.9663899781345132,6.766982555389404,0.0,0.0,0.0,0,204000000,bluerov2/dvl_sonar3_link,0.0,0.0,0.0,0.0,0.0,-0.9999999999999998,0.9663899781345132
4012000000,34,4012000000,bluerov2/dvl_link,-0.9687934042233668,-1.8588228644271398,-0.827316608794758,0.25,0.0,0.0,0.0,0.25,0.0,0.0,0.0,0.25,26.19725799560547,81.0,0.0,0.0,0.0,0,204000000,bluerov2/dvl_sonar0_link,0.0,0.0,0.0,0.0,-0.9999999999999998,0.0,0.9663899781345132,9.56369400024414,0.0,0.0,0.0,0,204000000,bluerov2/dvl_sonar1_link,0.0,0.0,0.0,0.0,0.0,0.9999999999999998,0.9663899781345132,7.493370532989502,0.0,0.0,0.0,0,204000000,bluerov2/dvl_sonar2_link,0.0,0.0,0.0,0.0,0.9999999999999998,0.0,0.9663899781345132,6.731968879699707,0.0,0.0,0.0,0,204000000,bluerov2/dvl_sonar3_link,0.0,0.0,0.0,0.0,0.0,-0.9999999999999998,0.9663899781345132
4124000000,35,4124000000,bluerov2/dvl_link,-0.9252100430991577,-1.8025613229892072,-1.0754012072569958,0.25,0.0,0.0,0.0,0.25,0.0,0.0,0.0,0.25,26.363107681274414,81.0,0.0,0.0,0.0,0,204000000,bluerov2/dvl_sonar0_link,0.0,0.0,0.0,0.0,-0.9999999999999998,0.0,0.9663899781345132,9.80249309539795,0.0,0.0,0.0,0,204000000,bluerov2/dvl_sonar1_link,0.0,0.0,0.0,0.0,0.0,0.9999999999999998,0.9663899781345132,7.986172199249268,0.0,0.0,0.0,0,204000000,bluerov2/dvl_sonar2_link,0.0,0.0,0.0,0.0,0.9999999999999998,0.0,0.9663899781345132,6.663763999938965,0.0,0.0,0.0,0,204000000,bluerov2/dvl_sonar3_link,0.0,0.0,0.0,0.0,0.0,-0.9999999999999998,0.9663899781345132
4236000000,36,4236000000,bluerov2/dvl_link,-0.929137142119157,-1.696147807956315,-1.1141427676884834,0.25,0.0,0.0,0.0,0.25,0.0,0.0,0.0,0.25,26.38770866394043,81.0,0.0,0.0,0.0,0,204000000,bluerov2/dvl_sonar0_link,0.0,0.0,0.0,0.0,-0.9999999999999998,0.0,0.9663899781345132,10.091911315917969,0.0,0.0,0.0,0,204000000,bluerov2/dvl_sonar1_link,0.0,0.0,0.0,0.0,0.0,0.9999999999999998,0.9663899781345132,7.787997245788574,0.0,0.0,0.0,0,204000000,bluerov2/dvl_sonar2_link,0.0,0.0,0.0,0.0,0.9999999999999998,0.0,0.9663899781345132,6.670929908752441,0.0,0.0,0.0,0,204000000,bluerov2/dvl_sonar3_link,0.0,0.0,0.0,0.0,0.0,-0.9999999999999998,0.9663899781345132
4348000000,37,4348000000,bluerov2/dvl_link,-0.9081195695088671,-1.6844548605248653,-1.1465489903390362,0.25,0.0,0.0,0.0,0.25,0.0,0.0,0.0,0.25,26.388874053955078,81.0,0.0,0.0,0.0,0,204000000,bluerov2/dvl_sonar0_link,0.0,0.0,0.0,0.0,-0.9999999999999998,0.0,0.9663899781345132,10.275938034057617,0.0,0.0,0.0,0,204000000,bluerov2/dvl_sonar1_link,0.0,0.0,0.0,0.0,0.0,0.9999999999999998,0.9663899781345132,7.590815544128418,0.0,0.0,0.0,0,204000000,bluerov2/dvl_sonar2_link,0.0,0.0,0.0,0.0,0.9999999999999998,0.0,0.9663899781345132,6.688741207122803,0.0,0.0,0.0,0,204000000,bluerov2/dvl_sonar3_link,0.0,0.0,0.0,0.0,0.0,-0.9999999999999998,0.9663899781345132
4460000000,38,4460000000,bluerov2/dvl_link,-0.8676106541282993,-1.6960905413252456,-1.1851018137779739,0.25,0.0,0.0,0.0,0.25,0.0,0.0,0.0,0.25,26.37144660949707,81.0,0.0,0.0,0.0,0,204000000,bluerov2/dvl_sonar0_link,0.0,0.0,0.0,0.0,-0.9999999999999998,0.0,0.9663899781345132,10.367568016052246,0.0,0.0,0.0,0,204000000,bluerov2/dvl_sonar1_link,0.0,0.0,0.0,0.0,0.0,0.9999999999999998,0.9663899781345132,7.40878963470459,0.0,0.0,0.0,0,204000000,bluerov2/dvl_sonar2_link,0.0,0.0,0.0,0.0,0.9999999999999998,0.0,0.9663899781345132,6.709429740905762,0.0,0.0,0.0,0,204000000,bluerov2/dvl_sonar3_link,0.0,0.0,0.0,0.0,0.0,-0.9999999999999998,0.9663899781345132
4572000000,39,4572000000,bluerov2/dvl_link,-0.7510891403761832,-1.623005023103437,-1.1420703116375115,0.25,0.0,0.0,0.0,0.25,0.0,0.0,0.0,0.25,26.33798599243164,81.0,0.0,0.0,0.0,0,204000000,bluerov2/dvl_sonar0_link,0.0,0.0,0.0,0.0,-0.9999999999999998,0.0,0.9663899781345132,10.347979545593262,0.0,0.0,0.0,0,204000000,bluerov2/dvl_sonar1_link,0.0,0.0,0.0,0.0,0.0,0.9999999999999998,0.9663899781345132,7.265334129333496,0.0,0.0,0.0,0,204000000,bluerov2/dvl_sonar2_link,0.0,0.0,0.0,0.0,0.9999999999999998,0.0,0.9663899781345132,6.738635540008545,0.0,0.0,0.0,0,204000000,bluerov2/dvl_sonar3_link,0.0,0.0,0.0,0.0,0.0,-0.9999999999999998,0.9663899781345132
4684000000,40,4684000000,bluerov2/dvl_link,-0.7105482786936284,-1.4957129627263333,-0.993797990259945,0.25,0.0,0.0,0.0,0.25,0.0,0.0,0.0,0.25,26.32184410095215,81.0,0.0,0.0,0.0,0,204000000,bluerov2/dvl_sonar0_link,0.0,0.0,0.0,0.0,-0.9999999999999998,0.0,0.9663899781345132,10.358549118041992,0.0,0.0,0.0,0,204000000,bluerov2/dvl_sonar1_link,0.0,0.0,0.0,0.0,0.0,0.9999999999999998,0.9663899781345132,7.130930423736572,0.0,0.0,0.0,0,204000000,bluerov2/dvl_sonar2_link,0.0,0.0,0.0,0.0,0.9999999999999998,0.0,0.9663899781345132,6.797895431518555,0.0,0.0,0.0,0,204000000,bluerov2/dvl_sonar3_link,0.0,0.0,0.0,0.0,0.0,-0.9999999999999998,0.9663899781345132
4796000000,41,4796000000,bluerov2/dvl_link,-0.6348284986611925,-1.5420754053205128,-0.9914332638108041,0.25,0.0,0.0,0.0,0.25,0.0,0.0,0.0,0.25,26.249187469482422,81.0,0.0,0.0,0.0,0,204000000,bluerov2/dvl_sonar0_link,0.0,0.0,0.0,0.0,-0.9999999999999998,0.0,0.9663899781345132,10.143155097961426,0.0,0.0,0.0,0,204000000,bluerov2/dvl_sonar1_link,0.0,0.0,0.0,0.0,0.0,0.9999999999999998,0.9663899781345132,7.032556056976318,0.0,0.0,0.0,0,204000000,bluerov2/dvl_sonar2_link,0.0,0.0,0.0,0.0,0.9999999999999998,0.0,0.9663899781345132,6.821037769317627,0.0,0.0,0.0,0,204000000,bluerov2/dvl_sonar3_link,0.0,0.0,0.0,0.0,0.0,-0.9999999999999998,0.9663899781345132
4908000000,42,4908000000,bluerov2/dvl_link,-0.5475473232648755,-1.4445795983151393,-0.8319340603102126,0.25,0.0,0.0,0.0,0.25,0.0,0.0,0.0,0.25,26.246047973632812,81.0,0.0,0.0,0.0,0,204000000,bluerov2/dvl_sonar0_link,0.0,0.0,0.0,0.0,-0.9999999999999998,0.0,0.9663899781345132,10.158920288085938,0.0,0.0,0.0,0,204000000,bluerov2/dvl_sonar1_link,0.0,0.0,0.0,0.0,0.0,0.9999999999999998,0.9663899781345132,6.96061372756958,0.0,0.0,0.0,0,204000000,bluerov2/dvl_sonar2_link,0.0,0.0,0.0,0.0,0.9999999999999998,0.0,0.9663899781345132,6.864657402038574,0.0,0.0,0.0,0,204000000,bluerov2/dvl_sonar3_link,0.0,0.0,0.0,0.0,0.0,-0.9999999999999998,0.9663899781345132
5020000000,43,5020000000,bluerov2/dvl_link,-0.47101573583512557,-1.432455837109977,-0.7387507163798269,0.25,0.0,0.0,0.0,0.25,0.0,0.0,0.0,0.25,26.21632957458496,81.0,0.0,0.0,0.0,0,204000000,bluerov2/dvl_sonar0_link,0.0,0.0,0.0,0.0,-0.9999999999999998,0.0,0.9663899781345132,10.158124923706055,0.0,0.0,0.0,0,204000000,bluerov2/dvl_sonar1_link,0.0,0.0,0.0,0.0,0.0,0.9999999999999998,0.9663899781345132,6.90097713470459,0.0,0.0,0.0,0,204000000,bluerov2/dvl_sonar2_link,0.0,0.0,0.0,0.0,0.9999999999999998,0.0,0.9663899781345132,6.806211471557617,0.0,0.0,0.0,0,204000000,bluerov2/dvl_sonar3_link,0.0,0.0,0.0,0.0,0.0,-0.9999999999999998,0.9663899781345132
5132000000,44,5132000000,bluerov2/dvl_link,-0.42964146875591075,-1.4646811641152107,-0.5415072400314817,0.25,0.0,0.0,0.0,0.25,0.0,0.0,0.0,0.25,26.193241119384766,81.0,0.0,0.0,0.0,0,204000000,bluerov2/dvl_sonar0_link,0.0,0.0,0.0,0.0,-0.9999999999999998,0.0,0.9663899781345132,10.17951488494873,0.0,0.0,0.0,0,204000000,bluerov2/dvl_sonar1_link,0.0,0.0,0.0,0.0,0.0,0.9999999999999998,0.9663899781345132,6.873703956604004,0.0,0.0,0.0,0,204000000,bluerov2/dvl_sonar2_link,0.0,0.0,0.0,0.0,0.9999999999999998,0.0,0.9663899781345132,6.719747543334961,0.0,0.0,0.0,0,204000000,bluerov2/dvl_sonar3_link,0.0,0.0,0.0,0.0,0.0,-0.9999999999999998,0.9663899781345132
5244000000,45,5244000000,bluerov2/dvl_link,-0.2516582989801331,-1.4002101694275242,-0.33773752035577564,0.25,0.0,0.0,0.0,0.25,0.0,0.0,0.0,0.25,26.192428588867188,81.0,0.0,0.0,0.0,0,204000000,bluerov2/dvl_sonar0_link,0.0,0.0,0.0,0.0,-0.9999999999999998,0.0,0.9663899781345132,10.243318557739258,0.0,0.0,0.0,0,204000000,bluerov2/dvl_sonar1_link,0.0,0.0,0.0,0.0,0.0,0.9999999999999998,0.9663899781345132,6.869082927703857,0.0,0.0,0.0,0,204000000,bluerov2/dvl_sonar2_link,0.0,0.0,0.0,0.0,0.9999999999999998,0.0,0.9663899781345132,6.657318115234375,0.0,0.0,0.0,0,204000000,bluerov2/dvl_sonar3_link,0.0,0.0,0.0,0.0,0.0,-0.9999999999999998,0.9663899781345132
5356000000,46,5356000000,bluerov2/dvl_link,-0.1417781611229091,-1.51849157437102,-0.31805961337192684,0.25,0.0,0.0,0.0,0.25,0.0,0.0,0.0,0.25,26.297285079956055,81.0,0.0,0.0,0.0,0,204000000,bluerov2/dvl_sonar0_link,0.0,0.0,0.0,0.0,-0.9999999999999998,0.0,0.9663899781345132,10.636286735534668,0.0,0.0,0.0,0,204000000,bluerov2/dvl_sonar1_link,0.0,0.0,0.0,0.0,0.0,0.9999999999999998,0.9663899781345132,6.886415004730225,0.0,0.0,0.0,0,204000000,bluerov2/dvl_sonar2_link,0.0,0.0,0.0,0.0,0.9999999999999998,0.0,0.9663899781345132,6.666443824768066,0.0,0.0,0.0,0,204000000,bluerov2/dvl_sonar3_link,0.0,0.0,0.0,0.0,0.0,-0.9999999999999998,0.9663899781345132
5468000000,47,5468000000,bluerov2/dvl_link,-0.14221029061999774,-1.4158639733697234,-0.2117178971615957,0.25,0.0,0.0,0.0,0.25,0.0,0.0,0.0,0.25,26.25347137451172,81.0,0.0,0.0,0.0,0,204000000,bluerov2/dvl_sonar0_link,0.0,0.0,0.0,0.0,-0.9999999999999998,0.0,0.9663899781345132,10.452179908752441,0.0,0.0,0.0,0,204000000,bluerov2/dvl_sonar1_link,0.0,0.0,0.0,0.0,0.0,0.9999999999999998,0.9663899781345132,6.919881343841553,0.0,0.0,0.0,0,204000000,bluerov2/dvl_sonar2_link,0.0,0.0,0.0,0.0,0.9999999999999998,0.0,0.9663899781345132,6.641822338104248,0.0,0.0,0.0,0,204000000,bluerov2/dvl_sonar3_link,0.0,0.0,0.0,0.0,0.0,-0.9999999999999998,0.9663899781345132
5580000000,48,5580000000,bluerov2/dvl_link,-0.10426518505151504,-1.423278772508783,-0.09339860271576987,0.25,0.0,0.0,0.0,0.25,0.0,0.0,0.0,0.25,26.333398818969727,81.0,0.0,0.0,0.0,0,204000000,bluerov2/dvl_sonar0_link,0.0,0.0,0.0,0.0,-0.9999999999999998,0.0,0.9663899781345132,10.780720710754395,0.0,0.0,0.0,0,204000000,bluerov2/dvl_sonar1_link,0.0,0.0,0.0,0.0,0.0,0.9999999999999998,0.9663899781345132,6.984233379364014,0.0,0.0,0.0,0,204000000,bluerov2/dvl_sonar2_link,0.0,0.0,0.0,0.0,0.9999999999999998,0.0,0.9663899781345132,6.568638324737549,0.0,0.0,0.0,0,204000000,bluerov2/dvl_sonar3_link,0.0,0.0,0.0,0.0,0.0,-0.9999999999999998,0.9663899781345132
5692000000,49,5692000000,bluerov2/dvl_link,-0.0024492890111227905,-1.457905507621118,-0.13820423315921482,0.25,0.0,0.0,0.0,0.25,0.0,0.0,0.0,0.25,26.483238220214844,81.0,0.0,0.0,0.0,0,204000000,bluerov2/dvl_sonar0_link,0.0,0.0,0.0,0.0,-0.9999999999999998,0.0,0.9663899781345132,11.393951416015625,0.0,0.0,0.0,0,204000000,bluerov2/dvl_sonar1_link,0.0,0.0,0.0,0.0,0.0,0.9999999999999998,0.9663899781345132,7.051711082458496,0.0,0.0,0.0,0,204000000,bluerov2/dvl_sonar2_link,0.0,0.0,0.0,0.0,0.9999999999999998,0.0,0.9663899781345132,6.487288951873779,0.0,0.0,0.0,0,204000000,bluerov2/dvl_sonar3_link,0.0,0.0,0.0,0.0,0.0,-0.9999999999999998,0.9663899781345132
5804000000,50,5804000000,bluerov2/dvl_link,-0.019161870677219,-1.4490823267285629,0.0004786865155508857,0.25,0.0,0.0,0.0,0.25,0.0,0.0,0.0,0.25,26.535667419433594,81.0,0.0,0.0,0.0,0,204000000,bluerov2/dvl_sonar0_link,0.0,0.0,0.0,0.0,-0.9999999999999998,0.0,0.9663899781345132,11.550342559814453,0.0,0.0,0.0,0,204000000,bluerov2/dvl_sonar1_link,0.0,0.0,0.0,0.0,0.0,0.9999999999999998,0.9663899781345132,7.137797832489014,0.0,0.0,0.0,0,204000000,bluerov2/dvl_sonar2_link,0.0,0.0,0.0,0.0,0.9999999999999998,0.0,0.9663899781345132,6.454533576965332,0.0,0.0,0.0,0,204000000,bluerov2/dvl_sonar3_link,0.0,0.0,0.0,0.0,0.0,-0.9999999999999998,0.9663899781345132
5916000000,51,5916000000,bluerov2/dvl_link,-0.027591049510556076,-1.3662219567217042,0.1658448498325242,0.25,0.0,0.0,0.0,0.25,0.0,0.0,0.0,0.25,26.573396682739258,81.0,0.0,0.0,0.0,0,204000000,bluerov2/dvl_sonar0_link,0.0,0.0,0.0,0.0,-0.9999999999999998,0.0,0.9663899781345132,11.653536796569824,0.0,0.0,0.0,0,204000000,bluerov2/dvl_sonar1_link,0.0,0.0,0.0,0.0,0.0,0.9999999999999998,0.9663899781345132,7.2389750480651855,0.0,0.0,0.0,0,204000000,bluerov2/dvl_sonar2_link,0.0,0.0,0.0,0.0,0.9999999999999998,0.0,0.9663899781345132,6.40107536315918,0.0,0.0,0.0,0,204000000,bluerov2/dvl_sonar3_link,0.0,0.0,0.0,0.0,0.0,-0.9999999999999998,0.9663899781345132
6028000000,52,6028000000,bluerov2/dvl_link,-0.023388165849470812,-1.4458364742862355,0.16744961869349279,0.25,0.0,0.0,0.0,0.25,0.0,0.0,0.0,0.25,26.624210357666016,81.0,0.0,0.0,0.0,0,204000000,bluerov2/dvl_sonar0_link,0.0,0.0,0.0,0.0,-0.9999999999999998,0.0,0.9663899781345132,11.816498756408691,0.0,0.0,0.0,0,204000000,bluerov2/dvl_sonar1_link,0.0,0.0,0.0,0.0,0.0,0.9999999999999998,0.9663899781345132,7.325060844421387,0.0,0.0,0.0,0,204000000,bluerov2/dvl_sonar2_link,0.0,0.0,0.0,0.0,0.9999999999999998,0.0,0.9663899781345132,6.355289459228516,0.0,0.0,0.0,0,204000000,bluerov2/dvl_sonar3_link,0.0,0.0,0.0,0.0,0.0,-0.9999999999999998,0.9663899781345132
6140000000,53,6140000000,bluerov2/dvl_link,0.04604932471480593,-1.4794946373190876,0.17181789040256218,0.25,0.0,0.0,0.0,0.25,0.0,0.0,0.0,0.25,26.721622467041016,81.0,0.0,0.0,0.0,0,204000000,bluerov2/dvl_sonar0_link,0.0,0.0,0.0,0.0,-0.9999999999999998,0.0,0.9663899781345132,12.16657829284668,0.0,0.0,0.0,0,204000000,bluerov2/dvl_sonar1_link,0.0,0.0,0.0,0.0,0.0,0.9999999999999998,0.9663899781345132,7.440533638000488,0.0,0.0,0.0,0,204000000,bluerov2/dvl_sonar2_link,0.0,0.0,0.0,0.0,0.9999999999999998,0.0,0.9663899781345132,6.279369831085205,0.0,0.0,0.0,0,204000000,bluerov2/dvl_sonar3_link,0.0,0.0,0.0,0.0,0.0,-0.9999999999999998,0.9663899781345132
6252000000,54,6252000000,bluerov2/dvl_link,0.03653815807776532,-1.5018757700283885,0.1752851692429429,0.25,0.0,0.0,0.0,0.25,0.0,0.0,0.0,0.25,26.730514526367188,81.0,0.0,0.0,0.0,0,204000000,bluerov2/dvl_sonar0_link,0.0,0.0,0.0,0.0,-0.9999999999999998,0.0,0.9663899781345132,12.175822257995605,0.0,0.0,0.0,0,204000000,bluerov2/dvl_sonar1_link,0.0,0.0,0.0,0.0,0.0,0.9999999999999998,0.9663899781345132,7.540988445281982,0.0,0.0,0.0,0,204000000,bluerov2/dvl_sonar2_link,0.0,0.0,0.0,0.0,0.9999999999999998,0.0,0.9663899781345132,6.2052531242370605,0.0,0.0,0.0,0,204000000,bluerov2/dvl_sonar3_link,0.0,0.0,0.0,0.0,0.0,-0.9999999999999998,0.9663899781345132
6364000000,55,6364000000,bluerov2/dvl_link,0.06334008572513246,-1.4760604545899922,0.21731305300113193,0.25,0.0,0.0,0.0,0.25,0.0,0.0,0.0,0.25,26.780855178833008,81.0,0.0,0.0,0.0,0,204000000,bluerov2/dvl_sonar0_link,0.0,0.0,0.0,0.0,-0.9999999999999998,0.0,0.9663899781345132,12.320560455322266,0.0,0.0,0.0,0,204000000,bluerov2/dvl_sonar1_link,0.0,0.0,0.0,0.0,0.0,0.9999999999999998,0.9663899781345132,7.654242038726807,0.0,0.0,0.0,0,204000000,bluerov2/dvl_sonar2_link,0.0,0.0,0.0,0.0,0.9999999999999998,0.0,0.9663899781345132,6.148619174957275,0.0,0.0,0.0,0,204000000,bluerov2/dvl_sonar3_link,0.0,0.0,0.0,0.0,0.0,-0.9999999999999998,0.9663899781345132
6476000000,56,6476000000,bluerov2/dvl_link,0.003425554491231886,-1.5117099045672724,0.2748284091118621,0.25,0.0,0.0,0.0,0.25,0.0,0.0,0.0,0.25,26.79818344116211,81.0,0.0,0.0,0.0,0,204000000,bluerov2/dvl_sonar0_link,0.0,0.0,0.0,0.0,-0.9999999999999998,0.0,0.9663899781345132,12.37689208984375,0.0,0.0,0.0,0,204000000,bluerov2/dvl_sonar1_link,0.0,0.0,0.0,0.0,0.0,0.9999999999999998,0.9663899781345132,7.721386432647705,0.0,0.0,0.0,0,204000000,bluerov2/dvl_sonar2_link,0.0,0.0,0.0,0.0,0.9999999999999998,0.0,0.9663899781345132,6.094455718994141,0.0,0.0,0.0,0,204000000,bluerov2/dvl_sonar3_link,0.0,0.0,0.0,0.0,0.0,-0.9999999999999998,0.9663899781345132
6588000000,57,6588000000,bluerov2/dvl_link,0.04996846809747443,-1.5582145111477705,0.3623227202910759,0.25,0.0,0.0,0.0,0.25,0.0,0.0,0.0,0.25,26.87151527404785,81.0,0.0,0.0,0.0,0,204000000,bluerov2/dvl_sonar0_link,0.0,0.0,0.0,0.0,-0.9999999999999998,0.0,0.9663899781345132,12.807243347167969,0.0,0.0,0.0,0,204000000,bluerov2/dvl_sonar1_link,0.0,0.0,0.0,0.0,0.0,0.9999999999999998,0.9663899781345132,7.6040358543396,0.0,0.0,0.0,0,204000000,bluerov2/dvl_sonar2_link,0.0,0.0,0.0,0.0,0.9999999999999998,0.0,0.9663899781345132,6.0747833251953125,0.0,0.0,0.0,0,204000000,bluerov2/dvl_sonar3_link,0.0,0.0,0.0,0.0,0.0,-0.9999999999999998,0.9663899781345132
6700000000,58,6700000000,bluerov2/dvl_link,-0.019055734068492577,-1.5361372760078458,0.4127860861380667,0.25,0.0,0.0,0.0,0.25,0.0,0.0,0.0,0.25,26.750446319580078,81.0,0.0,0.0,0.0,0,204000000,bluerov2/dvl_sonar0_link,0.0,0.0,0.0,0.0,-0.9999999999999998,0.0,0.9663899781345132,12.45761489868164,0.0,0.0,0.0,0,204000000,bluerov2/dvl_sonar1_link,0.0,0.0,0.0,0.0,0.0,0.9999999999999998,0.9663899781345132,7.500740051269531,0.0,0.0,0.0,0,204000000,bluerov2/dvl_sonar2_link,0.0,0.0,0.0,0.0,0.9999999999999998,0.0,0.9663899781345132,6.04343318939209,0.0,0.0,0.0,0,204000000,bluerov2/dvl_sonar3_link,0.0,0.0,0.0,0.0,0.0,-0.9999999999999998,0.9663899781345132
6812000000,59,6812000000,bluerov2/dvl_link,0.12903869101464682,-1.4716587420150142,0.4756559996534518,0.25,0.0,0.0,0.0,0.25,0.0,0.0,0.0,0.25,26.683149337768555,81.0,0.0,0.0,0.0,0,204000000,bluerov2/dvl_sonar0_link,0.0,0.0,0.0,0.0,-0.9999999999999998,0.0,0.9663899781345132,12.365042686462402,0.0,0.0,0.0,0,204000000,bluerov2/dvl_sonar1_link,0.0,0.0,0.0,0.0,0.0,0.9999999999999998,0.9663899781345132,7.4057512283325195,0.0,0.0,0.0,0,204000000,bluerov2/dvl_sonar2_link,0.0,0.0,0.0,0.0,0.9999999999999998,0.0,0.9663899781345132,5.961799144744873,0.0,0.0,0.0,0,204000000,bluerov2/dvl_sonar3_link,0.0,0.0,0.0,0.0,0.0,-0.9999999999999998,0.9663899781345132
6924000000,60,6924000000,bluerov2/dvl_link,0.08396633370615693,-1.5212697150019823,0.49882161570686134,0.25,0.0,0.0,0.0,0.25,0.0,0.0,0.0,0.25,26.662443161010742,81.0,0.0,0.0,0.0,0,204000000,bluerov2/dvl_sonar0_link,0.0,0.0,0.0,0.0,-0.9999999999999998,0.0,0.9663899781345132,12.425026893615723,0.0,0.0,0.0,0,204000000,bluerov2/dvl_sonar1_link,0.0,0.0,0.0,0.0,0.0,0.9999999999999998,0.9663899781345132,7.314165115356445,0.0,0.0,0.0,0,204000000,bluerov2/dvl_sonar2_link,0.0,0.0,0.0,0.0,0.9999999999999998,0.0,0.9663899781345132,5.910586833953857,0.0,0.0,0.0,0,204000000,bluerov2/dvl_sonar3_link,0.0,0.0,0.0,0.0,0.0,-0.9999999999999998,0.9663899781345132
7036000000,61,7036000000,bluerov2/dvl_link,-0.09445119810028706,-1.5509293421402108,0.3854583522667731,0.25,0.0,0.0,0.0,0.25,0.0,0.0,0.0,0.25,26.65696144104004,81.0,0.0,0.0,0.0,0,204000000,bluerov2/dvl_sonar0_link,0.0,0.0,0.0,0.0,-0.9999999999999998,0.0,0.9663899781345132,12.558752059936523,0.0,0.0,0.0,0,204000000,bluerov2/dvl_sonar1_link,0.0,0.0,0.0,0.0,0.0,0.9999999999999998,0.9663899781345132,7.238820552825928,0.0,0.0,0.0,0,204000000,bluerov2/dvl_sonar2_link,0.0,0.0,0.0,0.0,0.9999999999999998,0.0,0.9663899781345132,5.830267906188965,0.0,0.0,0.0,0,204000000,bluerov2/dvl_sonar3_link,0.0,0.0,0.0,0.0,0.0,-0.9999999999999998,0.9663899781345132
7148000000,62,7148000000,bluerov2/dvl_link,-0.10257972601679578,-1.5409190306186658,0.4676844102110662,0.25,0.0,0.0,0.0,0.25,0.0,0.0,0.0,0.25,26.670433044433594,81.0,0.0,0.0,0.0,0,204000000,bluerov2/dvl_sonar0_link,0.0,0.0,0.0,0.0,-0.9999999999999998,0.0,0.9663899781345132,12.759485244750977,0.0,0.0,0.0,0,204000000,bluerov2/dvl_sonar1_link,0.0,0.0,0.0,0.0,0.0,0.9999999999999998,0.9663899781345132,7.180210113525391,0.0,0.0,0.0,0,204000000,bluerov2/dvl_sonar2_link,0.0,0.0,0.0,0.0,0.9999999999999998,0.0,0.9663899781345132,5.742034435272217,0.0,0.0,0.0,0,204000000,bluerov2/dvl_sonar3_link,0.0,0.0,0.0,0.0,0.0,-0.9999999999999998,0.9663899781345132
7260000000,63,7260000000,bluerov2/dvl_link,-0.1067033219558592,-1.636932484819612,0.30963507680371516,0.25,0.0,0.0,0.0,0.25,0.0,0.0,0.0,0.25,26.722579956054688,81.0,0.0,0.0,0.0,0,204000000,bluerov2/dvl_sonar0_link,0.0,0.0,0.0,0.0,-0.9999999999999998,0.0,0.9663899781345132,13.046171188354492,0.0,0.0,0.0,0,204000000,bluerov2/dvl_sonar1_link,0.0,0.0,0.0,0.0,0.0,0.9999999999999998,0.9663899781345132,7.168560981750488,0.0,0.0,0.0,0,204000000,bluerov2/dvl_sonar2_link,0.0,0.0,0.0,0.0,0.9999999999999998,0.0,0.9663899781345132,5.67558479309082,0.0,0.0,0.0,0,204000000,bluerov2/dvl_sonar3_link,0.0,0.0,0.0,0.0,0.0,-0.9999999999999998,0.9663899781345132
7372000000,64,7372000000,bluerov2/dvl_link,-0.17651152360487088,-1.501415155500484,0.36293031367060175,0.25,0.0,0.0,0.0,0.25,0.0,0.0,0.0,0.25,43.68655014038086,81.0,0.0,0.0,0.0,0,204000000,bluerov2/dvl_sonar0_link,0.0,0.0,0.0,0.0,-0.9999999999999998,0.0,0.9663899781345132,81.0,0.0,0.0,0.0,0,204000000,bluerov2/dvl_sonar1_link,0.0,0.0,0.0,0.0,0.0,0.9999999999999998,0.9663899781345132,7.138124465942383,0.0,0.0,0.0,0,204000000,bluerov2/dvl_sonar2_link,0.0,0.0,0.0,0.0,0.9999999999999998,0.0,0.9663899781345132,5.6080708503723145,0.0,0.0,0.0,0,204000000,bluerov2/dvl_sonar3_link,0.0,0.0,0.0,0.0,0.0,-0.9999999999999998,0.9663899781345132
7484000000,65,7484000000,bluerov2/dvl_link,-0.1954159173505785,-1.5628298393010458,0.2531546930029423,0.25,0.0,0.0,0.0,0.25,0.0,0.0,0.0,0.25,43.689727783203125,81.0,0.0,0.0,0.0,0,204000000,bluerov2/dvl_sonar0_link,0.0,0.0,0.0,0.0,-0.9999999999999998,0.0,0.9663899781345132,81.0,0.0,0.0,0.0,0,204000000,bluerov2/dvl_sonar1_link,0.0,0.0,0.0,0.0,0.0,0.9999999999999998,0.9663899781345132,7.203093528747559,0.0,0.0,0.0,0,204000000,bluerov2/dvl_sonar2_link,0.0,0.0,0.0,0.0,0.9999999999999998,0.0,0.9663899781345132,5.555810451507568,0.0,0.0,0.0,0,204000000,bluerov2/dvl_sonar3_link,0.0,0.0,0.0,0.0,0.0,-0.9999999999999998,0.9663899781345132
7596000000,66,7596000000,bluerov2/dvl_link,-0.12644742542418738,-1.5441518515816097,0.19129047054092044,0.25,0.0,0.0,0.0,0.25,0.0,0.0,0.0,0.25,43.66370391845703,81.0,0.0,0.0,0.0,0,204000000,bluerov2/dvl_sonar0_link,0.0,0.0,0.0,0.0,-0.9999999999999998,0.0,0.9663899781345132,81.0,0.0,0.0,0.0,0,204000000,bluerov2/dvl_sonar1_link,0.0,0.0,0.0,0.0,0.0,0.9999999999999998,0.9663899781345132,7.166381359100342,0.0,0.0,0.0,0,204000000,bluerov2/dvl_sonar2_link,0.0,0.0,0.0,0.0,0.9999999999999998,0.0,0.9663899781345132,5.488438129425049,0.0,0.0,0.0,0,204000000,bluerov2/dvl_sonar3_link,0.0,0.0,0.0,0.0,0.0,-0.9999999999999998,0.9663899781345132
7708000000,67,7708000000,bluerov2/dvl_link,-0.10674941560009524,-1.490483975865024,0.1915678483343764,0.25,0.0,0.0,0.0,0.25,0.0,0.0,0.0,0.25,43.63741683959961,81.0,0.0,0.0,0.0,0,204000000,bluerov2/dvl_sonar0_link,0.0,0.0,0.0,0.0,-0.9999999999999998,0.0,0.9663899781345132,81.0,0.0,0.0,0.0,0,204000000,bluerov2/dvl_sonar1_link,0.0,0.0,0.0,0.0,0.0,0.9999999999999998,0.9663899781345132,7.13700008392334,0.0,0.0,0.0,0,204000000,bluerov2/dvl_sonar2_link,0.0,0.0,0.0,0.0,0.9999999999999998,0.0,0.9663899781345132,5.4126739501953125,0.0,0.0,0.0,0,204000000,bluerov2/dvl_sonar3_link,0.0,0.0,0.0,0.0,0.0,-0.9999999999999998,0.9663899781345132
7820000000,68,7820000000,bluerov2/dvl_link,-0.16704134968434717,-1.456520850635173,0.09561844023637198,0.25,0.0,0.0,0.0,0.25,0.0,0.0,0.0,0.25,43.61669921875,81.0,0.0,0.0,0.0,0,204000000,bluerov2/dvl_sonar0_link,0.0,0.0,0.0,0.0,-0.9999999999999998,0.0,0.9663899781345132,81.0,0.0,0.0,0.0,0,204000000,bluerov2/dvl_sonar1_link,0.0,0.0,0.0,0.0,0.0,0.9999999999999998,0.9663899781345132,7.08732271194458,0.0,0.0,0.0,0,204000000,bluerov2/dvl_sonar2_link,0.0,0.0,0.0,0.0,0.9999999999999998,0.0,0.9663899781345132,5.379477024078369,0.0,0.0,0.0,0,204000000,bluerov2/dvl_sonar3_link,0.0,0.0,0.0,0.0,0.0,-0.9999999999999998,0.9663899781345132
7932000000,69,7932000000,bluerov2/dvl_link,-0.15560434632249504,-1.4377350145601968,0.029903681886515217,0.25,0.0,0.0,0.0,0.25,0.0,0.0,0.0,0.25,43.59843444824219,81.0,0.0,0.0,0.0,0,204000000,bluerov2/dvl_sonar0_link,0.0,0.0,0.0,0.0,-0.9999999999999998,0.0,0.9663899781345132,81.0,0.0,0.0,0.0,0,204000000,bluerov2/dvl_sonar1_link,0.0,0.0,0.0,0.0,0.0,0.9999999999999998,0.9663899781345132,7.075547695159912,0.0,0.0,0.0,0,204000000,bluerov2/dvl_sonar2_link,0.0,0.0,0.0,0.0,0.9999999999999998,0.0,0.9663899781345132,5.318192481994629,0.0,0.0,0.0,0,204000000,bluerov2/dvl_sonar3_link,0.0,0.0,0.0,0.0,0.0,-0.9999999999999998,0.9663899781345132
8044000000,70,8044000000,bluerov2/dvl_link,-0.2890642381875195,-1.5365351883747056,-0.01212017417134311,0.25,0.0,0.0,0.0,0.25,0.0,0.0,0.0,0.25,43.578731536865234,81.0,0.0,0.0,0.0,0,204000000,bluerov2/dvl_sonar0_link,0.0,0.0,0.0,0.0,-0.9999999999999998,0.0,0.9663899781345132,81.0,0.0,0.0,0.0,0,204000000,bluerov2/dvl_sonar1_link,0.0,0.0,0.0,0.0,0.0,0.9999999999999998,0.9663899781345132,7.055838108062744,0.0,0.0,0.0,0,204000000,bluerov2/dvl_sonar2_link,0.0,0.0,0.0,0.0,0.9999999999999998,0.0,0.9663899781345132,5.259099960327148,0.0,0.0,0.0,0,204000000,bluerov2/dvl_sonar3_link,0.0,0.0,0.0,0.0,0.0,-0.9999999999999998,0.9663899781345132
8156000000,71,8156000000,bluerov2/dvl_link,-0.16026639105649676,-1.5059540858440965,0.049064851508237126,0.25,0.0,0.0,0.0,0.25,0.0,0.0,0.0,0.25,43.5529899597168,81.0,0.0,0.0,0.0,0,204000000,bluerov2/dvl_sonar0_link,0.0,0.0,0.0,0.0,-0.9999999999999998,0.0,0.9663899781345132,81.0,0.0,0.0,0.0,0,204000000,bluerov2/dvl_sonar1_link,0.0,0.0,0.0,0.0,0.0,0.9999999999999998,0.9663899781345132,7.015568256378174,0.0,0.0,0.0,0,204000000,bluerov2/dvl_sonar2_link,0.0,0.0,0.0,0.0,0.9999999999999998,0.0,0.9663899781345132,5.1963982582092285,0.0,0.0,0.0,0,204000000,bluerov2/dvl_sonar3_link,0.0,0.0,0.0,0.0,0.0,-0.9999999999999998,0.9663899781345132
8268000000,72,8268000000,bluerov2/dvl_link,-0.2556021050090126,-1.3850560414481934,0.08424131060403524,0.25,0.0,0.0,0.0,0.25,0.0,0.0,0.0,0.25,43.52712631225586,81.0,0.0,0.0,0.0,0,204000000,bluerov2/dvl_sonar0_link,0.0,0.0,0.0,0.0,-0.9999999999999998,0.0,0.9663899781345132,81.0,0.0,0.0,0.0,0,204000000,bluerov2/dvl_sonar1_link,0.0,0.0,0.0,0.0,0.0,0.9999999999999998,0.9663899781345132,6.9792890548706055,0.0,0.0,0.0,0,204000000,bluerov2/dvl_sonar2_link,0.0,0.0,0.0,0.0,0.9999999999999998,0.0,0.9663899781345132,5.129218578338623,0.0,0.0,0.0,0,204000000,bluerov2/dvl_sonar3_link,0.0,0.0,0.0,0.0,0.0,-0.9999999999999998,0.9663899781345132
8380000000,73,8380000000,bluerov2/dvl_link,-0.20909761463518817,-1.4836539302832354,0.00388605629184389,0.25,0.0,0.0,0.0,0.25,0.0,0.0,0.0,0.25,43.504634857177734,81.0,0.0,0.0,0.0,0,204000000,bluerov2/dvl_sonar0_link,0.0,0.0,0.0,0.0,-0.9999999999999998,0.0,0.9663899781345132,81.0,0.0,0.0,0.0,0,204000000,bluerov2/dvl_sonar1_link,0.0,0.0,0.0,0.0,0.0,0.9999999999999998,0.9663899781345132,6.947977066040039,0.0,0.0,0.0,0,204000000,bluerov2/dvl_sonar2_link,0.0,0.0,0.0,0.0,0.9999999999999998,0.0,0.9663899781345132,5.070554256439209,0.0,0.0,0.0,0,204000000,bluerov2/dvl_sonar3_link,0.0,0.0,0.0,0.0,0.0,-0.9999999999999998,0.9663899781345132
8492000000,74,8492000000,bluerov2/dvl_link,-0.2956287605621373,-1.5083435988637768,-0.04679997195588387,0.25,0.0,0.0,0.0,0.25,0.0,0.0,0.0,0.25,43.4844856262207,81.0,0.0,0.0,0.0,0,204000000,bluerov2/dvl_sonar0_link,0.0,0.0,0.0,0.0,-0.9999999999999998,0.0,0.9663899781345132,81.0,0.0,0.0,0.0,0,204000000,bluerov2/dvl_sonar1_link,0.0,0.0,0.0,0.0,0.0,0.9999999999999998,0.9663899781345132,6.923239231109619,0.0,0.0,0.0,0,204000000,bluerov2/dvl_sonar2_link,0.0,0.0,0.0,0.0,0.9999999999999998,0.0,0.9663899781345132,5.014713287353516,0.0,0.0,0.0,0,204000000,bluerov2/dvl_sonar3_link,0.0,0.0,0.0,0.0,0.0,-0.9999999999999998,0.9663899781345132
8604000000,75,8604000000,bluerov2/dvl_link,-0.22728939071039242,-1.430909797081997,-0.08804917899519575,0.25,0.0,0.0,0.0,0.25,0.0,0.0,0.0,0.25,43.45796203613281,81.0,0.0,0.0,0.0,0,204000000,bluerov2/dvl_sonar0_link,0.0,0.0,0.0,0.0,-0.9999999999999998,0.0,0.9663899781345132,81.0,0.0,0.0,0.0,0,204000000,bluerov2/dvl_sonar1_link,0.0,0.0,0.0,0.0,0.0,0.9999999999999998,0.9663899781345132,6.870396614074707,0.0,0.0,0.0,0,204000000,bluerov2/dvl_sonar2_link,0.0,0.0,0.0,0.0,0.9999999999999998,0.0,0.9663899781345132,4.9614577293396,0.0,0.0,0.0,0,204000000,bluerov2/dvl_sonar3_link,0.0,0.0,0.0,0.0,0.0,-0.9999999999999998,0.9663899781345132
8716000000,76,8716000000,bluerov2/dvl_link,-0.19975747539130126,-1.5131765791250325,-0.06896258378688724,0.25,0.0,0.0,0.0,0.25,0.0,0.0,0.0,0.25,43.43756103515625,81.0,0.0,0.0,0.0,0,204000000,bluerov2/dvl_sonar0_link,0.0,0.0,0.0,0.0,-0.9999999999999998,0.0,0.9663899781345132,81.0,0.0,0.0,0.0,0,204000000,bluerov2/dvl_sonar1_link,0.0,0.0,0.0,0.0,0.0,0.9999999999999998,0.9663899781345132,6.845929145812988,0.0,0.0,0.0,0,204000000,bluerov2/dvl_sonar2_link,0.0,0.0,0.0,0.0,0.9999999999999998,0.0,0.9663899781345132,4.904318809509277,0.0,0.0,0.0,0,204000000,bluerov2/dvl_sonar3_link,0.0,0.0,0.0,0.0,0.0,-0.9999999999999998,0.9663899781345132
8828000000,77,8828000000,bluerov2/dvl_link,-0.25503987804298994,-1.5942315597786534,-0.015539857849464066,0.25,0.0,0.0,0.0,0.25,0.0,0.0,0.0,0.25,43.409950256347656,81.0,0.0,0.0,0.0,0,204000000,bluerov2/dvl_sonar0_link,0.0,0.0,0.0,0.0,-0.9999999999999998,0.0,0.9663899781345132,81.0,0.0,0.0,0.0,0,204000000,bluerov2/dvl_sonar1_link,0.0,0.0,0.0,0.0,0.0,0.9999999999999998,0.9663899781345132,6.797918319702148,0.0,0.0,0.0,0,204000000,bluerov2/dvl_sonar2_link,0.0,0.0,0.0,0.0,0.9999999999999998,0.0,0.9663899781345132,4.841893196105957,0.0,0.0,0.0,0,204000000,bluerov2/dvl_sonar3_link,0.0,0.0,0.0,0.0,0.0,-0.9999999999999998,0.9663899781345132
8940000000,78,8940000000,bluerov2/dvl_link,-0.2604755182737381,-1.3537893367927107,-0.05960170566613508,0.25,0.0,0.0,0.0,0.25,0.0,0.0,0.0,0.25,43.058414459228516,81.0,0.0,0.0,0.0,0,204000000,bluerov2/dvl_sonar0_link,0.0,0.0,0.0,0.0,-0.9999999999999998,0.0,0.9663899781345132,79.85887908935547,0.0,0.0,0.0,0,204000000,bluerov2/dvl_sonar1_link,0.0,0.0,0.0,0.0,0.0,0.9999999999999998,0.9663899781345132,6.594125270843506,0.0,0.0,0.0,0,204000000,bluerov2/dvl_sonar2_link,0.0,0.0,0.0,0.0,0.9999999999999998,0.0,0.9663899781345132,4.780637264251709,0.0,0.0,0.0,0,204000000,bluerov2/dvl_sonar3_link,0.0,0.0,0.0,0.0,0.0,-0.9999999999999998,0.9663899781345132
9052000000,79,9052000000,bluerov2/dvl_link,-0.23376167164743183,-1.5040362549674038,-0.10956138705439357,0.25,0.0,0.0,0.0,0.25,0.0,0.0,0.0,0.25,41.95757293701172,81.0,0.0,0.0,0.0,0,204000000,bluerov2/dvl_sonar0_link,0.0,0.0,0.0,0.0,-0.9999999999999998,0.0,0.9663899781345132,75.62276458740234,0.0,0.0,0.0,0,204000000,bluerov2/dvl_sonar1_link,0.0,0.0,0.0,0.0,0.0,0.9999999999999998,0.9663899781345132,6.492400646209717,0.0,0.0,0.0,0,204000000,bluerov2/dvl_sonar2_link,0.0,0.0,0.0,0.0,0.9999999999999998,0.0,0.9663899781345132,4.715120315551758,0.0,0.0,0.0,0,204000000,bluerov2/dvl_sonar3_link,0.0,0.0,0.0,0.0,0.0,-0.9999999999999998,0.9663899781345132
9164000000,80,9164000000,bluerov2/dvl_link,-0.2648597237840584,-1.5041269556955568,-0.15217311862523522,0.25,0.0,0.0,0.0,0.25,0.0,0.0,0.0,0.25,41.03361129760742,81.0,0.0,0.0,0.0,0,204000000,bluerov2/dvl_sonar0_link,0.0,0.0,0.0,0.0,-0.9999999999999998,0.0,0.9663899781345132,72.0168685913086,0.0,0.0,0.0,0,204000000,bluerov2/dvl_sonar1_link,0.0,0.0,0.0,0.0,0.0,0.9999999999999998,0.9663899781345132,6.454687118530273,0.0,0.0,0.0,0,204000000,bluerov2/dvl_sonar2_link,0.0,0.0,0.0,0.0,0.9999999999999998,0.0,0.9663899781345132,4.662887096405029,0.0,0.0,0.0,0,204000000,bluerov2/dvl_sonar3_link,0.0,0.0,0.0,0.0,0.0,-0.9999999999999998,0.9663899781345132
9276000000,81,9276000000,bluerov2/dvl_link,-0.2669157718924009,-1.424011811809296,-0.15798117023240413,0.25,0.0,0.0,0.0,0.25,0.0,0.0,0.0,0.25,40.20574188232422,81.0,0.0,0.0,0.0,0,204000000,bluerov2/dvl_sonar0_link,0.0,0.0,0.0,0.0,-0.9999999999999998,0.0,0.9663899781345132,68.80242919921875,0.0,0.0,0.0,0,204000000,bluerov2/dvl_sonar1_link,0.0,0.0,0.0,0.0,0.0,0.9999999999999998,0.9663899781345132,6.418379306793213,0.0,0.0,0.0,0,204000000,bluerov2/dvl_sonar2_link,0.0,0.0,0.0,0.0,0.9999999999999998,0.0,0.9663899781345132,4.602158069610596,0.0,0.0,0.0,0,204000000,bluerov2/dvl_sonar3_link,0.0,0.0,0.0,0.0,0.0,-0.9999999999999998,0.9663899781345132
9388000000,82,9388000000,bluerov2/dvl_link,-0.33189444076356867,-1.4922531315238243,-0.1779558587476728,0.25,0.0,0.0,0.0,0.25,0.0,0.0,0.0,0.25,39.408329010009766,81.0,0.0,0.0,0.0,0,204000000,bluerov2/dvl_sonar0_link,0.0,0.0,0.0,0.0,-0.9999999999999998,0.0,0.9663899781345132,65.72773742675781,0.0,0.0,0.0,0,204000000,bluerov2/dvl_sonar1_link,0.0,0.0,0.0,0.0,0.0,0.9999999999999998,0.9663899781345132,6.376934051513672,0.0,0.0,0.0,0,204000000,bluerov2/dvl_sonar2_link,0.0,0.0,0.0,0.0,0.9999999999999998,0.0,0.9663899781345132,4.528646469116211,0.0,0.0,0.0,0,204000000,bluerov2/dvl_sonar3_link,0.0,0.0,0.0,0.0,0.0,-0.9999999999999998,0.9663899781345132
9500000000,83,9500000000,bluerov2/dvl_link,-0.2745924427188636,-1.3924138731899038,-0.20804465653044277,0.25,0.0,0.0,0.0,0.25,0.0,0.0,0.0,0.25,38.643306732177734,81.0,0.0,0.0,0.0,0,204000000,bluerov2/dvl_sonar0_link,0.0,0.0,0.0,0.0,-0.9999999999999998,0.0,0.9663899781345132,62.79097366333008,0.0,0.0,0.0,0,204000000,bluerov2/dvl_sonar1_link,0.0,0.0,0.0,0.0,0.0,0.9999999999999998,0.9663899781345132,6.335748195648193,0.0,0.0,0.0,0,204000000,bluerov2/dvl_sonar2_link,0.0,0.0,0.0,0.0,0.9999999999999998,0.0,0.9663899781345132,4.446506977081299,0.0,0.0,0.0,0,204000000,bluerov2/dvl_sonar3_link,0.0,0.0,0.0,0.0,0.0,-0.9999999999999998,0.9663899781345132
9612000000,84,9612000000,bluerov2/dvl_link,-0.18137922033963344,-1.4514032248800002,-0.23439641611014966,0.25,0.0,0.0,0.0,0.25,0.0,0.0,0.0,0.25,37.944244384765625,81.0,0.0,0.0,0.0,0,204000000,bluerov2/dvl_sonar0_link,0.0,0.0,0.0,0.0,-0.9999999999999998,0.0,0.9663899781345132,60.1781120300293,0.0,0.0,0.0,0,204000000,bluerov2/dvl_sonar1_link,0.0,0.0,0.0,0.0,0.0,0.9999999999999998,0.9663899781345132,6.229650497436523,0.0,0.0,0.0,0,204000000,bluerov2/dvl_sonar2_link,0.0,0.0,0.0,0.0,0.9999999999999998,0.0,0.9663899781345132,4.369214057922363,0.0,0.0,0.0,0,204000000,bluerov2/dvl_sonar3_link,0.0,0.0,0.0,0.0,0.0,-0.9999999999999998,0.9663899781345132
9724000000,85,9724000000,bluerov2/dvl_link,-0.2935478940639711,-1.4611414132988354,-0.2977062802755056,0.25,0.0,0.0,0.0,0.25,0.0,0.0,0.0,0.25,37.331539154052734,81.0,0.0,0.0,0.0,0,204000000,bluerov2/dvl_sonar0_link,0.0,0.0,0.0,0.0,-0.9999999999999998,0.0,0.9663899781345132,57.85016632080078,0.0,0.0,0.0,0,204000000,bluerov2/dvl_sonar1_link,0.0,0.0,0.0,0.0,0.0,0.9999999999999998,0.9663899781345132,6.167461395263672,0.0,0.0,0.0,0,204000000,bluerov2/dvl_sonar2_link,0.0,0.0,0.0,0.0,0.9999999999999998,0.0,0.9663899781345132,4.30853271484375,0.0,0.0,0.0,0,204000000,bluerov2/dvl_sonar3_link,0.0,0.0,0.0,0.0,0.0,-0.9999999999999998,0.9663899781345132
9836000000,86,9836000000,bluerov2/dvl_link,-0.25131500213501945,-1.5430119571944205,-0.28241652013211416,0.25,0.0,0.0,0.0,0.25,0.0,0.0,0.0,0.25,36.769065856933594,81.0,0.0,0.0,0.0,0,204000000,bluerov2/dvl_sonar0_link,0.0,0.0,0.0,0.0,-0.9999999999999998,0.0,0.9663899781345132,55.727169036865234,0.0,0.0,0.0,0,204000000,bluerov2/dvl_sonar1_link,0.0,0.0,0.0,0.0,0.0,0.9999999999999998,0.9663899781345132,6.0981855392456055,0.0,0.0,0.0,0,204000000,bluerov2/dvl_sonar2_link,0.0,0.0,0.0,0.0,0.9999999999999998,0.0,0.9663899781345132,4.2509026527404785,0.0,0.0,0.0,0,204000000,bluerov2/dvl_sonar3_link,0.0,0.0,0.0,0.0,0.0,-0.9999999999999998,0.9663899781345132
9948000000,87,9948000000,bluerov2/dvl_link,-0.33623826693259984,-1.465796155382608,-0.3571374728091651,0.25,0.0,0.0,0.0,0.25,0.0,0.0,0.0,0.25,36.19721603393555,81.0,0.0,0.0,0.0,0,204000000,bluerov2/dvl_sonar0_link,0.0,0.0,0.0,0.0,-0.9999999999999998,0.0,0.9663899781345132,53.58424377441406,0.0,0.0,0.0,0,204000000,bluerov2/dvl_sonar1_link,0.0,0.0,0.0,0.0,0.0,0.9999999999999998,0.9663899781345132,6.022050857543945,0.0,0.0,0.0,0,204000000,bluerov2/dvl_sonar2_link,0.0,0.0,0.0,0.0,0.9999999999999998,0.0,0.9663899781345132,4.182570934295654,0.0,0.0,0.0,0,204000000,bluerov2/dvl_sonar3_link,0.0,0.0,0.0,0.0,0.0,-0.9999999999999998,0.9663899781345132
10060000000,88,10060000000,bluerov2/dvl_link,-0.20385733844858506,-1.4725317235625233,-0.3433652731092892,0.25,0.0,0.0,0.0,0.25,0.0,0.0,0.0,0.25,35.785797119140625,81.0,0.0,0.0,0.0,0,204000000,bluerov2/dvl_sonar0_link,0.0,0.0,0.0,0.0,-0.9999999999999998,0.0,0.9663899781345132,51.948551177978516,0.0,0.0,0.0,0,204000000,bluerov2/dvl_sonar1_link,0.0,0.0,0.0,0.0,0.0,0.9999999999999998,0.9663899781345132,6.078944683074951,0.0,0.0,0.0,0,204000000,bluerov2/dvl_sonar2_link,0.0,0.0,0.0,0.0,0.9999999999999998,0.0,0.9663899781345132,4.115686416625977,0.0,0.0,0.0,0,204000000,bluerov2/dvl_sonar3_link,0.0,0.0,0.0,0.0,0.0,-0.9999999999999998,0.9663899781345132
10172000000,89,10172000000,bluerov2/dvl_link,-0.21994152695296643,-1.432862256657575,-0.31258445750048336,0.25,0.0,0.0,0.0,0.25,0.0,0.0,0.0,0.25,35.48174285888672,81.0,0.0,0.0,0.0,0,204000000,bluerov2/dvl_sonar0_link,0.0,0.0,0.0,0.0,-0.9999999999999998,0.0,0.9663899781345132,50.92585754394531,0.0,0.0,0.0,0,204000000,bluerov2/dvl_sonar1_link,0.0,0.0,0.0,0.0,0.0,0.9999999999999998,0.9663899781345132,5.935586452484131,0.0,0.0,0.0,0,204000000,bluerov2/dvl_sonar2_link,0.0,0.0,0.0,0.0,0.9999999999999998,0.0,0.9663899781345132,4.065520286560059,0.0,0.0,0.0,0,204000000,bluerov2/dvl_sonar3_link,0.0,0.0,0.0,0.0,0.0,-0.9999999999999998,0.9663899781345132
10284000000,90,10284000000,bluerov2/dvl_link,-0.3451921911803893,-1.4924680397672452,-0.35068100117323636,0.25,0.0,0.0,0.0,0.25,0.0,0.0,0.0,0.25,35.32804870605469,81.0,0.0,0.0,0.0,0,204000000,bluerov2/dvl_sonar0_link,0.0,0.0,0.0,0.0,-0.9999999999999998,0.0,0.9663899781345132,50.43497085571289,0.0,0.0,0.0,0,204000000,bluerov2/dvl_sonar1_link,0.0,0.0,0.0,0.0,0.0,0.9999999999999998,0.9663899781345132,5.884203910827637,0.0,0.0,0.0,0,204000000,bluerov2/dvl_sonar2_link,0.0,0.0,0.0,0.0,0.9999999999999998,0.0,0.9663899781345132,3.9930262565612793,0.0,0.0,0.0,0,204000000,bluerov2/dvl_sonar3_link,0.0,0.0,0.0,0.0,0.0,-0.9999999999999998,0.9663899781345132
10396000000,91,10396000000,bluerov2/dvl_link,-0.21546386373532933,-1.461315979007827,-0.21400534359270185,0.25,0.0,0.0,0.0,0.25,0.0,0.0,0.0,0.25,35.17081069946289,81.0,0.0,0.0,0.0,0,204000000,bluerov2/dvl_sonar0_link,0.0,0.0,0.0,0.0,-0.9999999999999998,0.0,0.9663899781345132,49.9305305480957,0.0,0.0,0.0,0,204000000,bluerov2/dvl_sonar1_link,0.0,0.0,0.0,0.0,0.0,0.9999999999999998,0.9663899781345132,5.826093673706055,0.0,0.0,0.0,0,204000000,bluerov2/dvl_sonar2_link,0.0,0.0,0.0,0.0,0.9999999999999998,0.0,0.9663899781345132,3.926616668701172,0.0,0.0,0.0,0,204000000,bluerov2/dvl_sonar3_link,0.0,0.0,0.0,0.0,0.0,-0.9999999999999998,0.9663899781345132
10506000000,92,10508000000,bluerov2/dvl_link,-0.11254448507566397,-1.4199836560031998,-0.2553691801969107,0.25,0.0,0.0,0.0,0.25,0.0,0.0,0.0,0.25,34.919837951660156,81.0,0.0,0.0,0.0,0,204000000,bluerov2/dvl_sonar0_link,0.0,0.0,0.0,0.0,-0.9999999999999998,0.0,0.9663899781345132,49.4356575012207,0.0,0.0,0.0,0,204000000,bluerov2/dvl_sonar1_link,0.0,0.0,0.0,0.0,0.0,0.9999999999999998,0.9663899781345132,5.719441890716553,0.0,0.0,0.0,0,204000000,bluerov2/dvl_sonar2_link,0.0,0.0,0.0,0.0,0.9999999999999998,0.0,0.9663899781345132,3.5242550373077393,0.0,0.0,0.0,0,204000000,bluerov2/dvl_sonar3_link,0.0,0.0,0.0,0.0,0.0,-0.9999999999999998,0.9663899781345132
10620000000,93,10620000000,bluerov2/dvl_link,-0.18131940238740285,-1.4612027500963738,-0.26642263987447096,0.25,0.0,0.0,0.0,0.25,0.0,0.0,0.0,0.25,34.790611267089844,81.0,0.0,0.0,0.0,0,204000000,bluerov2/dvl_sonar0_link,0.0,0.0,0.0,0.0,-0.9999999999999998,0.0,0.9663899781345132,49.06739807128906,0.0,0.0,0.0,0,204000000,bluerov2/dvl_sonar1_link,0.0,0.0,0.0,0.0,0.0,0.9999999999999998,0.9663899781345132,5.6394147872924805,0.0,0.0,0.0,0,204000000,bluerov2/dvl_sonar2_link,0.0,0.0,0.0,0.0,0.9999999999999998,0.0,0.9663899781345132,3.4556198120117188,0.0,0.0,0.0,0,204000000,bluerov2/dvl_sonar3_link,0.0,0.0,0.0,0.0,0.0,-0.9999999999999998,0.9663899781345132
10732000000,94,10732000000,bluerov2/dvl_link,-0.2193168832355055,-1.5113888618555824,-0.22396306371037836,0.25,0.0,0.0,0.0,0.25,0.0,0.0,0.0,0.25,34.75558090209961,81.0,0.0,0.0,0.0,0,204000000,bluerov2/dvl_sonar0_link,0.0,0.0,0.0,0.0,-0.9999999999999998,0.0,0.9663899781345132,49.082454681396484,0.0,0.0,0.0,0,204000000,bluerov2/dvl_sonar1_link,0.0,0.0,0.0,0.0,0.0,0.9999999999999998,0.9663899781345132,5.548168182373047,0.0,0.0,0.0,0,204000000,bluerov2/dvl_sonar2_link,0.0,0.0,0.0,0.0,0.9999999999999998,0.0,0.9663899781345132,3.3916890621185303,0.0,0.0,0.0,0,204000000,bluerov2/dvl_sonar3_link,0.0,0.0,0.0,0.0,0.0,-0.9999999999999998,0.9663899781345132
10844000000,95,10844000000,bluerov2/dvl_link,-0.14670226375473877,-1.4608698134340814,-0.0968585153060649,0.25,0.0,0.0,0.0,0.25,0.0,0.0,0.0,0.25,34.782875061035156,81.0,0.0,0.0,0.0,0,204000000,bluerov2/dvl_sonar0_link,0.0,0.0,0.0,0.0,-0.9999999999999998,0.0,0.9663899781345132,49.33986282348633,0.0,0.0,0.0,0,204000000,bluerov2/dvl_sonar1_link,0.0,0.0,0.0,0.0,0.0,0.9999999999999998,0.9663899781345132,5.434719085693359,0.0,0.0,0.0,0,204000000,bluerov2/dvl_sonar2_link,0.0,0.0,0.0,0.0,0.9999999999999998,0.0,0.9663899781345132,3.356912136077881,0.0,0.0,0.0,0,204000000,bluerov2/dvl_sonar3_link,0.0,0.0,0.0,0.0,0.0,-0.9999999999999998,0.9663899781345132
10956000000,96,10956000000,bluerov2/dvl_link,-0.16152329725572276,-1.383148626798345,-0.08500950022855261,0.25,0.0,0.0,0.0,0.25,0.0,0.0,0.0,0.25,34.91572570800781,81.0,0.0,0.0,0.0,0,204000000,bluerov2/dvl_sonar0_link,0.0,0.0,0.0,0.0,-0.9999999999999998,0.0,0.9663899781345132,50.004371643066406,0.0,0.0,0.0,0,204000000,bluerov2/dvl_sonar1_link,0.0,0.0,0.0,0.0,0.0,0.9999999999999998,0.9663899781345132,5.335577964782715,0.0,0.0,0.0,0,204000000,bluerov2/dvl_sonar2_link,0.0,0.0,0.0,0.0,0.9999999999999998,0.0,0.9663899781345132,3.3229618072509766,0.0,0.0,0.0,0,204000000,bluerov2/dvl_sonar3_link,0.0,0.0,0.0,0.0,0.0,-0.9999999999999998,0.9663899781345132
11068000000,97,11068000000,bluerov2/dvl_link,0.023386833797909734,-1.4436633262597225,-0.12988248057195342,0.25,0.0,0.0,0.0,0.25,0.0,0.0,0.0,0.25,35.11452865600586,81.0,0.0,0.0,0.0,0,204000000,bluerov2/dvl_sonar0_link,0.0,0.0,0.0,0.0,-0.9999999999999998,0.0,0.9663899781345132,50.9645881652832,0.0,0.0,0.0,0,204000000,bluerov2/dvl_sonar1_link,0.0,0.0,0.0,0.0,0.0,0.9999999999999998,0.9663899781345132,5.2236857414245605,0.0,0.0,0.0,0,204000000,bluerov2/dvl_sonar2_link,0.0,0.0,0.0,0.0,0.9999999999999998,0.0,0.9663899781345132,3.2698543071746826,0.0,0.0,0.0,0,204000000,bluerov2/dvl_sonar3_link,0.0,0.0,0.0,0.0,0.0,-0.9999999999999998,0.9663899781345132
11180000000,98,11180000000,bluerov2/dvl_link,-0.1412985196530076,-1.4750583558288053,-0.07616100128106776,0.25,0.0,0.0,0.0,0.25,0.0,0.0,0.0,0.25,35.427127838134766,81.0,0.0,0.0,0.0,0,204000000,bluerov2/dvl_sonar0_link,0.0,0.0,0.0,0.0,-0.9999999999999998,0.0,0.9663899781345132,52.36426544189453,0.0,0.0,0.0,0,204000000,bluerov2/dvl_sonar1_link,0.0,0.0,0.0,0.0,0.0,0.9999999999999998,0.9663899781345132,5.130275726318359,0.0,0.0,0.0,0,204000000,bluerov2/dvl_sonar2_link,0.0,0.0,0.0,0.0,0.9999999999999998,0.0,0.9663899781345132,3.2139790058135986,0.0,0.0,0.0,0,204000000,bluerov2/dvl_sonar3_link,0.0,0.0,0.0,0.0,0.0,-0.9999999999999998,0.9663899781345132
11292000000,99,11292000000,bluerov2/dvl_link,-0.11260378198000585,-1.4693163986220403,-0.09571574222190139,0.25,0.0,0.0,0.0,0.25,0.0,0.0,0.0,0.25,35.7930908203125,81.0,0.0,0.0,0.0,0,204000000,bluerov2/dvl_sonar0_link,0.0,0.0,0.0,0.0,-0.9999999999999998,0.0,0.9663899781345132,54.00998306274414,0.0,0.0,0.0,0,204000000,bluerov2/dvl_sonar1_link,0.0,0.0,0.0,0.0,0.0,0.9999999999999998,0.9663899781345132,5.017132759094238,0.0,0.0,0.0,0,204000000,bluerov2/dvl_sonar2_link,0.0,0.0,0.0,0.0,0.9999999999999998,0.0,0.9663899781345132,3.1452438831329346,0.0,0.0,0.0,0,204000000,bluerov2/dvl_sonar3_link,0.0,0.0,0.0,0.0,0.0,-0.9999999999999998,0.9663899781345132
11404000000,100,11404000000,bluerov2/dvl_link,-0.12002150599217803,-1.4814183521487734,-0.1405427621893695,0.25,0.0,0.0,0.0,0.25,0.0,0.0,0.0,0.25,36.1625862121582,81.0,0.0,0.0,0.0,0,204000000,bluerov2/dvl_sonar0_link,0.0,0.0,0.0,0.0,-0.9999999999999998,0.0,0.9663899781345132,55.56193542480469,0.0,0.0,0.0,0,204000000,bluerov2/dvl_sonar1_link,0.0,0.0,0.0,0.0,0.0,0.9999999999999998,0.9663899781345132,4.891091346740723,0.0,0.0,0.0,0,204000000,bluerov2/dvl_sonar2_link,0.0,0.0,0.0,0.0,0.9999999999999998,0.0,0.9663899781345132,3.1973066329956055,0.0,0.0,0.0,0,204000000,bluerov2/dvl_sonar3_link,0.0,0.0,0.0,0.0,0.0,-0.9999999999999998,0.9663899781345132
11516000000,101,11516000000,bluerov2/dvl_link,-0.17620200462311192,-1.508273213105122,0.032019164056263136,0.25,0.0,0.0,0.0,0.25,0.0,0.0,0.0,0.25,36.50148010253906,81.0,0.0,0.0,0.0,0,204000000,bluerov2/dvl_sonar0_link,0.0,0.0,0.0,0.0,-0.9999999999999998,0.0,0.9663899781345132,57.14733123779297,0.0,0.0,0.0,0,204000000,bluerov2/dvl_sonar1_link,0.0,0.0,0.0,0.0,0.0,0.9999999999999998,0.9663899781345132,4.7690205574035645,0.0,0.0,0.0,0,204000000,bluerov2/dvl_sonar2_link,0.0,0.0,0.0,0.0,0.9999999999999998,0.0,0.9663899781345132,3.0895605087280273,0.0,0.0,0.0,0,204000000,bluerov2/dvl_sonar3_link,0.0,0.0,0.0,0.0,0.0,-0.9999999999999998,0.9663899781345132
11628000000,102,11628000000,bluerov2/dvl_link,-0.08706534509669636,-1.5175966665477651,-0.04801858087694253,0.25,0.0,0.0,0.0,0.25,0.0,0.0,0.0,0.25,36.72867202758789,81.0,0.0,0.0,0.0,0,204000000,bluerov2/dvl_sonar0_link,0.0,0.0,0.0,0.0,-0.9999999999999998,0.0,0.9663899781345132,58.68872833251953,0.0,0.0,0.0,0,204000000,bluerov2/dvl_sonar1_link,0.0,0.0,0.0,0.0,0.0,0.9999999999999998,0.9663899781345132,4.646581649780273,0.0,0.0,0.0,0,204000000,bluerov2/dvl_sonar2_link,0.0,0.0,0.0,0.0,0.9999999999999998,0.0,0.9663899781345132,2.5793893337249756,0.0,0.0,0.0,0,204000000,bluerov2/dvl_sonar3_link,0.0,0.0,0.0,0.0,0.0,-0.9999999999999998,0.9663899781345132
11740000000,103,11740000000,bluerov2/dvl_link,-0.08455284834534559,-1.4284344551900128,0.07924045361391255,0.25,0.0,0.0,0.0,0.25,0.0,0.0,0.0,0.25,18.053449630737305,4.890255451202393,0.0,0.0,0.0,0,204000000,bluerov2/dvl_sonar0_link,0.0,0.0,0.0,0.0,-0.9999999999999998,0.0,0.9663899781345132,60.32231903076172,0.0,0.0,0.0,0,204000000,bluerov2/dvl_sonar1_link,0.0,0.0,0.0,0.0,0.0,0.9999999999999998,0.9663899781345132,4.507567405700684,0.0,0.0,0.0,0,204000000,bluerov2/dvl_sonar2_link,0.0,0.0,0.0,0.0,0.9999999999999998,0.0,0.9663899781345132,2.493650197982788,0.0,0.0,0.0,0,204000000,bluerov2/dvl_sonar3_link,0.0,0.0,0.0,0.0,0.0,-0.9999999999999998,0.9663899781345132
11852000000,104,11852000000,bluerov2/dvl_link,-0.06849063457348302,-1.561914280110843,-0.1345950511407572,0.25,0.0,0.0,0.0,0.25,0.0,0.0,0.0,0.25,18.319238662719727,4.685616493225098,0.0,0.0,0.0,0,204000000,bluerov2/dvl_sonar0_link,0.0,0.0,0.0,0.0,-0.9999999999999998,0.0,0.9663899781345132,61.80020523071289,0.0,0.0,0.0,0,204000000,bluerov2/dvl_sonar1_link,0.0,0.0,0.0,0.0,0.0,0.9999999999999998,0.9663899781345132,4.3695149421691895,0.0,0.0,0.0,0,204000000,bluerov2/dvl_sonar2_link,0.0,0.0,0.0,0.0,0.9999999999999998,0.0,0.9663899781345132,2.421613931655884,0.0,0.0,0.0,0,204000000,bluerov2/dvl_sonar3_link,0.0,0.0,0.0,0.0,0.0,-0.9999999999999998,0.9663899781345132
11964000000,105,11964000000,bluerov2/dvl_link,-0.2389178288932497,-1.6075808547649737,-0.03617006486583368,0.25,0.0,0.0,0.0,0.25,0.0,0.0,0.0,0.25,18.56007194519043,4.520212650299072,0.0,0.0,0.0,0,204000000,bluerov2/dvl_sonar0_link,0.0,0.0,0.0,0.0,-0.9999999999999998,0.0,0.9663899781345132,63.130043029785156,0.0,0.0,0.0,0,204000000,bluerov2/dvl_sonar1_link,0.0,0.0,0.0,0.0,0.0,0.9999999999999998,0.9663899781345132,4.24725341796875,0.0,0.0,0.0,0,204000000,bluerov2/dvl_sonar2_link,0.0,0.0,0.0,0.0,0.9999999999999998,0.0,0.9663899781345132,2.342777967453003,0.0,0.0,0.0,0,204000000,bluerov2/dvl_sonar3_link,0.0,0.0,0.0,0.0,0.0,-0.9999999999999998,0.9663899781345132
12076000000,106,12076000000,bluerov2/dvl_link,-0.22748533265851992,-1.5733779718533787,0.05870000723620386,0.25,0.0,0.0,0.0,0.25,0.0,0.0,0.0,0.25,18.407398223876953,3.823019504547119,0.0,0.0,0.0,0,204000000,bluerov2/dvl_sonar0_link,0.0,0.0,0.0,0.0,-0.9999999999999998,0.0,0.9663899781345132,64.50383758544922,0.0,0.0,0.0,0,204000000,bluerov2/dvl_sonar1_link,0.0,0.0,0.0,0.0,0.0,0.9999999999999998,0.9663899781345132,3.038327932357788,0.0,0.0,0.0,0,204000000,bluerov2/dvl_sonar2_link,0.0,0.0,0.0,0.0,0.9999999999999998,0.0,0.9663899781345132,2.264406442642212,0.0,0.0,0.0,0,204000000,bluerov2/dvl_sonar3_link,0.0,0.0,0.0,0.0,0.0,-0.9999999999999998,0.9663899781345132
12188000000,107,12188000000,bluerov2/dvl_link,-0.10132063473234555,-1.4835351060110138,-0.07341548231453184,0.25,0.0,0.0,0.0,0.25,0.0,0.0,0.0,0.25,18.66673469543457,3.6594300270080566,0.0,0.0,0.0,0,204000000,bluerov2/dvl_sonar0_link,0.0,0.0,0.0,0.0,-0.9999999999999998,0.0,0.9663899781345132,65.84972381591797,0.0,0.0,0.0,0,204000000,bluerov2/dvl_sonar1_link,0.0,0.0,0.0,0.0,0.0,0.9999999999999998,0.9663899781345132,2.9466092586517334,0.0,0.0,0.0,0,204000000,bluerov2/dvl_sonar2_link,0.0,0.0,0.0,0.0,0.9999999999999998,0.0,0.9663899781345132,2.211172342300415,0.0,0.0,0.0,0,204000000,bluerov2/dvl_sonar3_link,0.0,0.0,0.0,0.0,0.0,-0.9999999999999998,0.9663899781345132
12300000000,108,12300000000,bluerov2/dvl_link,-0.13905955948542292,-1.5095550919203828,-0.06014799976574135,0.25,0.0,0.0,0.0,0.25,0.0,0.0,0.0,0.25,19.06002426147461,3.579759120941162,0.0,0.0,0.0,0,204000000,bluerov2/dvl_sonar0_link,0.0,0.0,0.0,0.0,-0.9999999999999998,0.0,0.9663899781345132,67.23399353027344,0.0,0.0,0.0,0,204000000,bluerov2/dvl_sonar1_link,0.0,0.0,0.0,0.0,0.0,0.9999999999999998,0.9663899781345132,2.9899415969848633,0.0,0.0,0.0,0,204000000,bluerov2/dvl_sonar2_link,0.0,0.0,0.0,0.0,0.9999999999999998,0.0,0.9663899781345132,2.4363999366760254,0.0,0.0,0.0,0,204000000,bluerov2/dvl_sonar3_link,0.0,0.0,0.0,0.0,0.0,-0.9999999999999998,0.9663899781345132
12412000000,109,12412000000,bluerov2/dvl_link,-0.20029971932220914,-1.5341024697870058,-0.05868514712636133,0.25,0.0,0.0,0.0,0.25,0.0,0.0,0.0,0.25,19.593603134155273,3.580963134765625,0.0,0.0,0.0,0,204000000,bluerov2/dvl_sonar0_link,0.0,0.0,0.0,0.0,-0.9999999999999998,0.0,0.9663899781345132,68.66545867919922,0.0,0.0,0.0,0,204000000,bluerov2/dvl_sonar1_link,0.0,0.0,0.0,0.0,0.0,0.9999999999999998,0.9663899781345132,3.7153210639953613,0.0,0.0,0.0,0,204000000,bluerov2/dvl_sonar2_link,0.0,0.0,0.0,0.0,0.9999999999999998,0.0,0.9663899781345132,2.4126694202423096,0.0,0.0,0.0,0,204000000,bluerov2/dvl_sonar3_link,0.0,0.0,0.0,0.0,0.0,-0.9999999999999998,0.9663899781345132
12524000000,110,12524000000,bluerov2/dvl_link,-0.17169126635821164,-1.5200475547102394,-0.0010272466955916345,0.25,0.0,0.0,0.0,0.25,0.0,0.0,0.0,0.25,19.53748893737793,3.6090424060821533,0.0,0.0,0.0,0,204000000,bluerov2/dvl_sonar0_link,0.0,0.0,0.0,0.0,-0.9999999999999998,0.0,0.9663899781345132,69.76441192626953,0.0,0.0,0.0,0,204000000,bluerov2/dvl_sonar1_link,0.0,0.0,0.0,0.0,0.0,0.9999999999999998,0.9663899781345132,2.445019483566284,0.0,0.0,0.0,0,204000000,bluerov2/dvl_sonar2_link,0.0,0.0,0.0,0.0,0.9999999999999998,0.0,0.9663899781345132,2.3314852714538574,0.0,0.0,0.0,0,204000000,bluerov2/dvl_sonar3_link,0.0,0.0,0.0,0.0,0.0,-0.9999999999999998,0.9663899781345132
12636000000,111,12636000000,bluerov2/dvl_link,-0.20787664478249865,-1.5297727665289436,-0.02259109710522919,0.25,0.0,0.0,0.0,0.25,0.0,0.0,0.0,0.25,19.694232940673828,3.6258273124694824,0.0,0.0,0.0,0,204000000,bluerov2/dvl_sonar0_link,0.0,0.0,0.0,0.0,-0.9999999999999998,0.0,0.9663899781345132,70.5623550415039,0.0,0.0,0.0,0,204000000,bluerov2/dvl_sonar1_link,0.0,0.0,0.0,0.0,0.0,0.9999999999999998,0.9663899781345132,2.3155839443206787,0.0,0.0,0.0,0,204000000,bluerov2/dvl_sonar2_link,0.0,0.0,0.0,0.0,0.9999999999999998,0.0,0.9663899781345132,2.273172616958618,0.0,0.0,0.0,0,204000000,bluerov2/dvl_sonar3_link,0.0,0.0,0.0,0.0,0.0,-0.9999999999999998,0.9663899781345132
12748000000,112,12748000000,bluerov2/dvl_link,-0.1874492167057356,-1.5540949528905086,0.07117920225492844,0.25,0.0,0.0,0.0,0.25,0.0,0.0,0.0,0.25,19.726163864135742,2.9278852939605713,0.0,0.0,0.0,0,204000000,bluerov2/dvl_sonar0_link,0.0,0.0,0.0,0.0,-0.9999999999999998,0.0,0.9663899781345132,71.42792510986328,0.0,0.0,0.0,0,204000000,bluerov2/dvl_sonar1_link,0.0,0.0,0.0,0.0,0.0,0.9999999999999998,0.9663899781345132,2.3376314640045166,0.0,0.0,0.0,0,204000000,bluerov2/dvl_sonar2_link,0.0,0.0,0.0,0.0,0.9999999999999998,0.0,0.9663899781345132,2.2112088203430176,0.0,0.0,0.0,0,204000000,bluerov2/dvl_sonar3_link,0.0,0.0,0.0,0.0,0.0,-0.9999999999999998,0.9663899781345132
12860000000,113,12860000000,bluerov2/dvl_link,-0.2314921419239655,-1.5108985288156391,-0.01092606348832245,0.25,0.0,0.0,0.0,0.25,0.0,0.0,0.0,0.25,19.933300018310547,2.882063150405884,0.0,0.0,0.0,0,204000000,bluerov2/dvl_sonar0_link,0.0,0.0,0.0,0.0,-0.9999999999999998,0.0,0.9663899781345132,72.3338851928711,0.0,0.0,0.0,0,204000000,bluerov2/dvl_sonar1_link,0.0,0.0,0.0,0.0,0.0,0.9999999999999998,0.9663899781345132,2.3748767375946045,0.0,0.0,0.0,0,204000000,bluerov2/dvl_sonar2_link,0.0,0.0,0.0,0.0,0.9999999999999998,0.0,0.9663899781345132,2.1423726081848145,0.0,0.0,0.0,0,204000000,bluerov2/dvl_sonar3_link,0.0,0.0,0.0,0.0,0.0,-0.9999999999999998,0.9663899781345132
12972000000,114,12972000000,bluerov2/dvl_link,-0.22784003942945583,-1.4530323388397182,0.07358853813531499,0.25,0.0,0.0,0.0,0.25,0.0,0.0,0.0,0.25,20.050016403198242,2.834394931793213,0.0,0.0,0.0,0,204000000,bluerov2/dvl_sonar0_link,0.0,0.0,0.0,0.0,-0.9999999999999998,0.0,0.9663899781345132,72.97613525390625,0.0,0.0,0.0,0,204000000,bluerov2/dvl_sonar1_link,0.0,0.0,0.0,0.0,0.0,0.9999999999999998,0.9663899781345132,2.305840492248535,0.0,0.0,0.0,0,204000000,bluerov2/dvl_sonar2_link,0.0,0.0,0.0,0.0,0.9999999999999998,0.0,0.9663899781345132,2.0836918354034424,0.0,0.0,0.0,0,204000000,bluerov2/dvl_sonar3_link,0.0,0.0,0.0,0.0,0.0,-0.9999999999999998,0.9663899781345132
13084000000,115,13084000000,bluerov2/dvl_link,-0.2650004729114427,-1.4123731050827097,-0.01430605412057532,0.25,0.0,0.0,0.0,0.25,0.0,0.0,0.0,0.25,20.240306854248047,2.58178973197937,0.0,0.0,0.0,0,204000000,bluerov2/dvl_sonar0_link,0.0,0.0,0.0,0.0,-0.9999999999999998,0.0,0.9663899781345132,73.32147216796875,0.0,0.0,0.0,0,204000000,bluerov2/dvl_sonar1_link,0.0,0.0,0.0,0.0,0.0,0.9999999999999998,0.9663899781345132,3.0172040462493896,0.0,0.0,0.0,0,204000000,bluerov2/dvl_sonar2_link,0.0,0.0,0.0,0.0,0.9999999999999998,0.0,0.9663899781345132,2.040764331817627,0.0,0.0,0.0,0,204000000,bluerov2/dvl_sonar3_link,0.0,0.0,0.0,0.0,0.0,-0.9999999999999998,0.9663899781345132
13196000000,116,13196000000,bluerov2/dvl_link,-0.21501050303002797,-1.4942327180687855,0.007382334690516773,0.25,0.0,0.0,0.0,0.25,0.0,0.0,0.0,0.25,20.197317123413086,2.4411203861236572,0.0,0.0,0.0,0,204000000,bluerov2/dvl_sonar0_link,0.0,0.0,0.0,0.0,-0.9999999999999998,0.0,0.9663899781345132,73.39460754394531,0.0,0.0,0.0,0,204000000,bluerov2/dvl_sonar1_link,0.0,0.0,0.0,0.0,0.0,0.9999999999999998,0.9663899781345132,2.9028918743133545,0.0,0.0,0.0,0,204000000,bluerov2/dvl_sonar2_link,0.0,0.0,0.0,0.0,0.9999999999999998,0.0,0.9663899781345132,2.0506443977355957,0.0,0.0,0.0,0,204000000,bluerov2/dvl_sonar3_link,0.0,0.0,0.0,0.0,0.0,-0.9999999999999998,0.9663899781345132
