%time,field.header.seq,field.header.stamp,field.header.frame_id,field.velocity.x,field.velocity.y,field.velocity.z,field.velocity_covariance0,field.velocity_covariance1,field.velocity_covariance2,field.velocity_covariance3,field.velocity_covariance4,field.velocity_covariance5,field.velocity_covariance6,field.velocity_covariance7,field.velocity_covariance8,field.altitude,field.beams0.range,field.beams0.range_covariance,field.beams0.velocity,field.beams0.velocity_covariance,field.beams0.pose.header.seq,field.beams0.pose.header.stamp,field.beams0.pose.header.frame_id,field.beams0.pose.pose.position.x,field.beams0.pose.pose.position.y,field.beams0.pose.pose.position.z,field.beams0.pose.pose.orientation.x,field.beams0.pose.pose.orientation.y,field.beams0.pose.pose.orientation.z,field.beams0.pose.pose.orientation.w,field.beams1.range,field.beams1.range_covariance,field.beams1.velocity,field.beams1.velocity_covariance,field.beams1.pose.header.seq,field.beams1.pose.header.stamp,field.beams1.pose.header.frame_id,field.beams1.pose.pose.position.x,field.beams1.pose.pose.position.y,field.beams1.pose.pose.position.z,field.beams1.pose.pose.orientation.x,field.beams1.pose.pose.orientation.y,field.beams1.pose.pose.orientation.z,field.beams1.pose.pose.orientation.w,field.beams2.range,field.beams2.range_covariance,field.beams2.velocity,field.beams2.velocity_covariance,field.beams2.pose.header.seq,field.beams2.pose.header.stamp,field.beams2.pose.header.frame_id,field.beams2.pose.pose.position.x,field.beams2.pose.pose.position.y,field.beams2.pose.pose.position.z,field.beams2.pose.pose.orientation.x,field.beams2.pose.pose.orientation.y,field.beams2.pose.pose.orientation.z,field.beams2.pose.pose.orientation.w,field.beams3.range,field.beams3.range_covariance,field.beams3.velocity,field.beams3.velocity_covariance,field.beams3.pose.header.seq,field.beams3.pose.header.stamp,field.beams3.pose.header.frame_id,field.beams3.pose.pose.position.x,field.beams3.pose.pose.position.y,field.beams3.pose.pose.position.z,field.beams3.pose.pose.orientation.x,field.beams3.pose.pose.orientation.y,field.beams3.pose.pose.orientation.z,field.beams3.pose.pose.orientation.w
3541000000,29,3541000000,bluerov2/dvl_link,0.7621421527172725,-0.9465228984019616,-0.015249283657127482,0.25,0.0,0.0,0.0,0.25,0.0,0.0,0.0,0.25,22.21550941467285,81.0,0.0,0.0,0.0,0,293000000,bluerov2/dvl_sonar0_link,0.0,0.0,0.0,0.0,-0.9999999999999998,0.0,0.9663899781345132,3.201385498046875,0.0,0.0,0.0,0,293000000,bluerov2/dvl_sonar1_link,0.0,0.0,0.0,0.0,0.0,0.9999999999999998,0.9663899781345132,3.8095591068267822,0.0,0.0,0.0,0,293000000,bluerov2/dvl_sonar2_link,0.0,0.0,0.0,0.0,0.9999999999999998,0.0,0.9663899781345132,0.8510879874229431,0.0,0.0,0.0,0,293000000,bluerov2/dvl_sonar3_link,0.0,0.0,0.0,0.0,0.0,-0.9999999999999998,0.9663899781345132
3653000000,30,3653000000,bluerov2/dvl_link,0.9551003097987143,-0.44620291498922726,0.045223394538580694,0.25,0.0,0.0,0.0,0.25,0.0,0.0,0.0,0.25,22.648740768432617,81.0,0.0,0.0,0.0,0,293000000,bluerov2/dvl_sonar0_link,0.0,0.0,0.0,0.0,-0.9999999999999998,0.0,0.9663899781345132,3.551576852798462,0.0,0.0,0.0,0,293000000,bluerov2/dvl_sonar1_link,0.0,0.0,0.0,0.0,0.0,0.9999999999999998,0.9663899781345132,3.809705972671509,0.0,0.0,0.0,0,293000000,bluerov2/dvl_sonar2_link,0.0,0.0,0.0,0.0,0.9999999999999998,0.0,0.9663899781345132,2.23367977142334,0.0,0.0,0.0,0,293000000,bluerov2/dvl_sonar3_link,0.0,0.0,0.0,0.0,0.0,-0.9999999999999998,0.9663899781345132
3765000000,31,3765000000,bluerov2/dvl_link,0.9316313755701784,-0.2212768877954025,-0.01411182983232042,0.25,0.0,0.0,0.0,0.25,0.0,0.0,0.0,0.25,33.29039764404297,81.0,0.0,0.0,0.0,0,293000000,bluerov2/dvl_sonar0_link,0.0,0.0,0.0,0.0,-0.9999999999999998,0.0,0.9663899781345132,3.105999231338501,0.0,0.0,0.0,0,293000000,bluerov2/dvl_sonar1_link,0.0,0.0,0.0,0.0,0.0,0.9999999999999998,0.9663899781345132,3.8121731281280518,0.0,0.0,0.0,0,293000000,bluerov2/dvl_sonar2_link,0.0,0.0,0.0,0.0,0.9999999999999998,0.0,0.9663899781345132,45.24341583251953,0.0,0.0,0.0,0,293000000,bluerov2/dvl_sonar3_link,0.0,0.0,0.0,0.0,0.0,-0.9999999999999998,0.9663899781345132
3877000000,32,3877000000,bluerov2/dvl_link,0.7738326688435281,-0.09464344092505265,-0.025761859076786697,0.25,0.0,0.0,0.0,0.25,0.0,0.0,0.0,0.25,33.29960632324219,81.0,0.0,0.0,0.0,0,293000000,bluerov2/dvl_sonar0_link,0.0,0.0,0.0,0.0,-0.9999999999999998,0.0,0.9663899781345132,1.3040556907653809,0.0,0.0,0.0,0,293000000,bluerov2/dvl_sonar1_link,0.0,0.0,0.0,0.0,0.0,0.9999999999999998,0.9663899781345132,3.816429615020752,0.0,0.0,0.0,0,293000000,bluerov2/dvl_sonar2_link,0.0,0.0,0.0,0.0,0.9999999999999998,0.0,0.9663899781345132,47.077945709228516,0.0,0.0,0.0,0,293000000,bluerov2/dvl_sonar3_link,0.0,0.0,0.0,0.0,0.0,-0.9999999999999998,0.9663899781345132
3989000000,33,3989000000,bluerov2/dvl_link,0.7037414688964705,0.10005669345586941,-0.017782846415054558,0.25,0.0,0.0,0.0,0.25,0.0,0.0,0.0,0.25,32.962730407714844,81.0,0.0,0.0,0.0,0,293000000,bluerov2/dvl_sonar0_link,0.0,0.0,0.0,0.0,-0.9999999999999998,0.0,0.9663899781345132,1.0714893341064453,0.0,0.0,0.0,0,293000000,bluerov2/dvl_sonar1_link,0.0,0.0,0.0,0.0,0.0,0.9999999999999998,0.9663899781345132,3.8068344593048096,0.0,0.0,0.0,0,293000000,bluerov2/dvl_sonar2_link,0.0,0.0,0.0,0.0,0.9999999999999998,0.0,0.9663899781345132,45.97259521484375,0.0,0.0,0.0,0,293000000,bluerov2/dvl_sonar3_link,0.0,0.0,0.0,0.0,0.0,-0.9999999999999998,0.9663899781345132
4101000000,34,4101000000,bluerov2/dvl_link,0.6871081423495776,0.13077204098421152,0.05490321016854095,0.25,0.0,0.0,0.0,0.25,0.0,0.0,0.0,0.25,31.33034896850586,81.0,0.0,0.0,0.0,0,293000000,bluerov2/dvl_sonar0_link,0.0,0.0,0.0,0.0,-0.9999999999999998,0.0,0.9663899781345132,1.096445918083191,0.0,0.0,0.0,0,293000000,bluerov2/dvl_sonar1_link,0.0,0.0,0.0,0.0,0.0,0.9999999999999998,0.9663899781345132,3.80072283744812,0.0,0.0,0.0,0,293000000,bluerov2/dvl_sonar2_link,0.0,0.0,0.0,0.0,0.9999999999999998,0.0,0.9663899781345132,39.42422866821289,0.0,0.0,0.0,0,293000000,bluerov2/dvl_sonar3_link,0.0,0.0,0.0,0.0,0.0,-0.9999999999999998,0.9663899781345132
4213000000,35,4213000000,bluerov2/dvl_link,0.7050749014961194,0.10392674528419835,0.0046498515681302095,0.25,0.0,0.0,0.0,0.25,0.0,0.0,0.0,0.25,30.561819076538086,81.0,0.0,0.0,0.0,0,293000000,bluerov2/dvl_sonar0_link,0.0,0.0,0.0,0.0,-0.9999999999999998,0.0,0.9663899781345132,1.2681723833084106,0.0,0.0,0.0,0,293000000,bluerov2/dvl_sonar1_link,0.0,0.0,0.0,0.0,0.0,0.9999999999999998,0.9663899781345132,3.801454782485962,0.0,0.0,0.0,0,293000000,bluerov2/dvl_sonar2_link,0.0,0.0,0.0,0.0,0.9999999999999998,0.0,0.9663899781345132,36.177650451660156,0.0,0.0,0.0,0,293000000,bluerov2/dvl_sonar3_link,0.0,0.0,0.0,0.0,0.0,-0.9999999999999998,0.9663899781345132
4325000000,36,4325000000,bluerov2/dvl_link,0.578667394327331,0.10835212562481747,-0.004234982124632195,0.25,0.0,0.0,0.0,0.25,0.0,0.0,0.0,0.25,30.49714469909668,81.0,0.0,0.0,0.0,0,293000000,bluerov2/dvl_sonar0_link,0.0,0.0,0.0,0.0,-0.9999999999999998,0.0,0.9663899781345132,2.6323375701904297,0.0,0.0,0.0,0,293000000,bluerov2/dvl_sonar1_link,0.0,0.0,0.0,0.0,0.0,0.9999999999999998,0.9663899781345132,3.813917398452759,0.0,0.0,0.0,0,293000000,bluerov2/dvl_sonar2_link,0.0,0.0,0.0,0.0,0.9999999999999998,0.0,0.9663899781345132,34.542320251464844,0.0,0.0,0.0,0,293000000,bluerov2/dvl_sonar3_link,0.0,0.0,0.0,0.0,0.0,-0.9999999999999998,0.9663899781345132
4437000000,37,4437000000,bluerov2/dvl_link,0.7468129805179069,0.12326850166557965,-0.0169426848364804,0.25,0.0,0.0,0.0,0.25,0.0,0.0,0.0,0.25,31.931716918945312,81.0,0.0,0.0,0.0,0,293000000,bluerov2/dvl_sonar0_link,0.0,0.0,0.0,0.0,-0.9999999999999998,0.0,0.9663899781345132,9.048648834228516,0.0,0.0,0.0,0,293000000,bluerov2/dvl_sonar1_link,0.0,0.0,0.0,0.0,0.0,0.9999999999999998,0.9663899781345132,3.796177387237549,0.0,0.0,0.0,0,293000000,bluerov2/dvl_sonar2_link,0.0,0.0,0.0,0.0,0.9999999999999998,0.0,0.9663899781345132,33.882041931152344,0.0,0.0,0.0,0,293000000,bluerov2/dvl_sonar3_link,0.0,0.0,0.0,0.0,0.0,-0.9999999999999998,0.9663899781345132
4549000000,38,4549000000,bluerov2/dvl_link,0.7489001599779039,0.1876572388868809,-0.029710448729204746,0.25,0.0,0.0,0.0,0.25,0.0,0.0,0.0,0.25,26.912656784057617,81.0,0.0,0.0,0.0,0,293000000,bluerov2/dvl_sonar0_link,0.0,0.0,0.0,0.0,-0.9999999999999998,0.0,0.9663899781345132,8.939690589904785,0.0,0.0,0.0,0,293000000,bluerov2/dvl_sonar1_link,0.0,0.0,0.0,0.0,0.0,0.9999999999999998,0.9663899781345132,3.8031647205352783,0.0,0.0,0.0,0,293000000,bluerov2/dvl_sonar2_link,0.0,0.0,0.0,0.0,0.9999999999999998,0.0,0.9663899781345132,13.9077730178833,0.0,0.0,0.0,0,293000000,bluerov2/dvl_sonar3_link,0.0,0.0,0.0,0.0,0.0,-0.9999999999999998,0.9663899781345132
4661000000,39,4661000000,bluerov2/dvl_link,0.7798961495602739,0.10727353552810784,0.01880269950944058,0.25,0.0,0.0,0.0,0.25,0.0,0.0,0.0,0.25,32.02481460571289,81.0,0.0,0.0,0.0,0,293000000,bluerov2/dvl_sonar0_link,0.0,0.0,0.0,0.0,-0.9999999999999998,0.0,0.9663899781345132,8.54391860961914,0.0,0.0,0.0,0,293000000,bluerov2/dvl_sonar1_link,0.0,0.0,0.0,0.0,0.0,0.9999999999999998,0.9663899781345132,3.8011553287506104,0.0,0.0,0.0,0,293000000,bluerov2/dvl_sonar2_link,0.0,0.0,0.0,0.0,0.9999999999999998,0.0,0.9663899781345132,34.75419235229492,0.0,0.0,0.0,0,293000000,bluerov2/dvl_sonar3_link,0.0,0.0,0.0,0.0,0.0,-0.9999999999999998,0.9663899781345132
4773000000,40,4773000000,bluerov2/dvl_link,0.8074097239336928,0.06325980224451132,0.03508989579787442,0.25,0.0,0.0,0.0,0.25,0.0,0.0,0.0,0.25,32.112850189208984,81.0,0.0,0.0,0.0,0,293000000,bluerov2/dvl_sonar0_link,0.0,0.0,0.0,0.0,-0.9999999999999998,0.0,0.9663899781345132,8.227012634277344,0.0,0.0,0.0,0,293000000,bluerov2/dvl_sonar1_link,0.0,0.0,0.0,0.0,0.0,0.9999999999999998,0.9663899781345132,3.800089120864868,0.0,0.0,0.0,0,293000000,bluerov2/dvl_sonar2_link,0.0,0.0,0.0,0.0,0.9999999999999998,0.0,0.9663899781345132,35.4243049621582,0.0,0.0,0.0,0,293000000,bluerov2/dvl_sonar3_link,0.0,0.0,0.0,0.0,0.0,-0.9999999999999998,0.9663899781345132
4885000000,41,4885000000,bluerov2/dvl_link,0.7588048650099658,0.0838652391505586,0.022835860257863758,0.25,0.0,0.0,0.0,0.25,0.0,0.0,0.0,0.25,32.2122688293457,81.0,0.0,0.0,0.0,0,293000000,bluerov2/dvl_sonar0_link,0.0,0.0,0.0,0.0,-0.9999999999999998,0.0,0.9663899781345132,7.93512487411499,0.0,0.0,0.0,0,293000000,bluerov2/dvl_sonar1_link,0.0,0.0,0.0,0.0,0.0,0.9999999999999998,0.9663899781345132,3.807220458984375,0.0,0.0,0.0,0,293000000,bluerov2/dvl_sonar2_link,0.0,0.0,0.0,0.0,0.9999999999999998,0.0,0.9663899781345132,36.106727600097656,0.0,0.0,0.0,0,293000000,bluerov2/dvl_sonar3_link,0.0,0.0,0.0,0.0,0.0,-0.9999999999999998,0.9663899781345132
4997000000,42,4997000000,bluerov2/dvl_link,0.8118931023740253,0.13672702582298912,0.0056726800244357575,0.25,0.0,0.0,0.0,0.25,0.0,0.0,0.0,0.25,32.30583953857422,81.0,0.0,0.0,0.0,0,293000000,bluerov2/dvl_sonar0_link,0.0,0.0,0.0,0.0,-0.9999999999999998,0.0,0.9663899781345132,7.7046284675598145,0.0,0.0,0.0,0,293000000,bluerov2/dvl_sonar1_link,0.0,0.0,0.0,0.0,0.0,0.9999999999999998,0.9663899781345132,3.8074116706848145,0.0,0.0,0.0,0,293000000,bluerov2/dvl_sonar2_link,0.0,0.0,0.0,0.0,0.9999999999999998,0.0,0.9663899781345132,36.71131896972656,0.0,0.0,0.0,0,293000000,bluerov2/dvl_sonar3_link,0.0,0.0,0.0,0.0,0.0,-0.9999999999999998,0.9663899781345132
5108000000,43,5109000000,bluerov2/dvl_link,0.7916329530265459,0.019998598360279514,-0.04628715445302344,0.25,0.0,0.0,0.0,0.25,0.0,0.0,0.0,0.25,32.402427673339844,81.0,0.0,0.0,0.0,0,293000000,bluerov2/dvl_sonar0_link,0.0,0.0,0.0,0.0,-0.9999999999999998,0.0,0.9663899781345132,7.480246543884277,0.0,0.0,0.0,0,293000000,bluerov2/dvl_sonar1_link,0.0,0.0,0.0,0.0,0.0,0.9999999999999998,0.9663899781345132,3.811704158782959,0.0,0.0,0.0,0,293000000,bluerov2/dvl_sonar2_link,0.0,0.0,0.0,0.0,0.9999999999999998,0.0,0.9663899781345132,37.31775665283203,0.0,0.0,0.0,0,293000000,bluerov2/dvl_sonar3_link,0.0,0.0,0.0,0.0,0.0,-0.9999999999999998,0.9663899781345132
5221000000,44,5221000000,bluerov2/dvl_link,0.9233079787179717,0.07213441713232253,-0.06494048462500361,0.25,0.0,0.0,0.0,0.25,0.0,0.0,0.0,0.25,32.48746109008789,81.0,0.0,0.0,0.0,0,293000000,bluerov2/dvl_sonar0_link,0.0,0.0,0.0,0.0,-0.9999999999999998,0.0,0.9663899781345132,7.325832843780518,0.0,0.0,0.0,0,293000000,bluerov2/dvl_sonar1_link,0.0,0.0,0.0,0.0,0.0,0.9999999999999998,0.9663899781345132,3.8001930713653564,0.0,0.0,0.0,0,293000000,bluerov2/dvl_sonar2_link,0.0,0.0,0.0,0.0,0.9999999999999998,0.0,0.9663899781345132,37.82381057739258,0.0,0.0,0.0,0,293000000,bluerov2/dvl_sonar3_link,0.0,0.0,0.0,0.0,0.0,-0.9999999999999998,0.9663899781345132
5333000000,45,5333000000,bluerov2/dvl_link,0.9408203725536239,0.10762508320198827,-0.07210037849168532,0.25,0.0,0.0,0.0,0.25,0.0,0.0,0.0,0.25,32.56050109863281,81.0,0.0,0.0,0.0,0,293000000,bluerov2/dvl_sonar0_link,0.0,0.0,0.0,0.0,-0.9999999999999998,0.0,0.9663899781345132,7.211758613586426,0.0,0.0,0.0,0,293000000,bluerov2/dvl_sonar1_link,0.0,0.0,0.0,0.0,0.0,0.9999999999999998,0.9663899781345132,3.8073043823242188,0.0,0.0,0.0,0,293000000,bluerov2/dvl_sonar2_link,0.0,0.0,0.0,0.0,0.9999999999999998,0.0,0.9663899781345132,38.222930908203125,0.0,0.0,0.0,0,293000000,bluerov2/dvl_sonar3_link,0.0,0.0,0.0,0.0,0.0,-0.9999999999999998,0.9663899781345132
5445000000,46,5445000000,bluerov2/dvl_link,0.9750224340614451,0.08963893141466966,0.0804854520900577,0.25,0.0,0.0,0.0,0.25,0.0,0.0,0.0,0.25,32.62669372558594,81.0,0.0,0.0,0.0,0,293000000,bluerov2/dvl_sonar0_link,0.0,0.0,0.0,0.0,-0.9999999999999998,0.0,0.9663899781345132,7.106295585632324,0.0,0.0,0.0,0,293000000,bluerov2/dvl_sonar1_link,0.0,0.0,0.0,0.0,0.0,0.9999999999999998,0.9663899781345132,3.8046951293945312,0.0,0.0,0.0,0,293000000,bluerov2/dvl_sonar2_link,0.0,0.0,0.0,0.0,0.9999999999999998,0.0,0.9663899781345132,38.595794677734375,0.0,0.0,0.0,0,293000000,bluerov2/dvl_sonar3_link,0.0,0.0,0.0,0.0,0.0,-0.9999999999999998,0.9663899781345132
5557000000,47,5557000000,bluerov2/dvl_link,1.0217498192019443,0.11707553768455503,-0.005469450130102891,0.25,0.0,0.0,0.0,0.25,0.0,0.0,0.0,0.25,32.6673583984375,81.0,0.0,0.0,0.0,0,293000000,bluerov2/dvl_sonar0_link,0.0,0.0,0.0,0.0,-0.9999999999999998,0.0,0.9663899781345132,7.039897441864014,0.0,0.0,0.0,0,293000000,bluerov2/dvl_sonar1_link,0.0,0.0,0.0,0.0,0.0,0.9999999999999998,0.9663899781345132,3.8025176525115967,0.0,0.0,0.0,0,293000000,bluerov2/dvl_sonar2_link,0.0,0.0,0.0,0.0,0.9999999999999998,0.0,0.9663899781345132,38.8270149230957,0.0,0.0,0.0,0,293000000,bluerov2/dvl_sonar3_link,0.0,0.0,0.0,0.0,0.0,-0.9999999999999998,0.9663899781345132
5669000000,48,5669000000,bluerov2/dvl_link,1.072684630488013,0.09329328044120944,0.0397681855094088,0.25,0.0,0.0,0.0,0.25,0.0,0.0,0.0,0.25,32.70790481567383,81.0,0.0,0.0,0.0,0,293000000,bluerov2/dvl_sonar0_link,0.0,0.0,0.0,0.0,-0.9999999999999998,0.0,0.9663899781345132,6.994498252868652,0.0,0.0,0.0,0,293000000,bluerov2/dvl_sonar1_link,0.0,0.0,0.0,0.0,0.0,0.9999999999999998,0.9663899781345132,3.810534954071045,0.0,0.0,0.0,0,293000000,bluerov2/dvl_sonar2_link,0.0,0.0,0.0,0.0,0.9999999999999998,0.0,0.9663899781345132,39.02659225463867,0.0,0.0,0.0,0,293000000,bluerov2/dvl_sonar3_link,0.0,0.0,0.0,0.0,0.0,-0.9999999999999998,0.9663899781345132
5781000000,49,5781000000,bluerov2/dvl_link,0.993305702205703,0.01826586583150397,-0.08591236151356038,0.25,0.0,0.0,0.0,0.25,0.0,0.0,0.0,0.25,32.743804931640625,81.0,0.0,0.0,0.0,0,293000000,bluerov2/dvl_sonar0_link,0.0,0.0,0.0,0.0,-0.9999999999999998,0.0,0.9663899781345132,6.958053112030029,0.0,0.0,0.0,0,293000000,bluerov2/dvl_sonar1_link,0.0,0.0,0.0,0.0,0.0,0.9999999999999998,0.9663899781345132,3.8032548427581787,0.0,0.0,0.0,0,293000000,bluerov2/dvl_sonar2_link,0.0,0.0,0.0,0.0,0.9999999999999998,0.0,0.9663899781345132,39.21391677856445,0.0,0.0,0.0,0,293000000,bluerov2/dvl_sonar3_link,0.0,0.0,0.0,0.0,0.0,-0.9999999999999998,0.9663899781345132
5893000000,50,5893000000,bluerov2/dvl_link,0.9785761296926005,0.08108392909756747,-0.0017683053011633637,0.25,0.0,0.0,0.0,0.25,0.0,0.0,0.0,0.25,32.78535079956055,81.0,0.0,0.0,0.0,0,293000000,bluerov2/dvl_sonar0_link,0.0,0.0,0.0,0.0,-0.9999999999999998,0.0,0.9663899781345132,6.88860559463501,0.0,0.0,0.0,0,293000000,bluerov2/dvl_sonar1_link,0.0,0.0,0.0,0.0,0.0,0.9999999999999998,0.9663899781345132,3.8113934993743896,0.0,0.0,0.0,0,293000000,bluerov2/dvl_sonar2_link,0.0,0.0,0.0,0.0,0.9999999999999998,0.0,0.9663899781345132,39.44140625,0.0,0.0,0.0,0,293000000,bluerov2/dvl_sonar3_link,0.0,0.0,0.0,0.0,0.0,-0.9999999999999998,0.9663899781345132
6005000000,51,6005000000,bluerov2/dvl_link,1.1182980324628,0.057069883429913974,0.054472489519737474,0.25,0.0,0.0,0.0,0.25,0.0,0.0,0.0,0.25,32.83037185668945,81.0,0.0,0.0,0.0,0,293000000,bluerov2/dvl_sonar0_link,0.0,0.0,0.0,0.0,-0.9999999999999998,0.0,0.9663899781345132,6.838192462921143,0.0,0.0,0.0,0,293000000,bluerov2/dvl_sonar1_link,0.0,0.0,0.0,0.0,0.0,0.9999999999999998,0.9663899781345132,3.8066017627716064,0.0,0.0,0.0,0,293000000,bluerov2/dvl_sonar2_link,0.0,0.0,0.0,0.0,0.9999999999999998,0.0,0.9663899781345132,39.676692962646484,0.0,0.0,0.0,0,293000000,bluerov2/dvl_sonar3_link,0.0,0.0,0.0,0.0,0.0,-0.9999999999999998,0.9663899781345132
6117000000,52,6117000000,bluerov2/dvl_link,1.0475549524878436,0.005585013564496699,-0.0081103117680378,0.25,0.0,0.0,0.0,0.25,0.0,0.0,0.0,0.25,32.8702507019043,81.0,0.0,0.0,0.0,0,293000000,bluerov2/dvl_sonar0_link,0.0,0.0,0.0,0.0,-0.9999999999999998,0.0,0.9663899781345132,6.7878923416137695,0.0,0.0,0.0,0,293000000,bluerov2/dvl_sonar1_link,0.0,0.0,0.0,0.0,0.0,0.9999999999999998,0.9663899781345132,3.801193952560425,0.0,0.0,0.0,0,293000000,bluerov2/dvl_sonar2_link,0.0,0.0,0.0,0.0,0.9999999999999998,0.0,0.9663899781345132,39.891910552978516,0.0,0.0,0.0,0,293000000,bluerov2/dvl_sonar3_link,0.0,0.0,0.0,0.0,0.0,-0.9999999999999998,0.9663899781345132
6229000000,53,6229000000,bluerov2/dvl_link,1.1386630381385987,0.000611791950866275,0.04806887858035682,0.25,0.0,0.0,0.0,0.25,0.0,0.0,0.0,0.25,32.909912109375,81.0,0.0,0.0,0.0,0,293000000,bluerov2/dvl_sonar0_link,0.0,0.0,0.0,0.0,-0.9999999999999998,0.0,0.9663899781345132,6.749475479125977,0.0,0.0,0.0,0,293000000,bluerov2/dvl_sonar1_link,0.0,0.0,0.0,0.0,0.0,0.9999999999999998,0.9663899781345132,3.8038077354431152,0.0,0.0,0.0,0,293000000,bluerov2/dvl_sonar2_link,0.0,0.0,0.0,0.0,0.9999999999999998,0.0,0.9663899781345132,40.086368560791016,0.0,0.0,0.0,0,293000000,bluerov2/dvl_sonar3_link,0.0,0.0,0.0,0.0,0.0,-0.9999999999999998,0.9663899781345132
6341000000,54,6341000000,bluerov2/dvl_link,1.0910976294327266,0.1044260458081366,-0.02449878532816437,0.25,0.0,0.0,0.0,0.25,0.0,0.0,0.0,0.25,32.96258544921875,81.0,0.0,0.0,0.0,0,293000000,bluerov2/dvl_sonar0_link,0.0,0.0,0.0,0.0,-0.9999999999999998,0.0,0.9663899781345132,6.690239429473877,0.0,0.0,0.0,0,293000000,bluerov2/dvl_sonar1_link,0.0,0.0,0.0,0.0,0.0,0.9999999999999998,0.9663899781345132,3.800245523452759,0.0,0.0,0.0,0,293000000,bluerov2/dvl_sonar2_link,0.0,0.0,0.0,0.0,0.9999999999999998,0.0,0.9663899781345132,40.359859466552734,0.0,0.0,0.0,0,293000000,bluerov2/dvl_sonar3_link,0.0,0.0,0.0,0.0,0.0,-0.9999999999999998,0.9663899781345132
6453000000,55,6453000000,bluerov2/dvl_link,1.093241326065269,0.051882289110126,-0.035060064406397744,0.25,0.0,0.0,0.0,0.25,0.0,0.0,0.0,0.25,33.008201599121094,81.0,0.0,0.0,0.0,0,293000000,bluerov2/dvl_sonar0_link,0.0,0.0,0.0,0.0,-0.9999999999999998,0.0,0.9663899781345132,6.647692680358887,0.0,0.0,0.0,0,293000000,bluerov2/dvl_sonar1_link,0.0,0.0,0.0,0.0,0.0,0.9999999999999998,0.9663899781345132,3.8044896125793457,0.0,0.0,0.0,0,293000000,bluerov2/dvl_sonar2_link,0.0,0.0,0.0,0.0,0.9999999999999998,0.0,0.9663899781345132,40.58063507080078,0.0,0.0,0.0,0,293000000,bluerov2/dvl_sonar3_link,0.0,0.0,0.0,0.0,0.0,-0.9999999999999998,0.9663899781345132
6565000000,56,6565000000,bluerov2/dvl_link,0.9923858116072869,0.125162371621229,0.007860857886029249,0.25,0.0,0.0,0.0,0.25,0.0,0.0,0.0,0.25,33.04730224609375,81.0,0.0,0.0,0.0,0,293000000,bluerov2/dvl_sonar0_link,0.0,0.0,0.0,0.0,-0.9999999999999998,0.0,0.9663899781345132,6.592232704162598,0.0,0.0,0.0,0,293000000,bluerov2/dvl_sonar1_link,0.0,0.0,0.0,0.0,0.0,0.9999999999999998,0.9663899781345132,3.803943634033203,0.0,0.0,0.0,0,293000000,bluerov2/dvl_sonar2_link,0.0,0.0,0.0,0.0,0.9999999999999998,0.0,0.9663899781345132,40.79302978515625,0.0,0.0,0.0,0,293000000,bluerov2/dvl_sonar3_link,0.0,0.0,0.0,0.0,0.0,-0.9999999999999998,0.9663899781345132
6677000000,57,6677000000,bluerov2/dvl_link,1.194841329227924,0.04262653616583796,0.0030865709653307054,0.25,0.0,0.0,0.0,0.25,0.0,0.0,0.0,0.25,33.09151077270508,81.0,0.0,0.0,0.0,0,293000000,bluerov2/dvl_sonar0_link,0.0,0.0,0.0,0.0,-0.9999999999999998,0.0,0.9663899781345132,6.5641326904296875,0.0,0.0,0.0,0,293000000,bluerov2/dvl_sonar1_link,0.0,0.0,0.0,0.0,0.0,0.9999999999999998,0.9663899781345132,3.798673629760742,0.0,0.0,0.0,0,293000000,bluerov2/dvl_sonar2_link,0.0,0.0,0.0,0.0,0.9999999999999998,0.0,0.9663899781345132,41.00323486328125,0.0,0.0,0.0,0,293000000,bluerov2/dvl_sonar3_link,0.0,0.0,0.0,0.0,0.0,-0.9999999999999998,0.9663899781345132
6789000000,58,6789000000,bluerov2/dvl_link,1.0889077625859855,0.028817030366341215,0.0005030514677239605,0.25,0.0,0.0,0.0,0.25,0.0,0.0,0.0,0.25,33.12456512451172,81.0,0.0,0.0,0.0,0,293000000,bluerov2/dvl_sonar0_link,0.0,0.0,0.0,0.0,-0.9999999999999998,0.0,0.9663899781345132,6.520370960235596,0.0,0.0,0.0,0,293000000,bluerov2/dvl_sonar1_link,0.0,0.0,0.0,0.0,0.0,0.9999999999999998,0.9663899781345132,3.8064370155334473,0.0,0.0,0.0,0,293000000,bluerov2/dvl_sonar2_link,0.0,0.0,0.0,0.0,0.9999999999999998,0.0,0.9663899781345132,41.17144775390625,0.0,0.0,0.0,0,293000000,bluerov2/dvl_sonar3_link,0.0,0.0,0.0,0.0,0.0,-0.9999999999999998,0.9663899781345132
6901000000,59,6901000000,bluerov2/dvl_link,1.084198911687458,0.012066439897368192,0.023745429779064253,0.25,0.0,0.0,0.0,0.25,0.0,0.0,0.0,0.25,33.13665008544922,81.0,0.0,0.0,0.0,0,293000000,bluerov2/dvl_sonar0_link,0.0,0.0,0.0,0.0,-0.9999999999999998,0.0,0.9663899781345132,6.517095565795898,0.0,0.0,0.0,0,293000000,bluerov2/dvl_sonar1_link,0.0,0.0,0.0,0.0,0.0,0.9999999999999998,0.9663899781345132,3.812246799468994,0.0,0.0,0.0,0,293000000,bluerov2/dvl_sonar2_link,0.0,0.0,0.0,0.0,0.9999999999999998,0.0,0.9663899781345132,41.21725845336914,0.0,0.0,0.0,0,293000000,bluerov2/dvl_sonar3_link,0.0,0.0,0.0,0.0,0.0,-0.9999999999999998,0.9663899781345132
7013000000,60,7013000000,bluerov2/dvl_link,1.0018341434731444,0.17451181964873805,0.00484382860831848,0.25,0.0,0.0,0.0,0.25,0.0,0.0,0.0,0.25,33.14887237548828,81.0,0.0,0.0,0.0,0,293000000,bluerov2/dvl_sonar0_link,0.0,0.0,0.0,0.0,-0.9999999999999998,0.0,0.9663899781345132,6.506557941436768,0.0,0.0,0.0,0,293000000,bluerov2/dvl_sonar1_link,0.0,0.0,0.0,0.0,0.0,0.9999999999999998,0.9663899781345132,3.799283266067505,0.0,0.0,0.0,0,293000000,bluerov2/dvl_sonar2_link,0.0,0.0,0.0,0.0,0.9999999999999998,0.0,0.9663899781345132,41.28963851928711,0.0,0.0,0.0,0,293000000,bluerov2/dvl_sonar3_link,0.0,0.0,0.0,0.0,0.0,-0.9999999999999998,0.9663899781345132
7125000000,61,7125000000,bluerov2/dvl_link,1.1035851819536364,-0.06407508889865127,-0.0735991652680163,0.25,0.0,0.0,0.0,0.25,0.0,0.0,0.0,0.25,33.16425323486328,81.0,0.0,0.0,0.0,0,293000000,bluerov2/dvl_sonar0_link,0.0,0.0,0.0,0.0,-0.9999999999999998,0.0,0.9663899781345132,6.485943794250488,0.0,0.0,0.0,0,293000000,bluerov2/dvl_sonar1_link,0.0,0.0,0.0,0.0,0.0,0.9999999999999998,0.9663899781345132,3.8031368255615234,0.0,0.0,0.0,0,293000000,bluerov2/dvl_sonar2_link,0.0,0.0,0.0,0.0,0.9999999999999998,0.0,0.9663899781345132,41.367923736572266,0.0,0.0,0.0,0,293000000,bluerov2/dvl_sonar3_link,0.0,0.0,0.0,0.0,0.0,-0.9999999999999998,0.9663899781345132
7237000000,62,7237000000,bluerov2/dvl_link,1.0643930345364445,0.07731737219854293,-0.0043669567398496485,0.25,0.0,0.0,0.0,0.25,0.0,0.0,0.0,0.25,33.18458557128906,81.0,0.0,0.0,0.0,0,293000000,bluerov2/dvl_sonar0_link,0.0,0.0,0.0,0.0,-0.9999999999999998,0.0,0.9663899781345132,6.466446876525879,0.0,0.0,0.0,0,293000000,bluerov2/dvl_sonar1_link,0.0,0.0,0.0,0.0,0.0,0.9999999999999998,0.9663899781345132,3.798236846923828,0.0,0.0,0.0,0,293000000,bluerov2/dvl_sonar2_link,0.0,0.0,0.0,0.0,0.9999999999999998,0.0,0.9663899781345132,41.473670959472656,0.0,0.0,0.0,0,293000000,bluerov2/dvl_sonar3_link,0.0,0.0,0.0,0.0,0.0,-0.9999999999999998,0.9663899781345132
7349000000,63,7349000000,bluerov2/dvl_link,0.9284430331141051,0.07912501091938845,0.027081742078766003,0.25,0.0,0.0,0.0,0.25,0.0,0.0,0.0,0.25,33.20946502685547,81.0,0.0,0.0,0.0,0,293000000,bluerov2/dvl_sonar0_link,0.0,0.0,0.0,0.0,-0.9999999999999998,0.0,0.9663899781345132,6.442756175994873,0.0,0.0,0.0,0,293000000,bluerov2/dvl_sonar1_link,0.0,0.0,0.0,0.0,0.0,0.9999999999999998,0.9663899781345132,3.799973726272583,0.0,0.0,0.0,0,293000000,bluerov2/dvl_sonar2_link,0.0,0.0,0.0,0.0,0.9999999999999998,0.0,0.9663899781345132,41.59513473510742,0.0,0.0,0.0,0,293000000,bluerov2/dvl_sonar3_link,0.0,0.0,0.0,0.0,0.0,-0.9999999999999998,0.9663899781345132
7461000000,64,7461000000,bluerov2/dvl_link,1.0366174070988532,0.0758025812438498,-0.017433797448014,0.25,0.0,0.0,0.0,0.25,0.0,0.0,0.0,0.25,33.229061126708984,81.0,0.0,0.0,0.0,0,293000000,bluerov2/dvl_sonar0_link,0.0,0.0,0.0,0.0,-0.9999999999999998,0.0,0.9663899781345132,6.42729377746582,0.0,0.0,0.0,0,293000000,bluerov2/dvl_sonar1_link,0.0,0.0,0.0,0.0,0.0,0.9999999999999998,0.9663899781345132,3.79803729057312,0.0,0.0,0.0,0,293000000,bluerov2/dvl_sonar2_link,0.0,0.0,0.0,0.0,0.9999999999999998,0.0,0.9663899781345132,41.69091796875,0.0,0.0,0.0,0,293000000,bluerov2/dvl_sonar3_link,0.0,0.0,0.0,0.0,0.0,-0.9999999999999998,0.9663899781345132
7573000000,65,7573000000,bluerov2/dvl_link,0.8786613604775925,-0.02082304100725487,-0.034472229366193166,0.25,0.0,0.0,0.0,0.25,0.0,0.0,0.0,0.25,33.25253677368164,81.0,0.0,0.0,0.0,0,293000000,bluerov2/dvl_sonar0_link,0.0,0.0,0.0,0.0,-0.9999999999999998,0.0,0.9663899781345132,6.411376476287842,0.0,0.0,0.0,0,293000000,bluerov2/dvl_sonar1_link,0.0,0.0,0.0,0.0,0.0,0.9999999999999998,0.9663899781345132,3.8066928386688232,0.0,0.0,0.0,0,293000000,bluerov2/dvl_sonar2_link,0.0,0.0,0.0,0.0,0.9999999999999998,0.0,0.9663899781345132,41.79207992553711,0.0,0.0,0.0,0,293000000,bluerov2/dvl_sonar3_link,0.0,0.0,0.0,0.0,0.0,-0.9999999999999998,0.9663899781345132
7685000000,66,7685000000,bluerov2/dvl_link,0.9803931598045125,0.007292671220261421,-0.0006796466750188109,0.25,0.0,0.0,0.0,0.25,0.0,0.0,0.0,0.25,33.26545333862305,81.0,0.0,0.0,0.0,0,293000000,bluerov2/dvl_sonar0_link,0.0,0.0,0.0,0.0,-0.9999999999999998,0.0,0.9663899781345132,6.398026943206787,0.0,0.0,0.0,0,293000000,bluerov2/dvl_sonar1_link,0.0,0.0,0.0,0.0,0.0,0.9999999999999998,0.9663899781345132,3.7972474098205566,0.0,0.0,0.0,0,293000000,bluerov2/dvl_sonar2_link,0.0,0.0,0.0,0.0,0.9999999999999998,0.0,0.9663899781345132,41.86654281616211,0.0,0.0,0.0,0,293000000,bluerov2/dvl_sonar3_link,0.0,0.0,0.0,0.0,0.0,-0.9999999999999998,0.9663899781345132
7797000000,67,7797000000,bluerov2/dvl_link,0.9384571877573518,-0.09083686698521082,-0.04795414474242135,0.25,0.0,0.0,0.0,0.25,0.0,0.0,0.0,0.25,33.276634216308594,81.0,0.0,0.0,0.0,0,293000000,bluerov2/dvl_sonar0_link,0.0,0.0,0.0,0.0,-0.9999999999999998,0.0,0.9663899781345132,6.3882527351379395,0.0,0.0,0.0,0,293000000,bluerov2/dvl_sonar1_link,0.0,0.0,0.0,0.0,0.0,0.9999999999999998,0.9663899781345132,3.8053019046783447,0.0,0.0,0.0,0,293000000,bluerov2/dvl_sonar2_link,0.0,0.0,0.0,0.0,0.9999999999999998,0.0,0.9663899781345132,41.91297912597656,0.0,0.0,0.0,0,293000000,bluerov2/dvl_sonar3_link,0.0,0.0,0.0,0.0,0.0,-0.9999999999999998,0.9663899781345132
7909000000,68,7909000000,bluerov2/dvl_link,1.0079135478398795,0.08007075240850287,0.04308216606659737,0.25,0.0,0.0,0.0,0.25,0.0,0.0,0.0,0.25,33.284568786621094,81.0,0.0,0.0,0.0,0,293000000,bluerov2/dvl_sonar0_link,0.0,0.0,0.0,0.0,-0.9999999999999998,0.0,0.9663899781345132,6.385655879974365,0.0,0.0,0.0,0,293000000,bluerov2/dvl_sonar1_link,0.0,0.0,0.0,0.0,0.0,0.9999999999999998,0.9663899781345132,3.807246685028076,0.0,0.0,0.0,0,293000000,bluerov2/dvl_sonar2_link,0.0,0.0,0.0,0.0,0.9999999999999998,0.0,0.9663899781345132,41.94538116455078,0.0,0.0,0.0,0,293000000,bluerov2/dvl_sonar3_link,0.0,0.0,0.0,0.0,0.0,-0.9999999999999998,0.9663899781345132
8021000000,69,8021000000,bluerov2/dvl_link,0.9627830875478923,0.019401875186321013,-0.034977886137534324,0.25,0.0,0.0,0.0,0.25,0.0,0.0,0.0,0.25,33.29759979248047,81.0,0.0,0.0,0.0,0,293000000,bluerov2/dvl_sonar0_link,0.0,0.0,0.0,0.0,-0.9999999999999998,0.0,0.9663899781345132,6.369753360748291,0.0,0.0,0.0,0,293000000,bluerov2/dvl_sonar1_link,0.0,0.0,0.0,0.0,0.0,0.9999999999999998,0.9663899781345132,3.8016889095306396,0.0,0.0,0.0,0,293000000,bluerov2/dvl_sonar2_link,0.0,0.0,0.0,0.0,0.9999999999999998,0.0,0.9663899781345132,42.018951416015625,0.0,0.0,0.0,0,293000000,bluerov2/dvl_sonar3_link,0.0,0.0,0.0,0.0,0.0,-0.9999999999999998,0.9663899781345132
8133000000,70,8133000000,bluerov2/dvl_link,0.9225320519287765,-0.0020445886675973593,0.013398653454043407,0.25,0.0,0.0,0.0,0.25,0.0,0.0,0.0,0.25,33.315391540527344,81.0,0.0,0.0,0.0,0,293000000,bluerov2/dvl_sonar0_link,0.0,0.0,0.0,0.0,-0.9999999999999998,0.0,0.9663899781345132,6.353122234344482,0.0,0.0,0.0,0,293000000,bluerov2/dvl_sonar1_link,0.0,0.0,0.0,0.0,0.0,0.9999999999999998,0.9663899781345132,3.811187505722046,0.0,0.0,0.0,0,293000000,bluerov2/dvl_sonar2_link,0.0,0.0,0.0,0.0,0.9999999999999998,0.0,0.9663899781345132,42.097259521484375,0.0,0.0,0.0,0,293000000,bluerov2/dvl_sonar3_link,0.0,0.0,0.0,0.0,0.0,-0.9999999999999998,0.9663899781345132
8245000000,71,8245000000,bluerov2/dvl_link,0.9406183029287782,0.014624453479841554,0.06573945923684968,0.25,0.0,0.0,0.0,0.25,0.0,0.0,0.0,0.25,33.31513595581055,81.0,0.0,0.0,0.0,0,293000000,bluerov2/dvl_sonar0_link,0.0,0.0,0.0,0.0,-0.9999999999999998,0.0,0.9663899781345132,6.360456466674805,0.0,0.0,0.0,0,293000000,bluerov2/dvl_sonar1_link,0.0,0.0,0.0,0.0,0.0,0.9999999999999998,0.9663899781345132,3.7992544174194336,0.0,0.0,0.0,0,293000000,bluerov2/dvl_sonar2_link,0.0,0.0,0.0,0.0,0.9999999999999998,0.0,0.9663899781345132,42.100826263427734,0.0,0.0,0.0,0,293000000,bluerov2/dvl_sonar3_link,0.0,0.0,0.0,0.0,0.0,-0.9999999999999998,0.9663899781345132
8357000000,72,8357000000,bluerov2/dvl_link,0.9282789715464257,0.05290726426449592,-0.004288341266206406,0.25,0.0,0.0,0.0,0.25,0.0,0.0,0.0,0.25,33.325096130371094,81.0,0.0,0.0,0.0,0,293000000,bluerov2/dvl_sonar0_link,0.0,0.0,0.0,0.0,-0.9999999999999998,0.0,0.9663899781345132,6.33713960647583,0.0,0.0,0.0,0,293000000,bluerov2/dvl_sonar1_link,0.0,0.0,0.0,0.0,0.0,0.9999999999999998,0.9663899781345132,3.8004891872406006,0.0,0.0,0.0,0,293000000,bluerov2/dvl_sonar2_link,0.0,0.0,0.0,0.0,0.9999999999999998,0.0,0.9663899781345132,42.16274642944336,0.0,0.0,0.0,0,293000000,bluerov2/dvl_sonar3_link,0.0,0.0,0.0,0.0,0.0,-0.9999999999999998,0.9663899781345132
8469000000,73,8469000000,bluerov2/dvl_link,0.9644693114725402,0.06565095981335717,0.0017033035008853182,0.25,0.0,0.0,0.0,0.25,0.0,0.0,0.0,0.25,33.342132568359375,81.0,0.0,0.0,0.0,0,293000000,bluerov2/dvl_sonar0_link,0.0,0.0,0.0,0.0,-0.9999999999999998,0.0,0.9663899781345132,6.329685688018799,0.0,0.0,0.0,0,293000000,bluerov2/dvl_sonar1_link,0.0,0.0,0.0,0.0,0.0,0.9999999999999998,0.9663899781345132,3.794611692428589,0.0,0.0,0.0,0,293000000,bluerov2/dvl_sonar2_link,0.0,0.0,0.0,0.0,0.9999999999999998,0.0,0.9663899781345132,42.244224548339844,0.0,0.0,0.0,0,293000000,bluerov2/dvl_sonar3_link,0.0,0.0,0.0,0.0,0.0,-0.9999999999999998,0.9663899781345132
8581000000,74,8581000000,bluerov2/dvl_link,0.9556002160689018,0.0019837212003096967,0.004951705055070666,0.25,0.0,0.0,0.0,0.25,0.0,0.0,0.0,0.25,33.35763931274414,81.0,0.0,0.0,0.0,0,293000000,bluerov2/dvl_sonar0_link,0.0,0.0,0.0,0.0,-0.9999999999999998,0.0,0.9663899781345132,6.3227715492248535,0.0,0.0,0.0,0,293000000,bluerov2/dvl_sonar1_link,0.0,0.0,0.0,0.0,0.0,0.9999999999999998,0.9663899781345132,3.803903102874756,0.0,0.0,0.0,0,293000000,bluerov2/dvl_sonar2_link,0.0,0.0,0.0,0.0,0.9999999999999998,0.0,0.9663899781345132,42.30388641357422,0.0,0.0,0.0,0,293000000,bluerov2/dvl_sonar3_link,0.0,0.0,0.0,0.0,0.0,-0.9999999999999998,0.9663899781345132
8693000000,75,8693000000,bluerov2/dvl_link,1.0118941094477212,-0.02237240252853584,0.040138089917444005,0.25,0.0,0.0,0.0,0.25,0.0,0.0,0.0,0.25,33.365989685058594,81.0,0.0,0.0,0.0,0,293000000,bluerov2/dvl_sonar0_link,0.0,0.0,0.0,0.0,-0.9999999999999998,0.0,0.9663899781345132,6.31496000289917,0.0,0.0,0.0,0,293000000,bluerov2/dvl_sonar1_link,0.0,0.0,0.0,0.0,0.0,0.9999999999999998,0.9663899781345132,3.810014009475708,0.0,0.0,0.0,0,293000000,bluerov2/dvl_sonar2_link,0.0,0.0,0.0,0.0,0.9999999999999998,0.0,0.9663899781345132,42.33899688720703,0.0,0.0,0.0,0,293000000,bluerov2/dvl_sonar3_link,0.0,0.0,0.0,0.0,0.0,-0.9999999999999998,0.9663899781345132
8805000000,76,8805000000,bluerov2/dvl_link,0.9986857763109537,-0.0018017716660353664,-0.00841408014165411,0.25,0.0,0.0,0.0,0.25,0.0,0.0,0.0,0.25,33.37202835083008,81.0,0.0,0.0,0.0,0,293000000,bluerov2/dvl_sonar0_link,0.0,0.0,0.0,0.0,-0.9999999999999998,0.0,0.9663899781345132,6.312197208404541,0.0,0.0,0.0,0,293000000,bluerov2/dvl_sonar1_link,0.0,0.0,0.0,0.0,0.0,0.9999999999999998,0.9663899781345132,3.803344249725342,0.0,0.0,0.0,0,293000000,bluerov2/dvl_sonar2_link,0.0,0.0,0.0,0.0,0.9999999999999998,0.0,0.9663899781345132,42.37257766723633,0.0,0.0,0.0,0,293000000,bluerov2/dvl_sonar3_link,0.0,0.0,0.0,0.0,0.0,-0.9999999999999998,0.9663899781345132
8917000000,77,8917000000,bluerov2/dvl_link,0.9352017120369052,-0.0370025421856397,-0.013626224696951988,0.25,0.0,0.0,0.0,0.25,0.0,0.0,0.0,0.25,33.37865447998047,81.0,0.0,0.0,0.0,0,293000000,bluerov2/dvl_sonar0_link,0.0,0.0,0.0,0.0,-0.9999999999999998,0.0,0.9663899781345132,6.313258171081543,0.0,0.0,0.0,0,293000000,bluerov2/dvl_sonar1_link,0.0,0.0,0.0,0.0,0.0,0.9999999999999998,0.9663899781345132,3.8051137924194336,0.0,0.0,0.0,0,293000000,bluerov2/dvl_sonar2_link,0.0,0.0,0.0,0.0,0.9999999999999998,0.0,0.9663899781345132,42.3962516784668,0.0,0.0,0.0,0,293000000,bluerov2/dvl_sonar3_link,0.0,0.0,0.0,0.0,0.0,-0.9999999999999998,0.9663899781345132
9029000000,78,9029000000,bluerov2/dvl_link,0.9076636908625664,0.013912893789313485,0.04570972560732277,0.25,0.0,0.0,0.0,0.25,0.0,0.0,0.0,0.25,33.37600326538086,81.0,0.0,0.0,0.0,0,293000000,bluerov2/dvl_sonar0_link,0.0,0.0,0.0,0.0,-0.9999999999999998,0.0,0.9663899781345132,6.313283443450928,0.0,0.0,0.0,0,293000000,bluerov2/dvl_sonar1_link,0.0,0.0,0.0,0.0,0.0,0.9999999999999998,0.9663899781345132,3.8046770095825195,0.0,0.0,0.0,0,293000000,bluerov2/dvl_sonar2_link,0.0,0.0,0.0,0.0,0.9999999999999998,0.0,0.9663899781345132,42.38604736328125,0.0,0.0,0.0,0,293000000,bluerov2/dvl_sonar3_link,0.0,0.0,0.0,0.0,0.0,-0.9999999999999998,0.9663899781345132
9141000000,79,9141000000,bluerov2/dvl_link,1.0544229785062973,0.07339394383535358,0.10176245521669107,0.25,0.0,0.0,0.0,0.25,0.0,0.0,0.0,0.25,33.38083267211914,81.0,0.0,0.0,0.0,0,293000000,bluerov2/dvl_sonar0_link,0.0,0.0,0.0,0.0,-0.9999999999999998,0.0,0.9663899781345132,6.297712326049805,0.0,0.0,0.0,0,293000000,bluerov2/dvl_sonar1_link,0.0,0.0,0.0,0.0,0.0,0.9999999999999998,0.9663899781345132,3.803605556488037,0.0,0.0,0.0,0,293000000,bluerov2/dvl_sonar2_link,0.0,0.0,0.0,0.0,0.9999999999999998,0.0,0.9663899781345132,42.4220085144043,0.0,0.0,0.0,0,293000000,bluerov2/dvl_sonar3_link,0.0,0.0,0.0,0.0,0.0,-0.9999999999999998,0.9663899781345132
9253000000,80,9253000000,bluerov2/dvl_link,1.065490810845714,0.05818480394381197,-0.029870842037224246,0.25,0.0,0.0,0.0,0.25,0.0,0.0,0.0,0.25,33.390724182128906,81.0,0.0,0.0,0.0,0,293000000,bluerov2/dvl_sonar0_link,0.0,0.0,0.0,0.0,-0.9999999999999998,0.0,0.9663899781345132,6.299325942993164,0.0,0.0,0.0,0,293000000,bluerov2/dvl_sonar1_link,0.0,0.0,0.0,0.0,0.0,0.9999999999999998,0.9663899781345132,3.80395770072937,0.0,0.0,0.0,0,293000000,bluerov2/dvl_sonar2_link,0.0,0.0,0.0,0.0,0.9999999999999998,0.0,0.9663899781345132,42.45960998535156,0.0,0.0,0.0,0,293000000,bluerov2/dvl_sonar3_link,0.0,0.0,0.0,0.0,0.0,-0.9999999999999998,0.9663899781345132
9365000000,81,9365000000,bluerov2/dvl_link,1.1166125983138542,-0.018749922836511314,0.0215044165228679,0.25,0.0,0.0,0.0,0.25,0.0,0.0,0.0,0.25,33.39855194091797,81.0,0.0,0.0,0.0,0,293000000,bluerov2/dvl_sonar0_link,0.0,0.0,0.0,0.0,-0.9999999999999998,0.0,0.9663899781345132,6.292450904846191,0.0,0.0,0.0,0,293000000,bluerov2/dvl_sonar1_link,0.0,0.0,0.0,0.0,0.0,0.9999999999999998,0.9663899781345132,3.805666923522949,0.0,0.0,0.0,0,293000000,bluerov2/dvl_sonar2_link,0.0,0.0,0.0,0.0,0.9999999999999998,0.0,0.9663899781345132,42.49608612060547,0.0,0.0,0.0,0,293000000,bluerov2/dvl_sonar3_link,0.0,0.0,0.0,0.0,0.0,-0.9999999999999998,0.9663899781345132
9477000000,82,9477000000,bluerov2/dvl_link,1.026612408392189,0.04698694166347333,-0.08977825033268856,0.25,0.0,0.0,0.0,0.25,0.0,0.0,0.0,0.25,33.40592956542969,81.0,0.0,0.0,0.0,0,293000000,bluerov2/dvl_sonar0_link,0.0,0.0,0.0,0.0,-0.9999999999999998,0.0,0.9663899781345132,6.282672882080078,0.0,0.0,0.0,0,293000000,bluerov2/dvl_sonar1_link,0.0,0.0,0.0,0.0,0.0,0.9999999999999998,0.9663899781345132,3.7989063262939453,0.0,0.0,0.0,0,293000000,bluerov2/dvl_sonar2_link,0.0,0.0,0.0,0.0,0.9999999999999998,0.0,0.9663899781345132,42.54214096069336,0.0,0.0,0.0,0,293000000,bluerov2/dvl_sonar3_link,0.0,0.0,0.0,0.0,0.0,-0.9999999999999998,0.9663899781345132
9589000000,83,9589000000,bluerov2/dvl_link,1.0508688733223517,-0.0072251871036672875,0.009036017076514823,0.25,0.0,0.0,0.0,0.25,0.0,0.0,0.0,0.25,33.422935485839844,81.0,0.0,0.0,0.0,0,293000000,bluerov2/dvl_sonar0_link,0.0,0.0,0.0,0.0,-0.9999999999999998,0.0,0.9663899781345132,6.273187637329102,0.0,0.0,0.0,0,293000000,bluerov2/dvl_sonar1_link,0.0,0.0,0.0,0.0,0.0,0.9999999999999998,0.9663899781345132,3.8036410808563232,0.0,0.0,0.0,0,293000000,bluerov2/dvl_sonar2_link,0.0,0.0,0.0,0.0,0.9999999999999998,0.0,0.9663899781345132,42.614906311035156,0.0,0.0,0.0,0,293000000,bluerov2/dvl_sonar3_link,0.0,0.0,0.0,0.0,0.0,-0.9999999999999998,0.9663899781345132
9701000000,84,9701000000,bluerov2/dvl_link,1.0057522869878897,0.08763852725116408,-0.08552535448462803,0.25,0.0,0.0,0.0,0.25,0.0,0.0,0.0,0.25,33.42506790161133,81.0,0.0,0.0,0.0,0,293000000,bluerov2/dvl_sonar0_link,0.0,0.0,0.0,0.0,-0.9999999999999998,0.0,0.9663899781345132,6.255600929260254,0.0,0.0,0.0,0,293000000,bluerov2/dvl_sonar1_link,0.0,0.0,0.0,0.0,0.0,0.9999999999999998,0.9663899781345132,3.796234607696533,0.0,0.0,0.0,0,293000000,bluerov2/dvl_sonar2_link,0.0,0.0,0.0,0.0,0.9999999999999998,0.0,0.9663899781345132,42.648441314697266,0.0,0.0,0.0,0,293000000,bluerov2/dvl_sonar3_link,0.0,0.0,0.0,0.0,0.0,-0.9999999999999998,0.9663899781345132
9813000000,85,9813000000,bluerov2/dvl_link,0.9657407873175157,0.05988225172377615,0.0777287439161076,0.25,0.0,0.0,0.0,0.25,0.0,0.0,0.0,0.25,33.438377380371094,81.0,0.0,0.0,0.0,0,293000000,bluerov2/dvl_sonar0_link,0.0,0.0,0.0,0.0,-0.9999999999999998,0.0,0.9663899781345132,6.260228157043457,0.0,0.0,0.0,0,293000000,bluerov2/dvl_sonar1_link,0.0,0.0,0.0,0.0,0.0,0.9999999999999998,0.9663899781345132,3.8123719692230225,0.0,0.0,0.0,0,293000000,bluerov2/dvl_sonar2_link,0.0,0.0,0.0,0.0,0.9999999999999998,0.0,0.9663899781345132,42.680904388427734,0.0,0.0,0.0,0,293000000,bluerov2/dvl_sonar3_link,0.0,0.0,0.0,0.0,0.0,-0.9999999999999998,0.9663899781345132
9925000000,86,9925000000,bluerov2/dvl_link,1.0033428025571811,0.047759096819859244,0.023241791793949706,0.25,0.0,0.0,0.0,0.25,0.0,0.0,0.0,0.25,33.447975158691406,81.0,0.0,0.0,0.0,0,293000000,bluerov2/dvl_sonar0_link,0.0,0.0,0.0,0.0,-0.9999999999999998,0.0,0.9663899781345132,6.241985321044922,0.0,0.0,0.0,0,293000000,bluerov2/dvl_sonar1_link,0.0,0.0,0.0,0.0,0.0,0.9999999999999998,0.9663899781345132,3.8068253993988037,0.0,0.0,0.0,0,293000000,bluerov2/dvl_sonar2_link,0.0,0.0,0.0,0.0,0.9999999999999998,0.0,0.9663899781345132,42.74309539794922,0.0,0.0,0.0,0,293000000,bluerov2/dvl_sonar3_link,0.0,0.0,0.0,0.0,0.0,-0.9999999999999998,0.9663899781345132
10037000000,87,10037000000,bluerov2/dvl_link,1.0204626866467594,0.06010527769376567,0.00836906531218998,0.25,0.0,0.0,0.0,0.25,0.0,0.0,0.0,0.25,33.4481201171875,81.0,0.0,0.0,0.0,0,293000000,bluerov2/dvl_sonar0_link,0.0,0.0,0.0,0.0,-0.9999999999999998,0.0,0.9663899781345132,6.245392799377441,0.0,0.0,0.0,0,293000000,bluerov2/dvl_sonar1_link,0.0,0.0,0.0,0.0,0.0,0.9999999999999998,0.9663899781345132,3.8018181324005127,0.0,0.0,0.0,0,293000000,bluerov2/dvl_sonar2_link,0.0,0.0,0.0,0.0,0.9999999999999998,0.0,0.9663899781345132,42.745262145996094,0.0,0.0,0.0,0,293000000,bluerov2/dvl_sonar3_link,0.0,0.0,0.0,0.0,0.0,-0.9999999999999998,0.9663899781345132
10149000000,88,10149000000,bluerov2/dvl_link,1.0987026413346441,0.05023860652378623,-0.0051337605983183526,0.25,0.0,0.0,0.0,0.25,0.0,0.0,0.0,0.25,33.45501708984375,81.0,0.0,0.0,0.0,0,293000000,bluerov2/dvl_sonar0_link,0.0,0.0,0.0,0.0,-0.9999999999999998,0.0,0.9663899781345132,6.23834753036499,0.0,0.0,0.0,0,293000000,bluerov2/dvl_sonar1_link,0.0,0.0,0.0,0.0,0.0,0.9999999999999998,0.9663899781345132,3.799056053161621,0.0,0.0,0.0,0,293000000,bluerov2/dvl_sonar2_link,0.0,0.0,0.0,0.0,0.9999999999999998,0.0,0.9663899781345132,42.78265380859375,0.0,0.0,0.0,0,293000000,bluerov2/dvl_sonar3_link,0.0,0.0,0.0,0.0,0.0,-0.9999999999999998,0.9663899781345132
10261000000,89,10261000000,bluerov2/dvl_link,0.9932554347886653,-0.0005056867881239949,0.11147965674947645,0.25,0.0,0.0,0.0,0.25,0.0,0.0,0.0,0.25,33.461631774902344,81.0,0.0,0.0,0.0,0,293000000,bluerov2/dvl_sonar0_link,0.0,0.0,0.0,0.0,-0.9999999999999998,0.0,0.9663899781345132,6.231287479400635,0.0,0.0,0.0,0,293000000,bluerov2/dvl_sonar1_link,0.0,0.0,0.0,0.0,0.0,0.9999999999999998,0.9663899781345132,3.812897205352783,0.0,0.0,0.0,0,293000000,bluerov2/dvl_sonar2_link,0.0,0.0,0.0,0.0,0.9999999999999998,0.0,0.9663899781345132,42.802337646484375,0.0,0.0,0.0,0,293000000,bluerov2/dvl_sonar3_link,0.0,0.0,0.0,0.0,0.0,-0.9999999999999998,0.9663899781345132
10373000000,90,10373000000,bluerov2/dvl_link,1.0190461217278786,0.03877754680065183,-0.02581639534858913,0.25,0.0,0.0,0.0,0.25,0.0,0.0,0.0,0.25,33.463584899902344,81.0,0.0,0.0,0.0,0,293000000,bluerov2/dvl_sonar0_link,0.0,0.0,0.0,0.0,-0.9999999999999998,0.0,0.9663899781345132,6.238986015319824,0.0,0.0,0.0,0,293000000,bluerov2/dvl_sonar1_link,0.0,0.0,0.0,0.0,0.0,0.9999999999999998,0.9663899781345132,3.811063289642334,0.0,0.0,0.0,0,293000000,bluerov2/dvl_sonar2_link,0.0,0.0,0.0,0.0,0.9999999999999998,0.0,0.9663899781345132,42.804298400878906,0.0,0.0,0.0,0,293000000,bluerov2/dvl_sonar3_link,0.0,0.0,0.0,0.0,0.0,-0.9999999999999998,0.9663899781345132
10485000000,91,10485000000,bluerov2/dvl_link,0.974042361485228,-0.024979578376878885,0.0652820906881562,0.25,0.0,0.0,0.0,0.25,0.0,0.0,0.0,0.25,33.461185455322266,81.0,0.0,0.0,0.0,0,293000000,bluerov2/dvl_sonar0_link,0.0,0.0,0.0,0.0,-0.9999999999999998,0.0,0.9663899781345132,6.233356475830078,0.0,0.0,0.0,0,293000000,bluerov2/dvl_sonar1_link,0.0,0.0,0.0,0.0,0.0,0.9999999999999998,0.9663899781345132,3.798072099685669,0.0,0.0,0.0,0,293000000,bluerov2/dvl_sonar2_link,0.0,0.0,0.0,0.0,0.9999999999999998,0.0,0.9663899781345132,42.813316345214844,0.0,0.0,0.0,0,293000000,bluerov2/dvl_sonar3_link,0.0,0.0,0.0,0.0,0.0,-0.9999999999999998,0.9663899781345132
10597000000,92,10597000000,bluerov2/dvl_link,1.0211637617925196,-0.04914104918246635,-0.04095736001051743,0.25,0.0,0.0,0.0,0.25,0.0,0.0,0.0,0.25,33.469390869140625,81.0,0.0,0.0,0.0,0,293000000,bluerov2/dvl_sonar0_link,0.0,0.0,0.0,0.0,-0.9999999999999998,0.0,0.9663899781345132,6.228395938873291,0.0,0.0,0.0,0,293000000,bluerov2/dvl_sonar1_link,0.0,0.0,0.0,0.0,0.0,0.9999999999999998,0.9663899781345132,3.807404041290283,0.0,0.0,0.0,0,293000000,bluerov2/dvl_sonar2_link,0.0,0.0,0.0,0.0,0.9999999999999998,0.0,0.9663899781345132,42.841766357421875,0.0,0.0,0.0,0,293000000,bluerov2/dvl_sonar3_link,0.0,0.0,0.0,0.0,0.0,-0.9999999999999998,0.9663899781345132
10709000000,93,10709000000,bluerov2/dvl_link,0.9681172897411996,0.05355875130090487,-0.030971223355947125,0.25,0.0,0.0,0.0,0.25,0.0,0.0,0.0,0.25,33.47426223754883,81.0,0.0,0.0,0.0,0,293000000,bluerov2/dvl_sonar0_link,0.0,0.0,0.0,0.0,-0.9999999999999998,0.0,0.9663899781345132,6.215242385864258,0.0,0.0,0.0,0,293000000,bluerov2/dvl_sonar1_link,0.0,0.0,0.0,0.0,0.0,0.9999999999999998,0.9663899781345132,3.802565813064575,0.0,0.0,0.0,0,293000000,bluerov2/dvl_sonar2_link,0.0,0.0,0.0,0.0,0.9999999999999998,0.0,0.9663899781345132,42.87923812866211,0.0,0.0,0.0,0,293000000,bluerov2/dvl_sonar3_link,0.0,0.0,0.0,0.0,0.0,-0.9999999999999998,0.9663899781345132
10821000000,94,10821000000,bluerov2/dvl_link,1.0320000090950239,0.008894173108330034,0.022784392961678113,0.25,0.0,0.0,0.0,0.25,0.0,0.0,0.0,0.25,33.480125427246094,81.0,0.0,0.0,0.0,0,293000000,bluerov2/dvl_sonar0_link,0.0,0.0,0.0,0.0,-0.9999999999999998,0.0,0.9663899781345132,6.224143981933594,0.0,0.0,0.0,0,293000000,bluerov2/dvl_sonar1_link,0.0,0.0,0.0,0.0,0.0,0.9999999999999998,0.9663899781345132,3.8021764755249023,0.0,0.0,0.0,0,293000000,bluerov2/dvl_sonar2_link,0.0,0.0,0.0,0.0,0.9999999999999998,0.0,0.9663899781345132,42.89418029785156,0.0,0.0,0.0,0,293000000,bluerov2/dvl_sonar3_link,0.0,0.0,0.0,0.0,0.0,-0.9999999999999998,0.9663899781345132
10933000000,95,10933000000,bluerov2/dvl_link,0.954573239668177,0.004865052950997642,0.018630963852179203,0.25,0.0,0.0,0.0,0.25,0.0,0.0,0.0,0.25,33.48160934448242,81.0,0.0,0.0,0.0,0,293000000,bluerov2/dvl_sonar0_link,0.0,0.0,0.0,0.0,-0.9999999999999998,0.0,0.9663899781345132,6.210752487182617,0.0,0.0,0.0,0,293000000,bluerov2/dvl_sonar1_link,0.0,0.0,0.0,0.0,0.0,0.9999999999999998,0.9663899781345132,3.812847852706909,0.0,0.0,0.0,0,293000000,bluerov2/dvl_sonar2_link,0.0,0.0,0.0,0.0,0.9999999999999998,0.0,0.9663899781345132,42.902828216552734,0.0,0.0,0.0,0,293000000,bluerov2/dvl_sonar3_link,0.0,0.0,0.0,0.0,0.0,-0.9999999999999998,0.9663899781345132
11045000000,96,11045000000,bluerov2/dvl_link,1.0193014909649145,0.062149183553625136,0.09736725537376512,0.25,0.0,0.0,0.0,0.25,0.0,0.0,0.0,0.25,33.48715591430664,81.0,0.0,0.0,0.0,0,293000000,bluerov2/dvl_sonar0_link,0.0,0.0,0.0,0.0,-0.9999999999999998,0.0,0.9663899781345132,6.210203647613525,0.0,0.0,0.0,0,293000000,bluerov2/dvl_sonar1_link,0.0,0.0,0.0,0.0,0.0,0.9999999999999998,0.9663899781345132,3.806441307067871,0.0,0.0,0.0,0,293000000,bluerov2/dvl_sonar2_link,0.0,0.0,0.0,0.0,0.9999999999999998,0.0,0.9663899781345132,42.931976318359375,0.0,0.0,0.0,0,293000000,bluerov2/dvl_sonar3_link,0.0,0.0,0.0,0.0,0.0,-0.9999999999999998,0.9663899781345132
11157000000,97,11157000000,bluerov2/dvl_link,0.9551023529947299,0.0567691567113788,0.008656602095609927,0.25,0.0,0.0,0.0,0.25,0.0,0.0,0.0,0.25,33.4805793762207,81.0,0.0,0.0,0.0,0,293000000,bluerov2/dvl_sonar0_link,0.0,0.0,0.0,0.0,-0.9999999999999998,0.0,0.9663899781345132,6.213428497314453,0.0,0.0,0.0,0,293000000,bluerov2/dvl_sonar1_link,0.0,0.0,0.0,0.0,0.0,0.9999999999999998,0.9663899781345132,3.812483787536621,0.0,0.0,0.0,0,293000000,bluerov2/dvl_sonar2_link,0.0,0.0,0.0,0.0,0.9999999999999998,0.0,0.9663899781345132,42.89640808105469,0.0,0.0,0.0,0,293000000,bluerov2/dvl_sonar3_link,0.0,0.0,0.0,0.0,0.0,-0.9999999999999998,0.9663899781345132
11269000000,98,11269000000,bluerov2/dvl_link,0.9745885479427369,-0.0118342753366702,-0.025593421171214006,0.25,0.0,0.0,0.0,0.25,0.0,0.0,0.0,0.25,33.44468688964844,81.0,0.0,0.0,0.0,0,293000000,bluerov2/dvl_sonar0_link,0.0,0.0,0.0,0.0,-0.9999999999999998,0.0,0.9663899781345132,6.206898212432861,0.0,0.0,0.0,0,293000000,bluerov2/dvl_sonar1_link,0.0,0.0,0.0,0.0,0.0,0.9999999999999998,0.9663899781345132,3.8015971183776855,0.0,0.0,0.0,0,293000000,bluerov2/dvl_sonar2_link,0.0,0.0,0.0,0.0,0.9999999999999998,0.0,0.9663899781345132,42.77024459838867,0.0,0.0,0.0,0,293000000,bluerov2/dvl_sonar3_link,0.0,0.0,0.0,0.0,0.0,-0.9999999999999998,0.9663899781345132
11381000000,99,11381000000,bluerov2/dvl_link,0.8943394440115948,-0.004468216193232625,0.014023597685876046,0.25,0.0,0.0,0.0,0.25,0.0,0.0,0.0,0.25,33.415489196777344,81.0,0.0,0.0,0.0,0,293000000,bluerov2/dvl_sonar0_link,0.0,0.0,0.0,0.0,-0.9999999999999998,0.0,0.9663899781345132,6.210436820983887,0.0,0.0,0.0,0,293000000,bluerov2/dvl_sonar1_link,0.0,0.0,0.0,0.0,0.0,0.9999999999999998,0.9663899781345132,3.8039345741271973,0.0,0.0,0.0,0,293000000,bluerov2/dvl_sonar2_link,0.0,0.0,0.0,0.0,0.9999999999999998,0.0,0.9663899781345132,42.64759826660156,0.0,0.0,0.0,0,293000000,bluerov2/dvl_sonar3_link,0.0,0.0,0.0,0.0,0.0,-0.9999999999999998,0.9663899781345132
11493000000,100,11493000000,bluerov2/dvl_link,1.000938279696067,0.0275426684516374,0.0304247111525445,0.25,0.0,0.0,0.0,0.25,0.0,0.0,0.0,0.25,33.38508605957031,81.0,0.0,0.0,0.0,0,293000000,bluerov2/dvl_sonar0_link,0.0,0.0,0.0,0.0,-0.9999999999999998,0.0,0.9663899781345132,6.213720321655273,0.0,0.0,0.0,0,293000000,bluerov2/dvl_sonar1_link,0.0,0.0,0.0,0.0,0.0,0.9999999999999998,0.9663899781345132,3.8029208183288574,0.0,0.0,0.0,0,293000000,bluerov2/dvl_sonar2_link,0.0,0.0,0.0,0.0,0.9999999999999998,0.0,0.9663899781345132,42.523712158203125,0.0,0.0,0.0,0,293000000,bluerov2/dvl_sonar3_link,0.0,0.0,0.0,0.0,0.0,-0.9999999999999998,0.9663899781345132
11605000000,101,11605000000,bluerov2/dvl_link,0.9749505019787958,0.04748626031011301,-0.040704789189399175,0.25,0.0,0.0,0.0,0.25,0.0,0.0,0.0,0.25,33.35388946533203,81.0,0.0,0.0,0.0,0,293000000,bluerov2/dvl_sonar0_link,0.0,0.0,0.0,0.0,-0.9999999999999998,0.0,0.9663899781345132,6.21403694152832,0.0,0.0,0.0,0,293000000,bluerov2/dvl_sonar1_link,0.0,0.0,0.0,0.0,0.0,0.9999999999999998,0.9663899781345132,3.800449848175049,0.0,0.0,0.0,0,293000000,bluerov2/dvl_sonar2_link,0.0,0.0,0.0,0.0,0.9999999999999998,0.0,0.9663899781345132,42.40106201171875,0.0,0.0,0.0,0,293000000,bluerov2/dvl_sonar3_link,0.0,0.0,0.0,0.0,0.0,-0.9999999999999998,0.9663899781345132
11717000000,102,11717000000,bluerov2/dvl_link,1.0168459712711533,-0.03432673157645666,-0.039384589671992376,0.25,0.0,0.0,0.0,0.25,0.0,0.0,0.0,0.25,33.32261276245117,81.0,0.0,0.0,0.0,0,293000000,bluerov2/dvl_sonar0_link,0.0,0.0,0.0,0.0,-0.9999999999999998,0.0,0.9663899781345132,6.213287353515625,0.0,0.0,0.0,0,293000000,bluerov2/dvl_sonar1_link,0.0,0.0,0.0,0.0,0.0,0.9999999999999998,0.9663899781345132,3.8123977184295654,0.0,0.0,0.0,0,293000000,bluerov2/dvl_sonar2_link,0.0,0.0,0.0,0.0,0.9999999999999998,0.0,0.9663899781345132,42.26476287841797,0.0,0.0,0.0,0,293000000,bluerov2/dvl_sonar3_link,0.0,0.0,0.0,0.0,0.0,-0.9999999999999998,0.9663899781345132
11829000000,103,11829000000,bluerov2/dvl_link,1.0666207496439912,0.029567855590716764,0.02441067879525041,0.25,0.0,0.0,0.0,0.25,0.0,0.0,0.0,0.25,33.28917694091797,81.0,0.0,0.0,0.0,0,293000000,bluerov2/dvl_sonar0_link,0.0,0.0,0.0,0.0,-0.9999999999999998,0.0,0.9663899781345132,6.214779376983643,0.0,0.0,0.0,0,293000000,bluerov2/dvl_sonar1_link,0.0,0.0,0.0,0.0,0.0,0.9999999999999998,0.9663899781345132,3.807399034500122,0.0,0.0,0.0,0,293000000,bluerov2/dvl_sonar2_link,0.0,0.0,0.0,0.0,0.9999999999999998,0.0,0.9663899781345132,42.134521484375,0.0,0.0,0.0,0,293000000,bluerov2/dvl_sonar3_link,0.0,0.0,0.0,0.0,0.0,-0.9999999999999998,0.9663899781345132
11941000000,104,11941000000,bluerov2/dvl_link,1.0069878051540073,0.13049787983731453,-0.0048629824126378675,0.25,0.0,0.0,0.0,0.25,0.0,0.0,0.0,0.25,33.250282287597656,81.0,0.0,0.0,0.0,0,293000000,bluerov2/dvl_sonar0_link,0.0,0.0,0.0,0.0,-0.9999999999999998,0.0,0.9663899781345132,6.199786186218262,0.0,0.0,0.0,0,293000000,bluerov2/dvl_sonar1_link,0.0,0.0,0.0,0.0,0.0,0.9999999999999998,0.9663899781345132,3.8014659881591797,0.0,0.0,0.0,0,293000000,bluerov2/dvl_sonar2_link,0.0,0.0,0.0,0.0,0.9999999999999998,0.0,0.9663899781345132,41.999874114990234,0.0,0.0,0.0,0,293000000,bluerov2/dvl_sonar3_link,0.0,0.0,0.0,0.0,0.0,-0.9999999999999998,0.9663899781345132
12053000000,105,12053000000,bluerov2/dvl_link,0.9408047889077953,0.0351337111238842,0.02973365713618811,0.25,0.0,0.0,0.0,0.25,0.0,0.0,0.0,0.25,33.214786529541016,81.0,0.0,0.0,0.0,0,293000000,bluerov2/dvl_sonar0_link,0.0,0.0,0.0,0.0,-0.9999999999999998,0.0,0.9663899781345132,6.198971748352051,0.0,0.0,0.0,0,293000000,bluerov2/dvl_sonar1_link,0.0,0.0,0.0,0.0,0.0,0.9999999999999998,0.9663899781345132,3.8014426231384277,0.0,0.0,0.0,0,293000000,bluerov2/dvl_sonar2_link,0.0,0.0,0.0,0.0,0.9999999999999998,0.0,0.9663899781345132,41.85873031616211,0.0,0.0,0.0,0,293000000,bluerov2/dvl_sonar3_link,0.0,0.0,0.0,0.0,0.0,-0.9999999999999998,0.9663899781345132
12165000000,106,12165000000,bluerov2/dvl_link,0.9864811433438969,-0.028810672246120828,0.08522132490005227,0.25,0.0,0.0,0.0,0.25,0.0,0.0,0.0,0.25,33.18276596069336,81.0,0.0,0.0,0.0,0,293000000,bluerov2/dvl_sonar0_link,0.0,0.0,0.0,0.0,-0.9999999999999998,0.0,0.9663899781345132,6.1931843757629395,0.0,0.0,0.0,0,293000000,bluerov2/dvl_sonar1_link,0.0,0.0,0.0,0.0,0.0,0.9999999999999998,0.9663899781345132,3.8027608394622803,0.0,0.0,0.0,0,293000000,bluerov2/dvl_sonar2_link,0.0,0.0,0.0,0.0,0.9999999999999998,0.0,0.9663899781345132,41.7351188659668,0.0,0.0,0.0,0,293000000,bluerov2/dvl_sonar3_link,0.0,0.0,0.0,0.0,0.0,-0.9999999999999998,0.9663899781345132
12277000000,107,12277000000,bluerov2/dvl_link,1.0692628840862317,0.07694798211122848,-0.020618118258312387,0.25,0.0,0.0,0.0,0.25,0.0,0.0,0.0,0.25,33.14601135253906,81.0,0.0,0.0,0.0,0,293000000,bluerov2/dvl_sonar0_link,0.0,0.0,0.0,0.0,-0.9999999999999998,0.0,0.9663899781345132,6.192785263061523,0.0,0.0,0.0,0,293000000,bluerov2/dvl_sonar1_link,0.0,0.0,0.0,0.0,0.0,0.9999999999999998,0.9663899781345132,3.8025600910186768,0.0,0.0,0.0,0,293000000,bluerov2/dvl_sonar2_link,0.0,0.0,0.0,0.0,0.9999999999999998,0.0,0.9663899781345132,41.58869934082031,0.0,0.0,0.0,0,293000000,bluerov2/dvl_sonar3_link,0.0,0.0,0.0,0.0,0.0,-0.9999999999999998,0.9663899781345132
12389000000,108,12389000000,bluerov2/dvl_link,1.050041987938389,0.09635105454478253,-0.05133721380117895,0.25,0.0,0.0,0.0,0.25,0.0,0.0,0.0,0.25,33.11360168457031,81.0,0.0,0.0,0.0,0,293000000,bluerov2/dvl_sonar0_link,0.0,0.0,0.0,0.0,-0.9999999999999998,0.0,0.9663899781345132,6.191032886505127,0.0,0.0,0.0,0,293000000,bluerov2/dvl_sonar1_link,0.0,0.0,0.0,0.0,0.0,0.9999999999999998,0.9663899781345132,3.8029510974884033,0.0,0.0,0.0,0,293000000,bluerov2/dvl_sonar2_link,0.0,0.0,0.0,0.0,0.9999999999999998,0.0,0.9663899781345132,41.46043014526367,0.0,0.0,0.0,0,293000000,bluerov2/dvl_sonar3_link,0.0,0.0,0.0,0.0,0.0,-0.9999999999999998,0.9663899781345132
12501000000,109,12501000000,bluerov2/dvl_link,1.023394391631925,0.0006211468588014166,0.00441281159892822,0.25,0.0,0.0,0.0,0.25,0.0,0.0,0.0,0.25,33.07896423339844,81.0,0.0,0.0,0.0,0,293000000,bluerov2/dvl_sonar0_link,0.0,0.0,0.0,0.0,-0.9999999999999998,0.0,0.9663899781345132,6.187565326690674,0.0,0.0,0.0,0,293000000,bluerov2/dvl_sonar1_link,0.0,0.0,0.0,0.0,0.0,0.9999999999999998,0.9663899781345132,3.807560920715332,0.0,0.0,0.0,0,293000000,bluerov2/dvl_sonar2_link,0.0,0.0,0.0,0.0,0.9999999999999998,0.0,0.9663899781345132,41.320716857910156,0.0,0.0,0.0,0,293000000,bluerov2/dvl_sonar3_link,0.0,0.0,0.0,0.0,0.0,-0.9999999999999998,0.9663899781345132
12613000000,110,12613000000,bluerov2/dvl_link,0.9342969814008106,-0.012480103393995398,0.1174759999093915,0.25,0.0,0.0,0.0,0.25,0.0,0.0,0.0,0.25,33.041595458984375,81.0,0.0,0.0,0.0,0,293000000,bluerov2/dvl_sonar0_link,0.0,0.0,0.0,0.0,-0.9999999999999998,0.0,0.9663899781345132,6.18400239944458,0.0,0.0,0.0,0,293000000,bluerov2/dvl_sonar1_link,0.0,0.0,0.0,0.0,0.0,0.9999999999999998,0.9663899781345132,3.8010547161102295,0.0,0.0,0.0,0,293000000,bluerov2/dvl_sonar2_link,0.0,0.0,0.0,0.0,0.9999999999999998,0.0,0.9663899781345132,41.18132781982422,0.0,0.0,0.0,0,293000000,bluerov2/dvl_sonar3_link,0.0,0.0,0.0,0.0,0.0,-0.9999999999999998,0.9663899781345132
12725000000,111,12725000000,bluerov2/dvl_link,0.9684768298877395,-0.017065570071206505,0.014112529151928144,0.25,0.0,0.0,0.0,0.25,0.0,0.0,0.0,0.25,33.01848602294922,81.0,0.0,0.0,0.0,0,293000000,bluerov2/dvl_sonar0_link,0.0,0.0,0.0,0.0,-0.9999999999999998,0.0,0.9663899781345132,6.18976354598999,0.0,0.0,0.0,0,293000000,bluerov2/dvl_sonar1_link,0.0,0.0,0.0,0.0,0.0,0.9999999999999998,0.9663899781345132,3.803845167160034,0.0,0.0,0.0,0,293000000,bluerov2/dvl_sonar2_link,0.0,0.0,0.0,0.0,0.9999999999999998,0.0,0.9663899781345132,41.08033752441406,0.0,0.0,0.0,0,293000000,bluerov2/dvl_sonar3_link,0.0,0.0,0.0,0.0,0.0,-0.9999999999999998,0.9663899781345132
12836000000,112,12837000000,bluerov2/dvl_link,1.051096194403226,0.04010619031273779,-0.013558776248351619,0.25,0.0,0.0,0.0,0.25,0.0,0.0,0.0,0.25,32.98987579345703,81.0,0.0,0.0,0.0,0,293000000,bluerov2/dvl_sonar0_link,0.0,0.0,0.0,0.0,-0.9999999999999998,0.0,0.9663899781345132,6.198328018188477,0.0,0.0,0.0,0,293000000,bluerov2/dvl_sonar1_link,0.0,0.0,0.0,0.0,0.0,0.9999999999999998,0.9663899781345132,3.8002357482910156,0.0,0.0,0.0,0,293000000,bluerov2/dvl_sonar2_link,0.0,0.0,0.0,0.0,0.9999999999999998,0.0,0.9663899781345132,40.96092987060547,0.0,0.0,0.0,0,293000000,bluerov2/dvl_sonar3_link,0.0,0.0,0.0,0.0,0.0,-0.9999999999999998,0.9663899781345132
12949000000,113,12949000000,bluerov2/dvl_link,1.0226827206145543,-0.001076931926249105,-0.08048742767674932,0.25,0.0,0.0,0.0,0.25,0.0,0.0,0.0,0.25,32.95828628540039,81.0,0.0,0.0,0.0,0,293000000,bluerov2/dvl_sonar0_link,0.0,0.0,0.0,0.0,-0.9999999999999998,0.0,0.9663899781345132,6.196757793426514,0.0,0.0,0.0,0,293000000,bluerov2/dvl_sonar1_link,0.0,0.0,0.0,0.0,0.0,0.9999999999999998,0.9663899781345132,3.8002846240997314,0.0,0.0,0.0,0,293000000,bluerov2/dvl_sonar2_link,0.0,0.0,0.0,0.0,0.9999999999999998,0.0,0.9663899781345132,40.83610153198242,0.0,0.0,0.0,0,293000000,bluerov2/dvl_sonar3_link,0.0,0.0,0.0,0.0,0.0,-0.9999999999999998,0.9663899781345132
13061000000,114,13061000000,bluerov2/dvl_link,1.0224909213410533,0.03997159552074165,0.0008246671216440467,0.25,0.0,0.0,0.0,0.25,0.0,0.0,0.0,0.25,32.92634963989258,81.0,0.0,0.0,0.0,0,293000000,bluerov2/dvl_sonar0_link,0.0,0.0,0.0,0.0,-0.9999999999999998,0.0,0.9663899781345132,6.191730499267578,0.0,0.0,0.0,0,293000000,bluerov2/dvl_sonar1_link,0.0,0.0,0.0,0.0,0.0,0.9999999999999998,0.9663899781345132,3.8000681400299072,0.0,0.0,0.0,0,293000000,bluerov2/dvl_sonar2_link,0.0,0.0,0.0,0.0,0.9999999999999998,0.0,0.9663899781345132,40.71360397338867,0.0,0.0,0.0,0,293000000,bluerov2/dvl_sonar3_link,0.0,0.0,0.0,0.0,0.0,-0.9999999999999998,0.9663899781345132
13173000000,115,13173000000,bluerov2/dvl_link,0.9539898007274468,0.026530291810267684,-0.012855801482024767,0.25,0.0,0.0,0.0,0.25,0.0,0.0,0.0,0.25,32.890499114990234,81.0,0.0,0.0,0.0,0,293000000,bluerov2/dvl_sonar0_link,0.0,0.0,0.0,0.0,-0.9999999999999998,0.0,0.9663899781345132,6.18976354598999,0.0,0.0,0.0,0,293000000,bluerov2/dvl_sonar1_link,0.0,0.0,0.0,0.0,0.0,0.9999999999999998,0.9663899781345132,3.8046629428863525,0.0,0.0,0.0,0,293000000,bluerov2/dvl_sonar2_link,0.0,0.0,0.0,0.0,0.9999999999999998,0.0,0.9663899781345132,40.56756591796875,0.0,0.0,0.0,0,293000000,bluerov2/dvl_sonar3_link,0.0,0.0,0.0,0.0,0.0,-0.9999999999999998,0.9663899781345132
13285000000,116,13285000000,bluerov2/dvl_link,0.9655399664348121,-0.07578316702260501,-0.016590684357042716,0.25,0.0,0.0,0.0,0.25,0.0,0.0,0.0,0.25,32.86054992675781,81.0,0.0,0.0,0.0,0,293000000,bluerov2/dvl_sonar0_link,0.0,0.0,0.0,0.0,-0.9999999999999998,0.0,0.9663899781345132,6.1855316162109375,0.0,0.0,0.0,0,293000000,bluerov2/dvl_sonar1_link,0.0,0.0,0.0,0.0,0.0,0.9999999999999998,0.9663899781345132,3.8099803924560547,0.0,0.0,0.0,0,293000000,bluerov2/dvl_sonar2_link,0.0,0.0,0.0,0.0,0.9999999999999998,0.0,0.9663899781345132,40.44668197631836,0.0,0.0,0.0,0,293000000,bluerov2/dvl_sonar3_link,0.0,0.0,0.0,0.0,0.0,-0.9999999999999998,0.9663899781345132
