%time,field.header.seq,field.header.stamp,field.header.frame_id,field.velocity.x,field.velocity.y,field.velocity.z,field.velocity_covariance0,field.velocity_covariance1,field.velocity_covariance2,field.velocity_covariance3,field.velocity_covariance4,field.velocity_covariance5,field.velocity_covariance6,field.velocity_covariance7,field.velocity_covariance8,field.altitude,field.beams0.range,field.beams0.range_covariance,field.beams0.velocity,field.beams0.velocity_covariance,field.beams0.pose.header.seq,field.beams0.pose.header.stamp,field.beams0.pose.header.frame_id,field.beams0.pose.pose.position.x,field.beams0.pose.pose.position.y,field.beams0.pose.pose.position.z,field.beams0.pose.pose.orientation.x,field.beams0.pose.pose.orientation.y,field.beams0.pose.pose.orientation.z,field.beams0.pose.pose.orientation.w,field.beams1.range,field.beams1.range_covariance,field.beams1.velocity,field.beams1.velocity_covariance,field.beams1.pose.header.seq,field.beams1.pose.header.stamp,field.beams1.pose.header.frame_id,field.beams1.pose.pose.position.x,field.beams1.pose.pose.position.y,field.beams1.pose.pose.position.z,field.beams1.pose.pose.orientation.x,field.beams1.pose.pose.orientation.y,field.beams1.pose.pose.orientation.z,field.beams1.pose.pose.orientation.w,field.beams2.range,field.beams2.range_covariance,field.beams2.velocity,field.beams2.velocity_covariance,field.beams2.pose.header.seq,field.beams2.pose.header.stamp,field.beams2.pose.header.frame_id,field.beams2.pose.pose.position.x,field.beams2.pose.pose.position.y,field.beams2.pose.pose.position.z,field.beams2.pose.pose.orientation.x,field.beams2.pose.pose.orientation.y,field.beams2.pose.pose.orientation.z,field.beams2.pose.pose.orientation.w,field.beams3.range,field.beams3.range_covariance,field.beams3.velocity,field.beams3.velocity_covariance,field.beams3.pose.header.seq,field.beams3.pose.header.stamp,field.beams3.pose.header.frame_id,field.beams3.pose.pose.position.x,field.beams3.pose.pose.position.y,field.beams3.pose.pose.position.z,field.beams3.pose.pose.orientation.x,field.beams3.pose.pose.orientation.y,field.beams3.pose.pose.orientation.z,field.beams3.pose.pose.orientation.w
11137000000,89,11137000000,bluerov2/dvl_link,0.99162519597725,-0.08507470364597204,-0.016007063599935104,0.25,0.0,0.0,0.0,0.25,0.0,0.0,0.0,0.25,27.526845932006836,81.0,0.0,0.0,0.0,0,1169000000,bluerov2/dvl_sonar0_link,0.0,0.0,0.0,0.0,-0.9999999999999998,0.0,0.9663899781345132,15.717123031616211,0.0,0.0,0.0,0,1169000000,bluerov2/dvl_sonar1_link,0.0,0.0,0.0,0.0,0.0,0.9999999999999998,0.9663899781345132,3.8018107414245605,0.0,0.0,0.0,0,1169000000,bluerov2/dvl_sonar2_link,0.0,0.0,0.0,0.0,0.9999999999999998,0.0,0.9663899781345132,9.588446617126465,0.0,0.0,0.0,0,1169000000,bluerov2/dvl_sonar3_link,0.0,0.0,0.0,0.0,0.0,-0.9999999999999998,0.9663899781345132
11249000000,90,11249000000,bluerov2/dvl_link,1.067800905848063,0.04470408986356737,0.06381078372567726,0.25,0.0,0.0,0.0,0.25,0.0,0.0,0.0,0.25,27.497732162475586,81.0,0.0,0.0,0.0,0,1169000000,bluerov2/dvl_sonar0_link,0.0,0.0,0.0,0.0,-0.9999999999999998,0.0,0.9663899781345132,15.589444160461426,0.0,0.0,0.0,0,1169000000,bluerov2/dvl_sonar1_link,0.0,0.0,0.0,0.0,0.0,0.9999999999999998,0.9663899781345132,3.8041882514953613,0.0,0.0,0.0,0,1169000000,bluerov2/dvl_sonar2_link,0.0,0.0,0.0,0.0,0.9999999999999998,0.0,0.9663899781345132,9.597288131713867,0.0,0.0,0.0,0,1169000000,bluerov2/dvl_sonar3_link,0.0,0.0,0.0,0.0,0.0,-0.9999999999999998,0.9663899781345132
11361000000,91,11361000000,bluerov2/dvl_link,1.082929130074082,0.0014000477822034424,-0.06415623369599986,0.25,0.0,0.0,0.0,0.25,0.0,0.0,0.0,0.25,27.473600387573242,81.0,0.0,0.0,0.0,0,1169000000,bluerov2/dvl_sonar0_link,0.0,0.0,0.0,0.0,-0.9999999999999998,0.0,0.9663899781345132,15.476797103881836,0.0,0.0,0.0,0,1169000000,bluerov2/dvl_sonar1_link,0.0,0.0,0.0,0.0,0.0,0.9999999999999998,0.9663899781345132,3.80265736579895,0.0,0.0,0.0,0,1169000000,bluerov2/dvl_sonar2_link,0.0,0.0,0.0,0.0,0.9999999999999998,0.0,0.9663899781345132,9.614943504333496,0.0,0.0,0.0,0,1169000000,bluerov2/dvl_sonar3_link,0.0,0.0,0.0,0.0,0.0,-0.9999999999999998,0.9663899781345132
11473000000,92,11473000000,bluerov2/dvl_link,1.0259294155146714,0.05168634150113978,0.042573042212074676,0.25,0.0,0.0,0.0,0.25,0.0,0.0,0.0,0.25,27.437911987304688,81.0,0.0,0.0,0.0,0,1169000000,bluerov2/dvl_sonar0_link,0.0,0.0,0.0,0.0,-0.9999999999999998,0.0,0.9663899781345132,15.330024719238281,0.0,0.0,0.0,0,1169000000,bluerov2/dvl_sonar1_link,0.0,0.0,0.0,0.0,0.0,0.9999999999999998,0.9663899781345132,3.8029961585998535,0.0,0.0,0.0,0,1169000000,bluerov2/dvl_sonar2_link,0.0,0.0,0.0,0.0,0.9999999999999998,0.0,0.9663899781345132,9.618633270263672,0.0,0.0,0.0,0,1169000000,bluerov2/dvl_sonar3_link,0.0,0.0,0.0,0.0,0.0,-0.9999999999999998,0.9663899781345132
11585000000,93,11585000000,bluerov2/dvl_link,1.0813706058275956,0.006358500316787242,0.047507635858260434,0.25,0.0,0.0,0.0,0.25,0.0,0.0,0.0,0.25,27.41391372680664,81.0,0.0,0.0,0.0,0,1169000000,bluerov2/dvl_sonar0_link,0.0,0.0,0.0,0.0,-0.9999999999999998,0.0,0.9663899781345132,15.217167854309082,0.0,0.0,0.0,0,1169000000,bluerov2/dvl_sonar1_link,0.0,0.0,0.0,0.0,0.0,0.9999999999999998,0.9663899781345132,3.808140993118286,0.0,0.0,0.0,0,1169000000,bluerov2/dvl_sonar2_link,0.0,0.0,0.0,0.0,0.9999999999999998,0.0,0.9663899781345132,9.630341529846191,0.0,0.0,0.0,0,1169000000,bluerov2/dvl_sonar3_link,0.0,0.0,0.0,0.0,0.0,-0.9999999999999998,0.9663899781345132
11697000000,94,11697000000,bluerov2/dvl_link,0.9968001651857026,-0.055472486619269415,0.012725669862069149,0.25,0.0,0.0,0.0,0.25,0.0,0.0,0.0,0.25,27.382104873657227,81.0,0.0,0.0,0.0,0,1169000000,bluerov2/dvl_sonar0_link,0.0,0.0,0.0,0.0,-0.9999999999999998,0.0,0.9663899781345132,15.083420753479004,0.0,0.0,0.0,0,1169000000,bluerov2/dvl_sonar1_link,0.0,0.0,0.0,0.0,0.0,0.9999999999999998,0.9663899781345132,3.809250831604004,0.0,0.0,0.0,0,1169000000,bluerov2/dvl_sonar2_link,0.0,0.0,0.0,0.0,0.9999999999999998,0.0,0.9663899781345132,9.635749816894531,0.0,0.0,0.0,0,1169000000,bluerov2/dvl_sonar3_link,0.0,0.0,0.0,0.0,0.0,-0.9999999999999998,0.9663899781345132
11809000000,95,11809000000,bluerov2/dvl_link,1.102100890284129,0.04248931836208786,0.0028121264355889007,0.25,0.0,0.0,0.0,0.25,0.0,0.0,0.0,0.25,27.34726905822754,81.0,0.0,0.0,0.0,0,1169000000,bluerov2/dvl_sonar0_link,0.0,0.0,0.0,0.0,-0.9999999999999998,0.0,0.9663899781345132,14.952527046203613,0.0,0.0,0.0,0,1169000000,bluerov2/dvl_sonar1_link,0.0,0.0,0.0,0.0,0.0,0.9999999999999998,0.9663899781345132,3.8030645847320557,0.0,0.0,0.0,0,1169000000,bluerov2/dvl_sonar2_link,0.0,0.0,0.0,0.0,0.9999999999999998,0.0,0.9663899781345132,9.63348388671875,0.0,0.0,0.0,0,1169000000,bluerov2/dvl_sonar3_link,0.0,0.0,0.0,0.0,0.0,-0.9999999999999998,0.9663899781345132
11921000000,96,11921000000,bluerov2/dvl_link,1.080629040541,0.011472900205406571,0.09375422791624614,0.25,0.0,0.0,0.0,0.25,0.0,0.0,0.0,0.25,27.316883087158203,81.0,0.0,0.0,0.0,0,1169000000,bluerov2/dvl_sonar0_link,0.0,0.0,0.0,0.0,-0.9999999999999998,0.0,0.9663899781345132,14.818405151367188,0.0,0.0,0.0,0,1169000000,bluerov2/dvl_sonar1_link,0.0,0.0,0.0,0.0,0.0,0.9999999999999998,0.9663899781345132,3.8016319274902344,0.0,0.0,0.0,0,1169000000,bluerov2/dvl_sonar2_link,0.0,0.0,0.0,0.0,0.9999999999999998,0.0,0.9663899781345132,9.647493362426758,0.0,0.0,0.0,0,1169000000,bluerov2/dvl_sonar3_link,0.0,0.0,0.0,0.0,0.0,-0.9999999999999998,0.9663899781345132
12033000000,97,12033000000,bluerov2/dvl_link,1.0456351776449488,0.009201587778814913,-0.011583792787052714,0.25,0.0,0.0,0.0,0.25,0.0,0.0,0.0,0.25,27.286409378051758,81.0,0.0,0.0,0.0,0,1169000000,bluerov2/dvl_sonar0_link,0.0,0.0,0.0,0.0,-0.9999999999999998,0.0,0.9663899781345132,14.685342788696289,0.0,0.0,0.0,0,1169000000,bluerov2/dvl_sonar1_link,0.0,0.0,0.0,0.0,0.0,0.9999999999999998,0.9663899781345132,3.8150811195373535,0.0,0.0,0.0,0,1169000000,bluerov2/dvl_sonar2_link,0.0,0.0,0.0,0.0,0.9999999999999998,0.0,0.9663899781345132,9.64521598815918,0.0,0.0,0.0,0,1169000000,bluerov2/dvl_sonar3_link,0.0,0.0,0.0,0.0,0.0,-0.9999999999999998,0.9663899781345132
12145000000,98,12145000000,bluerov2/dvl_link,1.051936582500865,-0.014229087879665717,0.01614429649523342,0.25,0.0,0.0,0.0,0.25,0.0,0.0,0.0,0.25,27.25497817993164,81.0,0.0,0.0,0.0,0,1169000000,bluerov2/dvl_sonar0_link,0.0,0.0,0.0,0.0,-0.9999999999999998,0.0,0.9663899781345132,14.560717582702637,0.0,0.0,0.0,0,1169000000,bluerov2/dvl_sonar1_link,0.0,0.0,0.0,0.0,0.0,0.9999999999999998,0.9663899781345132,3.803504228591919,0.0,0.0,0.0,0,1169000000,bluerov2/dvl_sonar2_link,0.0,0.0,0.0,0.0,0.9999999999999998,0.0,0.9663899781345132,9.655695915222168,0.0,0.0,0.0,0,1169000000,bluerov2/dvl_sonar3_link,0.0,0.0,0.0,0.0,0.0,-0.9999999999999998,0.9663899781345132
12257000000,99,12257000000,bluerov2/dvl_link,1.0633443066504984,0.0005124229153037028,0.011523146674296507,0.25,0.0,0.0,0.0,0.25,0.0,0.0,0.0,0.25,27.21837043762207,81.0,0.0,0.0,0.0,0,1169000000,bluerov2/dvl_sonar0_link,0.0,0.0,0.0,0.0,-0.9999999999999998,0.0,0.9663899781345132,14.4186372756958,0.0,0.0,0.0,0,1169000000,bluerov2/dvl_sonar1_link,0.0,0.0,0.0,0.0,0.0,0.9999999999999998,0.9663899781345132,3.801283359527588,0.0,0.0,0.0,0,1169000000,bluerov2/dvl_sonar2_link,0.0,0.0,0.0,0.0,0.9999999999999998,0.0,0.9663899781345132,9.653555870056152,0.0,0.0,0.0,0,1169000000,bluerov2/dvl_sonar3_link,0.0,0.0,0.0,0.0,0.0,-0.9999999999999998,0.9663899781345132
12369000000,100,12369000000,bluerov2/dvl_link,1.0377551458795686,-0.0055138946486419545,-0.008327101168030145,0.25,0.0,0.0,0.0,0.25,0.0,0.0,0.0,0.25,27.191205978393555,81.0,0.0,0.0,0.0,0,1169000000,bluerov2/dvl_sonar0_link,0.0,0.0,0.0,0.0,-0.9999999999999998,0.0,0.9663899781345132,14.295222282409668,0.0,0.0,0.0,0,1169000000,bluerov2/dvl_sonar1_link,0.0,0.0,0.0,0.0,0.0,0.9999999999999998,0.9663899781345132,3.803809642791748,0.0,0.0,0.0,0,1169000000,bluerov2/dvl_sonar2_link,0.0,0.0,0.0,0.0,0.9999999999999998,0.0,0.9663899781345132,9.665792465209961,0.0,0.0,0.0,0,1169000000,bluerov2/dvl_sonar3_link,0.0,0.0,0.0,0.0,0.0,-0.9999999999999998,0.9663899781345132
12481000000,101,12481000000,bluerov2/dvl_link,0.9861269034274837,-0.0013421231843070425,-0.04902621972881994,0.25,0.0,0.0,0.0,0.25,0.0,0.0,0.0,0.25,27.151756286621094,81.0,0.0,0.0,0.0,0,1169000000,bluerov2/dvl_sonar0_link,0.0,0.0,0.0,0.0,-0.9999999999999998,0.0,0.9663899781345132,14.154321670532227,0.0,0.0,0.0,0,1169000000,bluerov2/dvl_sonar1_link,0.0,0.0,0.0,0.0,0.0,0.9999999999999998,0.9663899781345132,3.810060739517212,0.0,0.0,0.0,0,1169000000,bluerov2/dvl_sonar2_link,0.0,0.0,0.0,0.0,0.9999999999999998,0.0,0.9663899781345132,9.642643928527832,0.0,0.0,0.0,0,1169000000,bluerov2/dvl_sonar3_link,0.0,0.0,0.0,0.0,0.0,-0.9999999999999998,0.9663899781345132
12593000000,102,12593000000,bluerov2/dvl_link,1.0178005774691277,0.07457093235789838,0.01728849568614421,0.25,0.0,0.0,0.0,0.25,0.0,0.0,0.0,0.25,27.115917205810547,81.0,0.0,0.0,0.0,0,1169000000,bluerov2/dvl_sonar0_link,0.0,0.0,0.0,0.0,-0.9999999999999998,0.0,0.9663899781345132,14.021625518798828,0.0,0.0,0.0,0,1169000000,bluerov2/dvl_sonar1_link,0.0,0.0,0.0,0.0,0.0,0.9999999999999998,0.9663899781345132,3.7976596355438232,0.0,0.0,0.0,0,1169000000,bluerov2/dvl_sonar2_link,0.0,0.0,0.0,0.0,0.9999999999999998,0.0,0.9663899781345132,9.644388198852539,0.0,0.0,0.0,0,1169000000,bluerov2/dvl_sonar3_link,0.0,0.0,0.0,0.0,0.0,-0.9999999999999998,0.9663899781345132
12705000000,103,12705000000,bluerov2/dvl_link,1.0546913817047405,0.00696654744644646,0.09282716459241586,0.25,0.0,0.0,0.0,0.25,0.0,0.0,0.0,0.25,27.083881378173828,81.0,0.0,0.0,0.0,0,1169000000,bluerov2/dvl_sonar0_link,0.0,0.0,0.0,0.0,-0.9999999999999998,0.0,0.9663899781345132,13.89198112487793,0.0,0.0,0.0,0,1169000000,bluerov2/dvl_sonar1_link,0.0,0.0,0.0,0.0,0.0,0.9999999999999998,0.9663899781345132,3.8086509704589844,0.0,0.0,0.0,0,1169000000,bluerov2/dvl_sonar2_link,0.0,0.0,0.0,0.0,0.9999999999999998,0.0,0.9663899781345132,9.634888648986816,0.0,0.0,0.0,0,1169000000,bluerov2/dvl_sonar3_link,0.0,0.0,0.0,0.0,0.0,-0.9999999999999998,0.9663899781345132
12817000000,104,12817000000,bluerov2/dvl_link,1.0115470034185448,0.039717440322898985,-0.0351567690915547,0.25,0.0,0.0,0.0,0.25,0.0,0.0,0.0,0.25,27.051067352294922,81.0,0.0,0.0,0.0,0,1169000000,bluerov2/dvl_sonar0_link,0.0,0.0,0.0,0.0,-0.9999999999999998,0.0,0.9663899781345132,13.767511367797852,0.0,0.0,0.0,0,1169000000,bluerov2/dvl_sonar1_link,0.0,0.0,0.0,0.0,0.0,0.9999999999999998,0.9663899781345132,3.7964372634887695,0.0,0.0,0.0,0,1169000000,bluerov2/dvl_sonar2_link,0.0,0.0,0.0,0.0,0.9999999999999998,0.0,0.9663899781345132,9.640317916870117,0.0,0.0,0.0,0,1169000000,bluerov2/dvl_sonar3_link,0.0,0.0,0.0,0.0,0.0,-0.9999999999999998,0.9663899781345132
12929000000,105,12929000000,bluerov2/dvl_link,0.8480414215435408,0.07480348777146707,-0.04491612811231375,0.25,0.0,0.0,0.0,0.25,0.0,0.0,0.0,0.25,27.021047592163086,81.0,0.0,0.0,0.0,0,1169000000,bluerov2/dvl_sonar0_link,0.0,0.0,0.0,0.0,-0.9999999999999998,0.0,0.9663899781345132,13.641472816467285,0.0,0.0,0.0,0,1169000000,bluerov2/dvl_sonar1_link,0.0,0.0,0.0,0.0,0.0,0.9999999999999998,0.9663899781345132,3.801957845687866,0.0,0.0,0.0,0,1169000000,bluerov2/dvl_sonar2_link,0.0,0.0,0.0,0.0,0.9999999999999998,0.0,0.9663899781345132,9.640762329101562,0.0,0.0,0.0,0,1169000000,bluerov2/dvl_sonar3_link,0.0,0.0,0.0,0.0,0.0,-0.9999999999999998,0.9663899781345132
13041000000,106,13041000000,bluerov2/dvl_link,1.00676105375615,-0.04891696922282645,-0.05197645065082148,0.25,0.0,0.0,0.0,0.25,0.0,0.0,0.0,0.25,26.9914608001709,81.0,0.0,0.0,0.0,0,1169000000,bluerov2/dvl_sonar0_link,0.0,0.0,0.0,0.0,-0.9999999999999998,0.0,0.9663899781345132,13.516096115112305,0.0,0.0,0.0,0,1169000000,bluerov2/dvl_sonar1_link,0.0,0.0,0.0,0.0,0.0,0.9999999999999998,0.9663899781345132,3.806957244873047,0.0,0.0,0.0,0,1169000000,bluerov2/dvl_sonar2_link,0.0,0.0,0.0,0.0,0.9999999999999998,0.0,0.9663899781345132,9.64278507232666,0.0,0.0,0.0,0,1169000000,bluerov2/dvl_sonar3_link,0.0,0.0,0.0,0.0,0.0,-0.9999999999999998,0.9663899781345132
13153000000,107,13153000000,bluerov2/dvl_link,0.9894125134588947,0.051594657241437566,-0.1105745749176138,0.25,0.0,0.0,0.0,0.25,0.0,0.0,0.0,0.25,26.96424102783203,81.0,0.0,0.0,0.0,0,1169000000,bluerov2/dvl_sonar0_link,0.0,0.0,0.0,0.0,-0.9999999999999998,0.0,0.9663899781345132,13.403057098388672,0.0,0.0,0.0,0,1169000000,bluerov2/dvl_sonar1_link,0.0,0.0,0.0,0.0,0.0,0.9999999999999998,0.9663899781345132,3.8022992610931396,0.0,0.0,0.0,0,1169000000,bluerov2/dvl_sonar2_link,0.0,0.0,0.0,0.0,0.9999999999999998,0.0,0.9663899781345132,9.651607513427734,0.0,0.0,0.0,0,1169000000,bluerov2/dvl_sonar3_link,0.0,0.0,0.0,0.0,0.0,-0.9999999999999998,0.9663899781345132
13265000000,108,13265000000,bluerov2/dvl_link,1.0109097353850403,0.08396591254045394,0.03106676319816262,0.25,0.0,0.0,0.0,0.25,0.0,0.0,0.0,0.25,26.931354522705078,81.0,0.0,0.0,0.0,0,1169000000,bluerov2/dvl_sonar0_link,0.0,0.0,0.0,0.0,-0.9999999999999998,0.0,0.9663899781345132,13.27519702911377,0.0,0.0,0.0,0,1169000000,bluerov2/dvl_sonar1_link,0.0,0.0,0.0,0.0,0.0,0.9999999999999998,0.9663899781345132,3.807788372039795,0.0,0.0,0.0,0,1169000000,bluerov2/dvl_sonar2_link,0.0,0.0,0.0,0.0,0.9999999999999998,0.0,0.9663899781345132,9.64242935180664,0.0,0.0,0.0,0,1169000000,bluerov2/dvl_sonar3_link,0.0,0.0,0.0,0.0,0.0,-0.9999999999999998,0.9663899781345132
13377000000,109,13377000000,bluerov2/dvl_link,0.8687105158092022,0.028426400012016337,0.009695264078445986,0.25,0.0,0.0,0.0,0.25,0.0,0.0,0.0,0.25,26.89977264404297,81.0,0.0,0.0,0.0,0,1169000000,bluerov2/dvl_sonar0_link,0.0,0.0,0.0,0.0,-0.9999999999999998,0.0,0.9663899781345132,13.14902114868164,0.0,0.0,0.0,0,1169000000,bluerov2/dvl_sonar1_link,0.0,0.0,0.0,0.0,0.0,0.9999999999999998,0.9663899781345132,3.8082263469696045,0.0,0.0,0.0,0,1169000000,bluerov2/dvl_sonar2_link,0.0,0.0,0.0,0.0,0.9999999999999998,0.0,0.9663899781345132,9.64184284210205,0.0,0.0,0.0,0,1169000000,bluerov2/dvl_sonar3_link,0.0,0.0,0.0,0.0,0.0,-0.9999999999999998,0.9663899781345132
13489000000,110,13489000000,bluerov2/dvl_link,1.0191123235397588,-0.0038946496021113122,0.053811958172460636,0.25,0.0,0.0,0.0,0.25,0.0,0.0,0.0,0.25,26.86714744567871,81.0,0.0,0.0,0.0,0,1169000000,bluerov2/dvl_sonar0_link,0.0,0.0,0.0,0.0,-0.9999999999999998,0.0,0.9663899781345132,13.01757526397705,0.0,0.0,0.0,0,1169000000,bluerov2/dvl_sonar1_link,0.0,0.0,0.0,0.0,0.0,0.9999999999999998,0.9663899781345132,3.81248140335083,0.0,0.0,0.0,0,1169000000,bluerov2/dvl_sonar2_link,0.0,0.0,0.0,0.0,0.9999999999999998,0.0,0.9663899781345132,9.638529777526855,0.0,0.0,0.0,0,1169000000,bluerov2/dvl_sonar3_link,0.0,0.0,0.0,0.0,0.0,-0.9999999999999998,0.9663899781345132
13601000000,111,13601000000,bluerov2/dvl_link,0.9596443790108403,0.06554840459688166,0.10092672624880436,0.25,0.0,0.0,0.0,0.25,0.0,0.0,0.0,0.25,26.83588981628418,81.0,0.0,0.0,0.0,0,1169000000,bluerov2/dvl_sonar0_link,0.0,0.0,0.0,0.0,-0.9999999999999998,0.0,0.9663899781345132,12.908512115478516,0.0,0.0,0.0,0,1169000000,bluerov2/dvl_sonar1_link,0.0,0.0,0.0,0.0,0.0,0.9999999999999998,0.9663899781345132,3.8014307022094727,0.0,0.0,0.0,0,1169000000,bluerov2/dvl_sonar2_link,0.0,0.0,0.0,0.0,0.9999999999999998,0.0,0.9663899781345132,9.633622169494629,0.0,0.0,0.0,0,1169000000,bluerov2/dvl_sonar3_link,0.0,0.0,0.0,0.0,0.0,-0.9999999999999998,0.9663899781345132
13713000000,112,13713000000,bluerov2/dvl_link,0.9676734027698629,0.05790829687307607,0.026152548751215532,0.25,0.0,0.0,0.0,0.25,0.0,0.0,0.0,0.25,26.80556869506836,81.0,0.0,0.0,0.0,0,1169000000,bluerov2/dvl_sonar0_link,0.0,0.0,0.0,0.0,-0.9999999999999998,0.0,0.9663899781345132,12.776963233947754,0.0,0.0,0.0,0,1169000000,bluerov2/dvl_sonar1_link,0.0,0.0,0.0,0.0,0.0,0.9999999999999998,0.9663899781345132,3.798607349395752,0.0,0.0,0.0,0,1169000000,bluerov2/dvl_sonar2_link,0.0,0.0,0.0,0.0,0.9999999999999998,0.0,0.9663899781345132,9.64670181274414,0.0,0.0,0.0,0,1169000000,bluerov2/dvl_sonar3_link,0.0,0.0,0.0,0.0,0.0,-0.9999999999999998,0.9663899781345132
13825000000,113,13825000000,bluerov2/dvl_link,1.03897014947235,-0.04619187006888249,0.01007411789353683,0.25,0.0,0.0,0.0,0.25,0.0,0.0,0.0,0.25,26.776290893554688,81.0,0.0,0.0,0.0,0,1169000000,bluerov2/dvl_sonar0_link,0.0,0.0,0.0,0.0,-0.9999999999999998,0.0,0.9663899781345132,12.659341812133789,0.0,0.0,0.0,0,1169000000,bluerov2/dvl_sonar1_link,0.0,0.0,0.0,0.0,0.0,0.9999999999999998,0.9663899781345132,3.8012146949768066,0.0,0.0,0.0,0,1169000000,bluerov2/dvl_sonar2_link,0.0,0.0,0.0,0.0,0.9999999999999998,0.0,0.9663899781345132,9.644604682922363,0.0,0.0,0.0,0,1169000000,bluerov2/dvl_sonar3_link,0.0,0.0,0.0,0.0,0.0,-0.9999999999999998,0.9663899781345132
13937000000,114,13937000000,bluerov2/dvl_link,0.8816584036837978,0.022161255833896158,0.07984239452742237,0.25,0.0,0.0,0.0,0.25,0.0,0.0,0.0,0.25,26.74759864807129,81.0,0.0,0.0,0.0,0,1169000000,bluerov2/dvl_sonar0_link,0.0,0.0,0.0,0.0,-0.9999999999999998,0.0,0.9663899781345132,12.532617568969727,0.0,0.0,0.0,0,1169000000,bluerov2/dvl_sonar1_link,0.0,0.0,0.0,0.0,0.0,0.9999999999999998,0.9663899781345132,3.8047597408294678,0.0,0.0,0.0,0,1169000000,bluerov2/dvl_sonar2_link,0.0,0.0,0.0,0.0,0.9999999999999998,0.0,0.9663899781345132,9.653020858764648,0.0,0.0,0.0,0,1169000000,bluerov2/dvl_sonar3_link,0.0,0.0,0.0,0.0,0.0,-0.9999999999999998,0.9663899781345132
14049000000,115,14049000000,bluerov2/dvl_link,0.9791133197848577,0.02234020404559433,-0.04358093979983175,0.25,0.0,0.0,0.0,0.25,0.0,0.0,0.0,0.25,26.715518951416016,81.0,0.0,0.0,0.0,0,1169000000,bluerov2/dvl_sonar0_link,0.0,0.0,0.0,0.0,-0.9999999999999998,0.0,0.9663899781345132,12.406986236572266,0.0,0.0,0.0,0,1169000000,bluerov2/dvl_sonar1_link,0.0,0.0,0.0,0.0,0.0,0.9999999999999998,0.9663899781345132,3.80964732170105,0.0,0.0,0.0,0,1169000000,bluerov2/dvl_sonar2_link,0.0,0.0,0.0,0.0,0.9999999999999998,0.0,0.9663899781345132,9.645448684692383,0.0,0.0,0.0,0,1169000000,bluerov2/dvl_sonar3_link,0.0,0.0,0.0,0.0,0.0,-0.9999999999999998,0.9663899781345132
14161000000,116,14161000000,bluerov2/dvl_link,1.0657419882667825,-0.045991048485485714,0.05574013649469598,0.25,0.0,0.0,0.0,0.25,0.0,0.0,0.0,0.25,26.687820434570312,81.0,0.0,0.0,0.0,0,1169000000,bluerov2/dvl_sonar0_link,0.0,0.0,0.0,0.0,-0.9999999999999998,0.0,0.9663899781345132,12.2899751663208,0.0,0.0,0.0,0,1169000000,bluerov2/dvl_sonar1_link,0.0,0.0,0.0,0.0,0.0,0.9999999999999998,0.9663899781345132,3.802201271057129,0.0,0.0,0.0,0,1169000000,bluerov2/dvl_sonar2_link,0.0,0.0,0.0,0.0,0.9999999999999998,0.0,0.9663899781345132,9.65910530090332,0.0,0.0,0.0,0,1169000000,bluerov2/dvl_sonar3_link,0.0,0.0,0.0,0.0,0.0,-0.9999999999999998,0.9663899781345132
14273000000,117,14273000000,bluerov2/dvl_link,1.021435347050232,-0.06975415325096071,0.040204770293250106,0.25,0.0,0.0,0.0,0.25,0.0,0.0,0.0,0.25,26.657987594604492,81.0,0.0,0.0,0.0,0,1169000000,bluerov2/dvl_sonar0_link,0.0,0.0,0.0,0.0,-0.9999999999999998,0.0,0.9663899781345132,12.160258293151855,0.0,0.0,0.0,0,1169000000,bluerov2/dvl_sonar1_link,0.0,0.0,0.0,0.0,0.0,0.9999999999999998,0.9663899781345132,3.80679988861084,0.0,0.0,0.0,0,1169000000,bluerov2/dvl_sonar2_link,0.0,0.0,0.0,0.0,0.9999999999999998,0.0,0.9663899781345132,9.66489315032959,0.0,0.0,0.0,0,1169000000,bluerov2/dvl_sonar3_link,0.0,0.0,0.0,0.0,0.0,-0.9999999999999998,0.9663899781345132
14385000000,118,14385000000,bluerov2/dvl_link,1.0145044823412044,0.001065487942227425,-0.007437316141475868,0.25,0.0,0.0,0.0,0.25,0.0,0.0,0.0,0.25,26.626188278198242,81.0,0.0,0.0,0.0,0,1169000000,bluerov2/dvl_sonar0_link,0.0,0.0,0.0,0.0,-0.9999999999999998,0.0,0.9663899781345132,12.035998344421387,0.0,0.0,0.0,0,1169000000,bluerov2/dvl_sonar1_link,0.0,0.0,0.0,0.0,0.0,0.9999999999999998,0.9663899781345132,3.8036916255950928,0.0,0.0,0.0,0,1169000000,bluerov2/dvl_sonar2_link,0.0,0.0,0.0,0.0,0.9999999999999998,0.0,0.9663899781345132,9.665066719055176,0.0,0.0,0.0,0,1169000000,bluerov2/dvl_sonar3_link,0.0,0.0,0.0,0.0,0.0,-0.9999999999999998,0.9663899781345132
14497000000,119,14497000000,bluerov2/dvl_link,1.0445414600181582,0.03482960619468008,-0.08740374841758532,0.25,0.0,0.0,0.0,0.25,0.0,0.0,0.0,0.25,26.594343185424805,81.0,0.0,0.0,0.0,0,1169000000,bluerov2/dvl_sonar0_link,0.0,0.0,0.0,0.0,-0.9999999999999998,0.0,0.9663899781345132,11.913881301879883,0.0,0.0,0.0,0,1169000000,bluerov2/dvl_sonar1_link,0.0,0.0,0.0,0.0,0.0,0.9999999999999998,0.9663899781345132,3.7957122325897217,0.0,0.0,0.0,0,1169000000,bluerov2/dvl_sonar2_link,0.0,0.0,0.0,0.0,0.9999999999999998,0.0,0.9663899781345132,9.667778968811035,0.0,0.0,0.0,0,1169000000,bluerov2/dvl_sonar3_link,0.0,0.0,0.0,0.0,0.0,-0.9999999999999998,0.9663899781345132
14609000000,120,14609000000,bluerov2/dvl_link,1.1349283782072113,0.03642199775166856,-0.06492925662483234,0.25,0.0,0.0,0.0,0.25,0.0,0.0,0.0,0.25,26.562664031982422,81.0,0.0,0.0,0.0,0,1169000000,bluerov2/dvl_sonar0_link,0.0,0.0,0.0,0.0,-0.9999999999999998,0.0,0.9663899781345132,11.78305435180664,0.0,0.0,0.0,0,1169000000,bluerov2/dvl_sonar1_link,0.0,0.0,0.0,0.0,0.0,0.9999999999999998,0.9663899781345132,3.8046672344207764,0.0,0.0,0.0,0,1169000000,bluerov2/dvl_sonar2_link,0.0,0.0,0.0,0.0,0.9999999999999998,0.0,0.9663899781345132,9.662943840026855,0.0,0.0,0.0,0,1169000000,bluerov2/dvl_sonar3_link,0.0,0.0,0.0,0.0,0.0,-0.9999999999999998,0.9663899781345132
14721000000,121,14721000000,bluerov2/dvl_link,1.0564900859586024,0.0414091213197746,0.04316302118329602,0.25,0.0,0.0,0.0,0.25,0.0,0.0,0.0,0.25,26.53122901916504,81.0,0.0,0.0,0.0,0,1169000000,bluerov2/dvl_sonar0_link,0.0,0.0,0.0,0.0,-0.9999999999999998,0.0,0.9663899781345132,11.654744148254395,0.0,0.0,0.0,0,1169000000,bluerov2/dvl_sonar1_link,0.0,0.0,0.0,0.0,0.0,0.9999999999999998,0.9663899781345132,3.803605318069458,0.0,0.0,0.0,0,1169000000,bluerov2/dvl_sonar2_link,0.0,0.0,0.0,0.0,0.9999999999999998,0.0,0.9663899781345132,9.666565895080566,0.0,0.0,0.0,0,1169000000,bluerov2/dvl_sonar3_link,0.0,0.0,0.0,0.0,0.0,-0.9999999999999998,0.9663899781345132
14833000000,122,14833000000,bluerov2/dvl_link,1.0017087921769874,0.1193335032835487,-0.02226451546531137,0.25,0.0,0.0,0.0,0.25,0.0,0.0,0.0,0.25,26.501628875732422,81.0,0.0,0.0,0.0,0,1169000000,bluerov2/dvl_sonar0_link,0.0,0.0,0.0,0.0,-0.9999999999999998,0.0,0.9663899781345132,11.531864166259766,0.0,0.0,0.0,0,1169000000,bluerov2/dvl_sonar1_link,0.0,0.0,0.0,0.0,0.0,0.9999999999999998,0.9663899781345132,3.800612449645996,0.0,0.0,0.0,0,1169000000,bluerov2/dvl_sonar2_link,0.0,0.0,0.0,0.0,0.9999999999999998,0.0,0.9663899781345132,9.67404556274414,0.0,0.0,0.0,0,1169000000,bluerov2/dvl_sonar3_link,0.0,0.0,0.0,0.0,0.0,-0.9999999999999998,0.9663899781345132
14945000000,123,14945000000,bluerov2/dvl_link,1.0140898387782613,0.005223654635777553,0.03960284823192868,0.25,0.0,0.0,0.0,0.25,0.0,0.0,0.0,0.25,26.46968650817871,81.0,0.0,0.0,0.0,0,1169000000,bluerov2/dvl_sonar0_link,0.0,0.0,0.0,0.0,-0.9999999999999998,0.0,0.9663899781345132,11.399625778198242,0.0,0.0,0.0,0,1169000000,bluerov2/dvl_sonar1_link,0.0,0.0,0.0,0.0,0.0,0.9999999999999998,0.9663899781345132,3.8048510551452637,0.0,0.0,0.0,0,1169000000,bluerov2/dvl_sonar2_link,0.0,0.0,0.0,0.0,0.9999999999999998,0.0,0.9663899781345132,9.674271583557129,0.0,0.0,0.0,0,1169000000,bluerov2/dvl_sonar3_link,0.0,0.0,0.0,0.0,0.0,-0.9999999999999998,0.9663899781345132
15057000000,124,15057000000,bluerov2/dvl_link,0.9034554774108355,0.03755818694770826,0.0025170600998694857,0.25,0.0,0.0,0.0,0.25,0.0,0.0,0.0,0.25,26.436492919921875,81.0,0.0,0.0,0.0,0,1169000000,bluerov2/dvl_sonar0_link,0.0,0.0,0.0,0.0,-0.9999999999999998,0.0,0.9663899781345132,11.268694877624512,0.0,0.0,0.0,0,1169000000,bluerov2/dvl_sonar1_link,0.0,0.0,0.0,0.0,0.0,0.9999999999999998,0.9663899781345132,3.802327871322632,0.0,0.0,0.0,0,1169000000,bluerov2/dvl_sonar2_link,0.0,0.0,0.0,0.0,0.9999999999999998,0.0,0.9663899781345132,9.674952507019043,0.0,0.0,0.0,0,1169000000,bluerov2/dvl_sonar3_link,0.0,0.0,0.0,0.0,0.0,-0.9999999999999998,0.9663899781345132
15169000000,125,15169000000,bluerov2/dvl_link,1.0892182526334153,0.09520174378419426,0.04488850845669987,0.25,0.0,0.0,0.0,0.25,0.0,0.0,0.0,0.25,26.401281356811523,81.0,0.0,0.0,0.0,0,1169000000,bluerov2/dvl_sonar0_link,0.0,0.0,0.0,0.0,-0.9999999999999998,0.0,0.9663899781345132,11.134571075439453,0.0,0.0,0.0,0,1169000000,bluerov2/dvl_sonar1_link,0.0,0.0,0.0,0.0,0.0,0.9999999999999998,0.9663899781345132,3.8052637577056885,0.0,0.0,0.0,0,1169000000,bluerov2/dvl_sonar2_link,0.0,0.0,0.0,0.0,0.9999999999999998,0.0,0.9663899781345132,9.665290832519531,0.0,0.0,0.0,0,1169000000,bluerov2/dvl_sonar3_link,0.0,0.0,0.0,0.0,0.0,-0.9999999999999998,0.9663899781345132
15281000000,126,15281000000,bluerov2/dvl_link,1.0082438456720941,0.08853114959859758,-0.058667471638360856,0.25,0.0,0.0,0.0,0.25,0.0,0.0,0.0,0.25,26.37293815612793,81.0,0.0,0.0,0.0,0,1169000000,bluerov2/dvl_sonar0_link,0.0,0.0,0.0,0.0,-0.9999999999999998,0.0,0.9663899781345132,11.013320922851562,0.0,0.0,0.0,0,1169000000,bluerov2/dvl_sonar1_link,0.0,0.0,0.0,0.0,0.0,0.9999999999999998,0.9663899781345132,3.8096375465393066,0.0,0.0,0.0,0,1169000000,bluerov2/dvl_sonar2_link,0.0,0.0,0.0,0.0,0.9999999999999998,0.0,0.9663899781345132,9.668794631958008,0.0,0.0,0.0,0,1169000000,bluerov2/dvl_sonar3_link,0.0,0.0,0.0,0.0,0.0,-0.9999999999999998,0.9663899781345132
15393000000,127,15393000000,bluerov2/dvl_link,0.9671068667961368,0.009089679774426446,-0.05334690236941691,0.25,0.0,0.0,0.0,0.25,0.0,0.0,0.0,0.25,26.338775634765625,81.0,0.0,0.0,0.0,0,1169000000,bluerov2/dvl_sonar0_link,0.0,0.0,0.0,0.0,-0.9999999999999998,0.0,0.9663899781345132,10.890337944030762,0.0,0.0,0.0,0,1169000000,bluerov2/dvl_sonar1_link,0.0,0.0,0.0,0.0,0.0,0.9999999999999998,0.9663899781345132,3.814154624938965,0.0,0.0,0.0,0,1169000000,bluerov2/dvl_sonar2_link,0.0,0.0,0.0,0.0,0.9999999999999998,0.0,0.9663899781345132,9.650613784790039,0.0,0.0,0.0,0,1169000000,bluerov2/dvl_sonar3_link,0.0,0.0,0.0,0.0,0.0,-0.9999999999999998,0.9663899781345132
15505000000,128,15505000000,bluerov2/dvl_link,1.0995928289102825,-0.003522598258228038,0.00983046654197079,0.25,0.0,0.0,0.0,0.25,0.0,0.0,0.0,0.25,26.303363800048828,81.0,0.0,0.0,0.0,0,1169000000,bluerov2/dvl_sonar0_link,0.0,0.0,0.0,0.0,-0.9999999999999998,0.0,0.9663899781345132,10.763816833496094,0.0,0.0,0.0,0,1169000000,bluerov2/dvl_sonar1_link,0.0,0.0,0.0,0.0,0.0,0.9999999999999998,0.9663899781345132,3.8095335960388184,0.0,0.0,0.0,0,1169000000,bluerov2/dvl_sonar2_link,0.0,0.0,0.0,0.0,0.9999999999999998,0.0,0.9663899781345132,9.640109062194824,0.0,0.0,0.0,0,1169000000,bluerov2/dvl_sonar3_link,0.0,0.0,0.0,0.0,0.0,-0.9999999999999998,0.9663899781345132
15617000000,129,15617000000,bluerov2/dvl_link,1.0057087112544436,0.0040726148727281836,-0.0769216229737834,0.25,0.0,0.0,0.0,0.25,0.0,0.0,0.0,0.25,26.270517349243164,81.0,0.0,0.0,0.0,0,1169000000,bluerov2/dvl_sonar0_link,0.0,0.0,0.0,0.0,-0.9999999999999998,0.0,0.9663899781345132,10.626784324645996,0.0,0.0,0.0,0,1169000000,bluerov2/dvl_sonar1_link,0.0,0.0,0.0,0.0,0.0,0.9999999999999998,0.9663899781345132,3.8066599369049072,0.0,0.0,0.0,0,1169000000,bluerov2/dvl_sonar2_link,0.0,0.0,0.0,0.0,0.9999999999999998,0.0,0.9663899781345132,9.648621559143066,0.0,0.0,0.0,0,1169000000,bluerov2/dvl_sonar3_link,0.0,0.0,0.0,0.0,0.0,-0.9999999999999998,0.9663899781345132
15729000000,130,15729000000,bluerov2/dvl_link,0.984200502511848,0.018068448359168772,0.0454926205212394,0.25,0.0,0.0,0.0,0.25,0.0,0.0,0.0,0.25,26.23500633239746,81.0,0.0,0.0,0.0,0,1169000000,bluerov2/dvl_sonar0_link,0.0,0.0,0.0,0.0,-0.9999999999999998,0.0,0.9663899781345132,10.501736640930176,0.0,0.0,0.0,0,1169000000,bluerov2/dvl_sonar1_link,0.0,0.0,0.0,0.0,0.0,0.9999999999999998,0.9663899781345132,3.80244779586792,0.0,0.0,0.0,0,1169000000,bluerov2/dvl_sonar2_link,0.0,0.0,0.0,0.0,0.9999999999999998,0.0,0.9663899781345132,9.635842323303223,0.0,0.0,0.0,0,1169000000,bluerov2/dvl_sonar3_link,0.0,0.0,0.0,0.0,0.0,-0.9999999999999998,0.9663899781345132
15841000000,131,15841000000,bluerov2/dvl_link,0.9514685758164452,-0.0958841430070638,-0.02249584477471043,0.25,0.0,0.0,0.0,0.25,0.0,0.0,0.0,0.25,26.209253311157227,81.0,0.0,0.0,0.0,0,1169000000,bluerov2/dvl_sonar0_link,0.0,0.0,0.0,0.0,-0.9999999999999998,0.0,0.9663899781345132,10.378277778625488,0.0,0.0,0.0,0,1169000000,bluerov2/dvl_sonar1_link,0.0,0.0,0.0,0.0,0.0,0.9999999999999998,0.9663899781345132,3.807828903198242,0.0,0.0,0.0,0,1169000000,bluerov2/dvl_sonar2_link,0.0,0.0,0.0,0.0,0.9999999999999998,0.0,0.9663899781345132,9.650901794433594,0.0,0.0,0.0,0,1169000000,bluerov2/dvl_sonar3_link,0.0,0.0,0.0,0.0,0.0,-0.9999999999999998,0.9663899781345132
15953000000,132,15953000000,bluerov2/dvl_link,1.0241691340103842,-0.07008121531911346,-0.04726405707408746,0.25,0.0,0.0,0.0,0.25,0.0,0.0,0.0,0.25,26.179243087768555,81.0,0.0,0.0,0.0,0,1169000000,bluerov2/dvl_sonar0_link,0.0,0.0,0.0,0.0,-0.9999999999999998,0.0,0.9663899781345132,10.258149147033691,0.0,0.0,0.0,0,1169000000,bluerov2/dvl_sonar1_link,0.0,0.0,0.0,0.0,0.0,0.9999999999999998,0.9663899781345132,3.803807497024536,0.0,0.0,0.0,0,1169000000,bluerov2/dvl_sonar2_link,0.0,0.0,0.0,0.0,0.9999999999999998,0.0,0.9663899781345132,9.655011177062988,0.0,0.0,0.0,0,1169000000,bluerov2/dvl_sonar3_link,0.0,0.0,0.0,0.0,0.0,-0.9999999999999998,0.9663899781345132
16065000000,133,16065000000,bluerov2/dvl_link,1.0573739762707646,0.1486978757070412,0.05342646567280205,0.25,0.0,0.0,0.0,0.25,0.0,0.0,0.0,0.25,26.149250030517578,81.0,0.0,0.0,0.0,0,1169000000,bluerov2/dvl_sonar0_link,0.0,0.0,0.0,0.0,-0.9999999999999998,0.0,0.9663899781345132,10.137165069580078,0.0,0.0,0.0,0,1169000000,bluerov2/dvl_sonar1_link,0.0,0.0,0.0,0.0,0.0,0.9999999999999998,0.9663899781345132,3.8007590770721436,0.0,0.0,0.0,0,1169000000,bluerov2/dvl_sonar2_link,0.0,0.0,0.0,0.0,0.9999999999999998,0.0,0.9663899781345132,9.659078598022461,0.0,0.0,0.0,0,1169000000,bluerov2/dvl_sonar3_link,0.0,0.0,0.0,0.0,0.0,-0.9999999999999998,0.9663899781345132
16177000000,134,16177000000,bluerov2/dvl_link,0.9964305338502242,0.12606125273685237,0.050126560595949166,0.25,0.0,0.0,0.0,0.25,0.0,0.0,0.0,0.25,26.12391471862793,81.0,0.0,0.0,0.0,0,1169000000,bluerov2/dvl_sonar0_link,0.0,0.0,0.0,0.0,-0.9999999999999998,0.0,0.9663899781345132,10.023890495300293,0.0,0.0,0.0,0,1169000000,bluerov2/dvl_sonar1_link,0.0,0.0,0.0,0.0,0.0,0.9999999999999998,0.9663899781345132,3.8080146312713623,0.0,0.0,0.0,0,1169000000,bluerov2/dvl_sonar2_link,0.0,0.0,0.0,0.0,0.9999999999999998,0.0,0.9663899781345132,9.6637601852417,0.0,0.0,0.0,0,1169000000,bluerov2/dvl_sonar3_link,0.0,0.0,0.0,0.0,0.0,-0.9999999999999998,0.9663899781345132
16289000000,135,16289000000,bluerov2/dvl_link,0.9925436014004428,0.057750348541889845,0.06371632040294815,0.25,0.0,0.0,0.0,0.25,0.0,0.0,0.0,0.25,26.09217643737793,81.0,0.0,0.0,0.0,0,1169000000,bluerov2/dvl_sonar0_link,0.0,0.0,0.0,0.0,-0.9999999999999998,0.0,0.9663899781345132,9.900172233581543,0.0,0.0,0.0,0,1169000000,bluerov2/dvl_sonar1_link,0.0,0.0,0.0,0.0,0.0,0.9999999999999998,0.9663899781345132,3.8007068634033203,0.0,0.0,0.0,0,1169000000,bluerov2/dvl_sonar2_link,0.0,0.0,0.0,0.0,0.9999999999999998,0.0,0.9663899781345132,9.667834281921387,0.0,0.0,0.0,0,1169000000,bluerov2/dvl_sonar3_link,0.0,0.0,0.0,0.0,0.0,-0.9999999999999998,0.9663899781345132
16401000000,136,16401000000,bluerov2/dvl_link,0.9713259825389227,0.027420313312564497,-0.026925867819219337,0.25,0.0,0.0,0.0,0.25,0.0,0.0,0.0,0.25,26.056766510009766,81.0,0.0,0.0,0.0,0,1169000000,bluerov2/dvl_sonar0_link,0.0,0.0,0.0,0.0,-0.9999999999999998,0.0,0.9663899781345132,9.768518447875977,0.0,0.0,0.0,0,1169000000,bluerov2/dvl_sonar1_link,0.0,0.0,0.0,0.0,0.0,0.9999999999999998,0.9663899781345132,3.8000311851501465,0.0,0.0,0.0,0,1169000000,bluerov2/dvl_sonar2_link,0.0,0.0,0.0,0.0,0.9999999999999998,0.0,0.9663899781345132,9.65851879119873,0.0,0.0,0.0,0,1169000000,bluerov2/dvl_sonar3_link,0.0,0.0,0.0,0.0,0.0,-0.9999999999999998,0.9663899781345132
16513000000,137,16513000000,bluerov2/dvl_link,0.9352843922900831,-0.007846723972046148,0.029540868443737007,0.25,0.0,0.0,0.0,0.25,0.0,0.0,0.0,0.25,26.024198532104492,81.0,0.0,0.0,0.0,0,1169000000,bluerov2/dvl_sonar0_link,0.0,0.0,0.0,0.0,-0.9999999999999998,0.0,0.9663899781345132,9.644571304321289,0.0,0.0,0.0,0,1169000000,bluerov2/dvl_sonar1_link,0.0,0.0,0.0,0.0,0.0,0.9999999999999998,0.9663899781345132,3.8037784099578857,0.0,0.0,0.0,0,1169000000,bluerov2/dvl_sonar2_link,0.0,0.0,0.0,0.0,0.9999999999999998,0.0,0.9663899781345132,9.648446083068848,0.0,0.0,0.0,0,1169000000,bluerov2/dvl_sonar3_link,0.0,0.0,0.0,0.0,0.0,-0.9999999999999998,0.9663899781345132
16625000000,138,16625000000,bluerov2/dvl_link,0.9435216167867035,-0.01855759575248811,-0.050003257714186455,0.25,0.0,0.0,0.0,0.25,0.0,0.0,0.0,0.25,25.997753143310547,81.0,0.0,0.0,0.0,0,1169000000,bluerov2/dvl_sonar0_link,0.0,0.0,0.0,0.0,-0.9999999999999998,0.0,0.9663899781345132,9.525604248046875,0.0,0.0,0.0,0,1169000000,bluerov2/dvl_sonar1_link,0.0,0.0,0.0,0.0,0.0,0.9999999999999998,0.9663899781345132,3.8055508136749268,0.0,0.0,0.0,0,1169000000,bluerov2/dvl_sonar2_link,0.0,0.0,0.0,0.0,0.9999999999999998,0.0,0.9663899781345132,9.659862518310547,0.0,0.0,0.0,0,1169000000,bluerov2/dvl_sonar3_link,0.0,0.0,0.0,0.0,0.0,-0.9999999999999998,0.9663899781345132
16737000000,139,16737000000,bluerov2/dvl_link,0.9554541907038926,0.07135131369710926,0.0513942199748894,0.25,0.0,0.0,0.0,0.25,0.0,0.0,0.0,0.25,25.939645767211914,81.0,0.0,0.0,0.0,0,1169000000,bluerov2/dvl_sonar0_link,0.0,0.0,0.0,0.0,-0.9999999999999998,0.0,0.9663899781345132,9.405685424804688,0.0,0.0,0.0,0,1169000000,bluerov2/dvl_sonar1_link,0.0,0.0,0.0,0.0,0.0,0.9999999999999998,0.9663899781345132,3.8036091327667236,0.0,0.0,0.0,0,1169000000,bluerov2/dvl_sonar2_link,0.0,0.0,0.0,0.0,0.9999999999999998,0.0,0.9663899781345132,9.549284934997559,0.0,0.0,0.0,0,1169000000,bluerov2/dvl_sonar3_link,0.0,0.0,0.0,0.0,0.0,-0.9999999999999998,0.9663899781345132
16849000000,140,16849000000,bluerov2/dvl_link,0.9846407543766552,0.08881953453090125,0.045207831145599356,0.25,0.0,0.0,0.0,0.25,0.0,0.0,0.0,0.25,25.88218116760254,81.0,0.0,0.0,0.0,0,1169000000,bluerov2/dvl_sonar0_link,0.0,0.0,0.0,0.0,-0.9999999999999998,0.0,0.9663899781345132,9.28939151763916,0.0,0.0,0.0,0,1169000000,bluerov2/dvl_sonar1_link,0.0,0.0,0.0,0.0,0.0,0.9999999999999998,0.9663899781345132,3.8047382831573486,0.0,0.0,0.0,0,1169000000,bluerov2/dvl_sonar2_link,0.0,0.0,0.0,0.0,0.9999999999999998,0.0,0.9663899781345132,9.434596061706543,0.0,0.0,0.0,0,1169000000,bluerov2/dvl_sonar3_link,0.0,0.0,0.0,0.0,0.0,-0.9999999999999998,0.9663899781345132
16961000000,141,16961000000,bluerov2/dvl_link,0.994784306306511,0.06491306960975854,-0.012349696730466358,0.25,0.0,0.0,0.0,0.25,0.0,0.0,0.0,0.25,25.820960998535156,81.0,0.0,0.0,0.0,0,1169000000,bluerov2/dvl_sonar0_link,0.0,0.0,0.0,0.0,-0.9999999999999998,0.0,0.9663899781345132,9.16674518585205,0.0,0.0,0.0,0,1169000000,bluerov2/dvl_sonar1_link,0.0,0.0,0.0,0.0,0.0,0.9999999999999998,0.9663899781345132,3.811201572418213,0.0,0.0,0.0,0,1169000000,bluerov2/dvl_sonar2_link,0.0,0.0,0.0,0.0,0.9999999999999998,0.0,0.9663899781345132,9.305891036987305,0.0,0.0,0.0,0,1169000000,bluerov2/dvl_sonar3_link,0.0,0.0,0.0,0.0,0.0,-0.9999999999999998,0.9663899781345132
17073000000,142,17073000000,bluerov2/dvl_link,0.9016921102890727,0.013709111123117476,0.03388218445043435,0.25,0.0,0.0,0.0,0.25,0.0,0.0,0.0,0.25,25.75700569152832,81.0,0.0,0.0,0.0,0,1169000000,bluerov2/dvl_sonar0_link,0.0,0.0,0.0,0.0,-0.9999999999999998,0.0,0.9663899781345132,9.04752254486084,0.0,0.0,0.0,0,1169000000,bluerov2/dvl_sonar1_link,0.0,0.0,0.0,0.0,0.0,0.9999999999999998,0.9663899781345132,3.7964494228363037,0.0,0.0,0.0,0,1169000000,bluerov2/dvl_sonar2_link,0.0,0.0,0.0,0.0,0.9999999999999998,0.0,0.9663899781345132,9.184048652648926,0.0,0.0,0.0,0,1169000000,bluerov2/dvl_sonar3_link,0.0,0.0,0.0,0.0,0.0,-0.9999999999999998,0.9663899781345132
17185000000,143,17185000000,bluerov2/dvl_link,0.8801521441993769,-0.03730274146774329,-0.049327450328558946,0.25,0.0,0.0,0.0,0.25,0.0,0.0,0.0,0.25,25.69556999206543,81.0,0.0,0.0,0.0,0,1169000000,bluerov2/dvl_sonar0_link,0.0,0.0,0.0,0.0,-0.9999999999999998,0.0,0.9663899781345132,8.919072151184082,0.0,0.0,0.0,0,1169000000,bluerov2/dvl_sonar1_link,0.0,0.0,0.0,0.0,0.0,0.9999999999999998,0.9663899781345132,3.8054962158203125,0.0,0.0,0.0,0,1169000000,bluerov2/dvl_sonar2_link,0.0,0.0,0.0,0.0,0.9999999999999998,0.0,0.9663899781345132,9.057711601257324,0.0,0.0,0.0,0,1169000000,bluerov2/dvl_sonar3_link,0.0,0.0,0.0,0.0,0.0,-0.9999999999999998,0.9663899781345132
17297000000,144,17297000000,bluerov2/dvl_link,1.046049655416245,-0.017604063044759574,-0.06241882744754032,0.25,0.0,0.0,0.0,0.25,0.0,0.0,0.0,0.25,25.637361526489258,81.0,0.0,0.0,0.0,0,1169000000,bluerov2/dvl_sonar0_link,0.0,0.0,0.0,0.0,-0.9999999999999998,0.0,0.9663899781345132,8.808892250061035,0.0,0.0,0.0,0,1169000000,bluerov2/dvl_sonar1_link,0.0,0.0,0.0,0.0,0.0,0.9999999999999998,0.9663899781345132,3.8061723709106445,0.0,0.0,0.0,0,1169000000,bluerov2/dvl_sonar2_link,0.0,0.0,0.0,0.0,0.9999999999999998,0.0,0.9663899781345132,8.934382438659668,0.0,0.0,0.0,0,1169000000,bluerov2/dvl_sonar3_link,0.0,0.0,0.0,0.0,0.0,-0.9999999999999998,0.9663899781345132
17409000000,145,17409000000,bluerov2/dvl_link,0.9729665353547042,0.05379505897669333,-0.04257232111017041,0.25,0.0,0.0,0.0,0.25,0.0,0.0,0.0,0.25,25.572019577026367,81.0,0.0,0.0,0.0,0,1169000000,bluerov2/dvl_sonar0_link,0.0,0.0,0.0,0.0,-0.9999999999999998,0.0,0.9663899781345132,8.66791820526123,0.0,0.0,0.0,0,1169000000,bluerov2/dvl_sonar1_link,0.0,0.0,0.0,0.0,0.0,0.9999999999999998,0.9663899781345132,3.8063344955444336,0.0,0.0,0.0,0,1169000000,bluerov2/dvl_sonar2_link,0.0,0.0,0.0,0.0,0.9999999999999998,0.0,0.9663899781345132,8.813824653625488,0.0,0.0,0.0,0,1169000000,bluerov2/dvl_sonar3_link,0.0,0.0,0.0,0.0,0.0,-0.9999999999999998,0.9663899781345132
17521000000,146,17521000000,bluerov2/dvl_link,1.0841658033280894,-0.020137088225459978,0.03992098830623659,0.25,0.0,0.0,0.0,0.25,0.0,0.0,0.0,0.25,25.511280059814453,81.0,0.0,0.0,0.0,0,1169000000,bluerov2/dvl_sonar0_link,0.0,0.0,0.0,0.0,-0.9999999999999998,0.0,0.9663899781345132,8.55125617980957,0.0,0.0,0.0,0,1169000000,bluerov2/dvl_sonar1_link,0.0,0.0,0.0,0.0,0.0,0.9999999999999998,0.9663899781345132,3.8033735752105713,0.0,0.0,0.0,0,1169000000,bluerov2/dvl_sonar2_link,0.0,0.0,0.0,0.0,0.9999999999999998,0.0,0.9663899781345132,8.690494537353516,0.0,0.0,0.0,0,1169000000,bluerov2/dvl_sonar3_link,0.0,0.0,0.0,0.0,0.0,-0.9999999999999998,0.9663899781345132
17633000000,147,17633000000,bluerov2/dvl_link,0.9210540778115233,0.0019973536069216834,0.02513686159695152,0.25,0.0,0.0,0.0,0.25,0.0,0.0,0.0,0.25,25.451919555664062,81.0,0.0,0.0,0.0,0,1169000000,bluerov2/dvl_sonar0_link,0.0,0.0,0.0,0.0,-0.9999999999999998,0.0,0.9663899781345132,8.438146591186523,0.0,0.0,0.0,0,1169000000,bluerov2/dvl_sonar1_link,0.0,0.0,0.0,0.0,0.0,0.9999999999999998,0.9663899781345132,3.800751209259033,0.0,0.0,0.0,0,1169000000,bluerov2/dvl_sonar2_link,0.0,0.0,0.0,0.0,0.9999999999999998,0.0,0.9663899781345132,8.568775177001953,0.0,0.0,0.0,0,1169000000,bluerov2/dvl_sonar3_link,0.0,0.0,0.0,0.0,0.0,-0.9999999999999998,0.9663899781345132
17745000000,148,17745000000,bluerov2/dvl_link,1.0155453335711055,0.08287868234504064,-0.09736399661954245,0.25,0.0,0.0,0.0,0.25,0.0,0.0,0.0,0.25,25.383453369140625,81.0,0.0,0.0,0.0,0,1169000000,bluerov2/dvl_sonar0_link,0.0,0.0,0.0,0.0,-0.9999999999999998,0.0,0.9663899781345132,8.3006010055542,0.0,0.0,0.0,0,1169000000,bluerov2/dvl_sonar1_link,0.0,0.0,0.0,0.0,0.0,0.9999999999999998,0.9663899781345132,3.8040413856506348,0.0,0.0,0.0,0,1169000000,bluerov2/dvl_sonar2_link,0.0,0.0,0.0,0.0,0.9999999999999998,0.0,0.9663899781345132,8.429176330566406,0.0,0.0,0.0,0,1169000000,bluerov2/dvl_sonar3_link,0.0,0.0,0.0,0.0,0.0,-0.9999999999999998,0.9663899781345132
17857000000,149,17857000000,bluerov2/dvl_link,1.0148991908999185,-0.007221578219500806,-0.12402558375955983,0.25,0.0,0.0,0.0,0.25,0.0,0.0,0.0,0.25,25.319866180419922,81.0,0.0,0.0,0.0,0,1169000000,bluerov2/dvl_sonar0_link,0.0,0.0,0.0,0.0,-0.9999999999999998,0.0,0.9663899781345132,8.17963981628418,0.0,0.0,0.0,0,1169000000,bluerov2/dvl_sonar1_link,0.0,0.0,0.0,0.0,0.0,0.9999999999999998,0.9663899781345132,3.8018224239349365,0.0,0.0,0.0,0,1169000000,bluerov2/dvl_sonar2_link,0.0,0.0,0.0,0.0,0.9999999999999998,0.0,0.9663899781345132,8.29800033569336,0.0,0.0,0.0,0,1169000000,bluerov2/dvl_sonar3_link,0.0,0.0,0.0,0.0,0.0,-0.9999999999999998,0.9663899781345132
17969000000,150,17969000000,bluerov2/dvl_link,0.9143009655912301,0.08475784387118544,0.035608650941120486,0.25,0.0,0.0,0.0,0.25,0.0,0.0,0.0,0.25,25.250415802001953,81.0,0.0,0.0,0.0,0,1169000000,bluerov2/dvl_sonar0_link,0.0,0.0,0.0,0.0,-0.9999999999999998,0.0,0.9663899781345132,8.044272422790527,0.0,0.0,0.0,0,1169000000,bluerov2/dvl_sonar1_link,0.0,0.0,0.0,0.0,0.0,0.9999999999999998,0.9663899781345132,3.803288698196411,0.0,0.0,0.0,0,1169000000,bluerov2/dvl_sonar2_link,0.0,0.0,0.0,0.0,0.9999999999999998,0.0,0.9663899781345132,8.154095649719238,0.0,0.0,0.0,0,1169000000,bluerov2/dvl_sonar3_link,0.0,0.0,0.0,0.0,0.0,-0.9999999999999998,0.9663899781345132
18081000000,151,18081000000,bluerov2/dvl_link,1.0001085866009711,-0.1136132539261607,-0.052635308221523194,0.25,0.0,0.0,0.0,0.25,0.0,0.0,0.0,0.25,25.186203002929688,81.0,0.0,0.0,0.0,0,1169000000,bluerov2/dvl_sonar0_link,0.0,0.0,0.0,0.0,-0.9999999999999998,0.0,0.9663899781345132,7.927409648895264,0.0,0.0,0.0,0,1169000000,bluerov2/dvl_sonar1_link,0.0,0.0,0.0,0.0,0.0,0.9999999999999998,0.9663899781345132,3.798577308654785,0.0,0.0,0.0,0,1169000000,bluerov2/dvl_sonar2_link,0.0,0.0,0.0,0.0,0.9999999999999998,0.0,0.9663899781345132,8.018828392028809,0.0,0.0,0.0,0,1169000000,bluerov2/dvl_sonar3_link,0.0,0.0,0.0,0.0,0.0,-0.9999999999999998,0.9663899781345132
18193000000,152,18193000000,bluerov2/dvl_link,1.0154840779321603,0.02808503037819924,0.03176101760167286,0.25,0.0,0.0,0.0,0.25,0.0,0.0,0.0,0.25,25.1254825592041,81.0,0.0,0.0,0.0,0,1169000000,bluerov2/dvl_sonar0_link,0.0,0.0,0.0,0.0,-0.9999999999999998,0.0,0.9663899781345132,7.824321269989014,0.0,0.0,0.0,0,1169000000,bluerov2/dvl_sonar1_link,0.0,0.0,0.0,0.0,0.0,0.9999999999999998,0.9663899781345132,3.80031156539917,0.0,0.0,0.0,0,1169000000,bluerov2/dvl_sonar2_link,0.0,0.0,0.0,0.0,0.9999999999999998,0.0,0.9663899781345132,7.877301216125488,0.0,0.0,0.0,0,1169000000,bluerov2/dvl_sonar3_link,0.0,0.0,0.0,0.0,0.0,-0.9999999999999998,0.9663899781345132
18305000000,153,18305000000,bluerov2/dvl_link,1.0510633682782415,-0.07613159336078984,0.009083308401676758,0.25,0.0,0.0,0.0,0.25,0.0,0.0,0.0,0.25,25.0615291595459,81.0,0.0,0.0,0.0,0,1169000000,bluerov2/dvl_sonar0_link,0.0,0.0,0.0,0.0,-0.9999999999999998,0.0,0.9663899781345132,7.707550525665283,0.0,0.0,0.0,0,1169000000,bluerov2/dvl_sonar1_link,0.0,0.0,0.0,0.0,0.0,0.9999999999999998,0.9663899781345132,3.8099801540374756,0.0,0.0,0.0,0,1169000000,bluerov2/dvl_sonar2_link,0.0,0.0,0.0,0.0,0.9999999999999998,0.0,0.9663899781345132,7.728582859039307,0.0,0.0,0.0,0,1169000000,bluerov2/dvl_sonar3_link,0.0,0.0,0.0,0.0,0.0,-0.9999999999999998,0.9663899781345132
18417000000,154,18417000000,bluerov2/dvl_link,1.0446306748762146,-0.09212222874949495,0.08645237112966811,0.25,0.0,0.0,0.0,0.25,0.0,0.0,0.0,0.25,24.995372772216797,81.0,0.0,0.0,0.0,0,1169000000,bluerov2/dvl_sonar0_link,0.0,0.0,0.0,0.0,-0.9999999999999998,0.0,0.9663899781345132,7.605273723602295,0.0,0.0,0.0,0,1169000000,bluerov2/dvl_sonar1_link,0.0,0.0,0.0,0.0,0.0,0.9999999999999998,0.9663899781345132,3.8018176555633545,0.0,0.0,0.0,0,1169000000,bluerov2/dvl_sonar2_link,0.0,0.0,0.0,0.0,0.9999999999999998,0.0,0.9663899781345132,7.574401378631592,0.0,0.0,0.0,0,1169000000,bluerov2/dvl_sonar3_link,0.0,0.0,0.0,0.0,0.0,-0.9999999999999998,0.9663899781345132
18529000000,155,18529000000,bluerov2/dvl_link,1.0058397784309545,-0.06000800030553993,0.015261684034389043,0.25,0.0,0.0,0.0,0.25,0.0,0.0,0.0,0.25,24.932567596435547,81.0,0.0,0.0,0.0,0,1169000000,bluerov2/dvl_sonar0_link,0.0,0.0,0.0,0.0,-0.9999999999999998,0.0,0.9663899781345132,7.493628978729248,0.0,0.0,0.0,0,1169000000,bluerov2/dvl_sonar1_link,0.0,0.0,0.0,0.0,0.0,0.9999999999999998,0.9663899781345132,3.8103597164154053,0.0,0.0,0.0,0,1169000000,bluerov2/dvl_sonar2_link,0.0,0.0,0.0,0.0,0.9999999999999998,0.0,0.9663899781345132,7.426286220550537,0.0,0.0,0.0,0,1169000000,bluerov2/dvl_sonar3_link,0.0,0.0,0.0,0.0,0.0,-0.9999999999999998,0.9663899781345132
18641000000,156,18641000000,bluerov2/dvl_link,1.0762500101215662,-0.013784255838888794,-0.05894012725992112,0.25,0.0,0.0,0.0,0.25,0.0,0.0,0.0,0.25,24.86405372619629,81.0,0.0,0.0,0.0,0,1169000000,bluerov2/dvl_sonar0_link,0.0,0.0,0.0,0.0,-0.9999999999999998,0.0,0.9663899781345132,7.379733085632324,0.0,0.0,0.0,0,1169000000,bluerov2/dvl_sonar1_link,0.0,0.0,0.0,0.0,0.0,0.9999999999999998,0.9663899781345132,3.8097681999206543,0.0,0.0,0.0,0,1169000000,bluerov2/dvl_sonar2_link,0.0,0.0,0.0,0.0,0.9999999999999998,0.0,0.9663899781345132,7.2667155265808105,0.0,0.0,0.0,0,1169000000,bluerov2/dvl_sonar3_link,0.0,0.0,0.0,0.0,0.0,-0.9999999999999998,0.9663899781345132
18753000000,157,18753000000,bluerov2/dvl_link,0.9919476933162654,0.06329848742953631,-0.05601498527476914,0.25,0.0,0.0,0.0,0.25,0.0,0.0,0.0,0.25,24.797292709350586,81.0,0.0,0.0,0.0,0,1169000000,bluerov2/dvl_sonar0_link,0.0,0.0,0.0,0.0,-0.9999999999999998,0.0,0.9663899781345132,7.272287368774414,0.0,0.0,0.0,0,1169000000,bluerov2/dvl_sonar1_link,0.0,0.0,0.0,0.0,0.0,0.9999999999999998,0.9663899781345132,3.8029513359069824,0.0,0.0,0.0,0,1169000000,bluerov2/dvl_sonar2_link,0.0,0.0,0.0,0.0,0.9999999999999998,0.0,0.9663899781345132,7.11393404006958,0.0,0.0,0.0,0,1169000000,bluerov2/dvl_sonar3_link,0.0,0.0,0.0,0.0,0.0,-0.9999999999999998,0.9663899781345132
18865000000,158,18865000000,bluerov2/dvl_link,0.9624581863218966,-0.05548228133252518,-0.000762580196484,0.25,0.0,0.0,0.0,0.25,0.0,0.0,0.0,0.25,24.735010147094727,81.0,0.0,0.0,0.0,0,1169000000,bluerov2/dvl_sonar0_link,0.0,0.0,0.0,0.0,-0.9999999999999998,0.0,0.9663899781345132,7.1683783531188965,0.0,0.0,0.0,0,1169000000,bluerov2/dvl_sonar1_link,0.0,0.0,0.0,0.0,0.0,0.9999999999999998,0.9663899781345132,3.7962725162506104,0.0,0.0,0.0,0,1169000000,bluerov2/dvl_sonar2_link,0.0,0.0,0.0,0.0,0.9999999999999998,0.0,0.9663899781345132,6.9753851890563965,0.0,0.0,0.0,0,1169000000,bluerov2/dvl_sonar3_link,0.0,0.0,0.0,0.0,0.0,-0.9999999999999998,0.9663899781345132
18977000000,159,18977000000,bluerov2/dvl_link,0.9031565537516049,0.043576066016433664,-0.09687855549513522,0.25,0.0,0.0,0.0,0.25,0.0,0.0,0.0,0.25,24.670228958129883,81.0,0.0,0.0,0.0,0,1169000000,bluerov2/dvl_sonar0_link,0.0,0.0,0.0,0.0,-0.9999999999999998,0.0,0.9663899781345132,7.056873321533203,0.0,0.0,0.0,0,1169000000,bluerov2/dvl_sonar1_link,0.0,0.0,0.0,0.0,0.0,0.9999999999999998,0.9663899781345132,3.8101115226745605,0.0,0.0,0.0,0,1169000000,bluerov2/dvl_sonar2_link,0.0,0.0,0.0,0.0,0.9999999999999998,0.0,0.9663899781345132,6.813935279846191,0.0,0.0,0.0,0,1169000000,bluerov2/dvl_sonar3_link,0.0,0.0,0.0,0.0,0.0,-0.9999999999999998,0.9663899781345132
19089000000,160,19089000000,bluerov2/dvl_link,1.026484043121991,-0.00538309640013248,0.03506989784598706,0.25,0.0,0.0,0.0,0.25,0.0,0.0,0.0,0.25,24.604703903198242,81.0,0.0,0.0,0.0,0,1169000000,bluerov2/dvl_sonar0_link,0.0,0.0,0.0,0.0,-0.9999999999999998,0.0,0.9663899781345132,6.957678318023682,0.0,0.0,0.0,0,1169000000,bluerov2/dvl_sonar1_link,0.0,0.0,0.0,0.0,0.0,0.9999999999999998,0.9663899781345132,3.800532341003418,0.0,0.0,0.0,0,1169000000,bluerov2/dvl_sonar2_link,0.0,0.0,0.0,0.0,0.9999999999999998,0.0,0.9663899781345132,6.660608768463135,0.0,0.0,0.0,0,1169000000,bluerov2/dvl_sonar3_link,0.0,0.0,0.0,0.0,0.0,-0.9999999999999998,0.9663899781345132
19201000000,161,19201000000,bluerov2/dvl_link,1.0175801781748508,-0.043785096865407505,-0.17094787075184456,0.25,0.0,0.0,0.0,0.25,0.0,0.0,0.0,0.25,24.54381561279297,81.0,0.0,0.0,0.0,0,1169000000,bluerov2/dvl_sonar0_link,0.0,0.0,0.0,0.0,-0.9999999999999998,0.0,0.9663899781345132,6.863232135772705,0.0,0.0,0.0,0,1169000000,bluerov2/dvl_sonar1_link,0.0,0.0,0.0,0.0,0.0,0.9999999999999998,0.9663899781345132,3.8038578033447266,0.0,0.0,0.0,0,1169000000,bluerov2/dvl_sonar2_link,0.0,0.0,0.0,0.0,0.9999999999999998,0.0,0.9663899781345132,6.508172988891602,0.0,0.0,0.0,0,1169000000,bluerov2/dvl_sonar3_link,0.0,0.0,0.0,0.0,0.0,-0.9999999999999998,0.9663899781345132
19313000000,162,19313000000,bluerov2/dvl_link,1.0011483425930492,-0.05596673183171984,0.05836986473546925,0.25,0.0,0.0,0.0,0.25,0.0,0.0,0.0,0.25,24.488100051879883,81.0,0.0,0.0,0.0,0,1169000000,bluerov2/dvl_sonar0_link,0.0,0.0,0.0,0.0,-0.9999999999999998,0.0,0.9663899781345132,6.770570755004883,0.0,0.0,0.0,0,1169000000,bluerov2/dvl_sonar1_link,0.0,0.0,0.0,0.0,0.0,0.9999999999999998,0.9663899781345132,3.8140649795532227,0.0,0.0,0.0,0,1169000000,bluerov2/dvl_sonar2_link,0.0,0.0,0.0,0.0,0.9999999999999998,0.0,0.9663899781345132,6.367767810821533,0.0,0.0,0.0,0,1169000000,bluerov2/dvl_sonar3_link,0.0,0.0,0.0,0.0,0.0,-0.9999999999999998,0.9663899781345132
19425000000,163,19425000000,bluerov2/dvl_link,0.8972283160710264,-0.055036169949362446,-0.01507131757918567,0.25,0.0,0.0,0.0,0.25,0.0,0.0,0.0,0.25,24.423124313354492,81.0,0.0,0.0,0.0,0,1169000000,bluerov2/dvl_sonar0_link,0.0,0.0,0.0,0.0,-0.9999999999999998,0.0,0.9663899781345132,6.673817157745361,0.0,0.0,0.0,0,1169000000,bluerov2/dvl_sonar1_link,0.0,0.0,0.0,0.0,0.0,0.9999999999999998,0.9663899781345132,3.8073668479919434,0.0,0.0,0.0,0,1169000000,bluerov2/dvl_sonar2_link,0.0,0.0,0.0,0.0,0.9999999999999998,0.0,0.9663899781345132,6.211313724517822,0.0,0.0,0.0,0,1169000000,bluerov2/dvl_sonar3_link,0.0,0.0,0.0,0.0,0.0,-0.9999999999999998,0.9663899781345132
19537000000,164,19537000000,bluerov2/dvl_link,1.0313603841166932,-0.05195595225802804,0.04030414740201842,0.25,0.0,0.0,0.0,0.25,0.0,0.0,0.0,0.25,24.366504669189453,81.0,0.0,0.0,0.0,0,1169000000,bluerov2/dvl_sonar0_link,0.0,0.0,0.0,0.0,-0.9999999999999998,0.0,0.9663899781345132,6.598526954650879,0.0,0.0,0.0,0,1169000000,bluerov2/dvl_sonar1_link,0.0,0.0,0.0,0.0,0.0,0.9999999999999998,0.9663899781345132,3.805844783782959,0.0,0.0,0.0,0,1169000000,bluerov2/dvl_sonar2_link,0.0,0.0,0.0,0.0,0.9999999999999998,0.0,0.9663899781345132,6.061649322509766,0.0,0.0,0.0,0,1169000000,bluerov2/dvl_sonar3_link,0.0,0.0,0.0,0.0,0.0,-0.9999999999999998,0.9663899781345132
19649000000,165,19649000000,bluerov2/dvl_link,0.9603134284696381,-0.1649838702233821,0.04205811152568492,0.25,0.0,0.0,0.0,0.25,0.0,0.0,0.0,0.25,24.30575942993164,81.0,0.0,0.0,0.0,0,1169000000,bluerov2/dvl_sonar0_link,0.0,0.0,0.0,0.0,-0.9999999999999998,0.0,0.9663899781345132,6.512618064880371,0.0,0.0,0.0,0,1169000000,bluerov2/dvl_sonar1_link,0.0,0.0,0.0,0.0,0.0,0.9999999999999998,0.9663899781345132,3.8110201358795166,0.0,0.0,0.0,0,1169000000,bluerov2/dvl_sonar2_link,0.0,0.0,0.0,0.0,0.9999999999999998,0.0,0.9663899781345132,5.899397850036621,0.0,0.0,0.0,0,1169000000,bluerov2/dvl_sonar3_link,0.0,0.0,0.0,0.0,0.0,-0.9999999999999998,0.9663899781345132
19761000000,166,19761000000,bluerov2/dvl_link,0.9694663622889541,-0.08933302518053655,0.00841168509011797,0.25,0.0,0.0,0.0,0.25,0.0,0.0,0.0,0.25,24.248886108398438,81.0,0.0,0.0,0.0,0,1169000000,bluerov2/dvl_sonar0_link,0.0,0.0,0.0,0.0,-0.9999999999999998,0.0,0.9663899781345132,6.443800926208496,0.0,0.0,0.0,0,1169000000,bluerov2/dvl_sonar1_link,0.0,0.0,0.0,0.0,0.0,0.9999999999999998,0.9663899781345132,3.802334785461426,0.0,0.0,0.0,0,1169000000,bluerov2/dvl_sonar2_link,0.0,0.0,0.0,0.0,0.9999999999999998,0.0,0.9663899781345132,5.7494049072265625,0.0,0.0,0.0,0,1169000000,bluerov2/dvl_sonar3_link,0.0,0.0,0.0,0.0,0.0,-0.9999999999999998,0.9663899781345132
19873000000,167,19873000000,bluerov2/dvl_link,0.8941380400747938,-0.09988876581229984,0.11120990507739006,0.25,0.0,0.0,0.0,0.25,0.0,0.0,0.0,0.25,24.19989585876465,81.0,0.0,0.0,0.0,0,1169000000,bluerov2/dvl_sonar0_link,0.0,0.0,0.0,0.0,-0.9999999999999998,0.0,0.9663899781345132,6.386830806732178,0.0,0.0,0.0,0,1169000000,bluerov2/dvl_sonar1_link,0.0,0.0,0.0,0.0,0.0,0.9999999999999998,0.9663899781345132,3.810614824295044,0.0,0.0,0.0,0,1169000000,bluerov2/dvl_sonar2_link,0.0,0.0,0.0,0.0,0.9999999999999998,0.0,0.9663899781345132,5.60213565826416,0.0,0.0,0.0,0,1169000000,bluerov2/dvl_sonar3_link,0.0,0.0,0.0,0.0,0.0,-0.9999999999999998,0.9663899781345132
19985000000,168,19985000000,bluerov2/dvl_link,0.9267405235867606,-0.0696759328077912,0.05657681338745402,0.25,0.0,0.0,0.0,0.25,0.0,0.0,0.0,0.25,24.147768020629883,81.0,0.0,0.0,0.0,0,1169000000,bluerov2/dvl_sonar0_link,0.0,0.0,0.0,0.0,-0.9999999999999998,0.0,0.9663899781345132,6.3404340744018555,0.0,0.0,0.0,0,1169000000,bluerov2/dvl_sonar1_link,0.0,0.0,0.0,0.0,0.0,0.9999999999999998,0.9663899781345132,3.8137431144714355,0.0,0.0,0.0,0,1169000000,bluerov2/dvl_sonar2_link,0.0,0.0,0.0,0.0,0.9999999999999998,0.0,0.9663899781345132,5.436896324157715,0.0,0.0,0.0,0,1169000000,bluerov2/dvl_sonar3_link,0.0,0.0,0.0,0.0,0.0,-0.9999999999999998,0.9663899781345132
20097000000,169,20097000000,bluerov2/dvl_link,1.0350727829559805,-0.13103711062335788,0.04863505908250551,0.25,0.0,0.0,0.0,0.25,0.0,0.0,0.0,0.25,24.100601196289062,81.0,0.0,0.0,0.0,0,1169000000,bluerov2/dvl_sonar0_link,0.0,0.0,0.0,0.0,-0.9999999999999998,0.0,0.9663899781345132,6.3038201332092285,0.0,0.0,0.0,0,1169000000,bluerov2/dvl_sonar1_link,0.0,0.0,0.0,0.0,0.0,0.9999999999999998,0.9663899781345132,3.8121824264526367,0.0,0.0,0.0,0,1169000000,bluerov2/dvl_sonar2_link,0.0,0.0,0.0,0.0,0.9999999999999998,0.0,0.9663899781345132,5.286405563354492,0.0,0.0,0.0,0,1169000000,bluerov2/dvl_sonar3_link,0.0,0.0,0.0,0.0,0.0,-0.9999999999999998,0.9663899781345132
20209000000,170,20209000000,bluerov2/dvl_link,0.8402034302739468,-0.19798444753795294,-0.09487791558013717,0.25,0.0,0.0,0.0,0.25,0.0,0.0,0.0,0.25,24.059635162353516,81.0,0.0,0.0,0.0,0,1169000000,bluerov2/dvl_sonar0_link,0.0,0.0,0.0,0.0,-0.9999999999999998,0.0,0.9663899781345132,6.309101581573486,0.0,0.0,0.0,0,1169000000,bluerov2/dvl_sonar1_link,0.0,0.0,0.0,0.0,0.0,0.9999999999999998,0.9663899781345132,3.8038904666900635,0.0,0.0,0.0,0,1169000000,bluerov2/dvl_sonar2_link,0.0,0.0,0.0,0.0,0.9999999999999998,0.0,0.9663899781345132,5.125543594360352,0.0,0.0,0.0,0,1169000000,bluerov2/dvl_sonar3_link,0.0,0.0,0.0,0.0,0.0,-0.9999999999999998,0.9663899781345132
20321000000,171,20321000000,bluerov2/dvl_link,0.8371872891465374,-0.21778539991908563,0.04315871411643514,0.25,0.0,0.0,0.0,0.25,0.0,0.0,0.0,0.25,24.02573013305664,81.0,0.0,0.0,0.0,0,1169000000,bluerov2/dvl_sonar0_link,0.0,0.0,0.0,0.0,-0.9999999999999998,0.0,0.9663899781345132,6.317092418670654,0.0,0.0,0.0,0,1169000000,bluerov2/dvl_sonar1_link,0.0,0.0,0.0,0.0,0.0,0.9999999999999998,0.9663899781345132,3.799487590789795,0.0,0.0,0.0,0,1169000000,bluerov2/dvl_sonar2_link,0.0,0.0,0.0,0.0,0.9999999999999998,0.0,0.9663899781345132,4.98634147644043,0.0,0.0,0.0,0,1169000000,bluerov2/dvl_sonar3_link,0.0,0.0,0.0,0.0,0.0,-0.9999999999999998,0.9663899781345132
20433000000,172,20433000000,bluerov2/dvl_link,0.8232155855488009,-0.14517008502530465,0.013060630596928576,0.25,0.0,0.0,0.0,0.25,0.0,0.0,0.0,0.25,24.002944946289062,81.0,0.0,0.0,0.0,0,1169000000,bluerov2/dvl_sonar0_link,0.0,0.0,0.0,0.0,-0.9999999999999998,0.0,0.9663899781345132,6.3685431480407715,0.0,0.0,0.0,0,1169000000,bluerov2/dvl_sonar1_link,0.0,0.0,0.0,0.0,0.0,0.9999999999999998,0.9663899781345132,3.8051764965057373,0.0,0.0,0.0,0,1169000000,bluerov2/dvl_sonar2_link,0.0,0.0,0.0,0.0,0.9999999999999998,0.0,0.9663899781345132,4.838058948516846,0.0,0.0,0.0,0,1169000000,bluerov2/dvl_sonar3_link,0.0,0.0,0.0,0.0,0.0,-0.9999999999999998,0.9663899781345132
20545000000,173,20545000000,bluerov2/dvl_link,0.8114463154228583,-0.14856086923279788,-0.043278601871024995,0.25,0.0,0.0,0.0,0.25,0.0,0.0,0.0,0.25,23.99166488647461,81.0,0.0,0.0,0.0,0,1169000000,bluerov2/dvl_sonar0_link,0.0,0.0,0.0,0.0,-0.9999999999999998,0.0,0.9663899781345132,6.460042953491211,0.0,0.0,0.0,0,1169000000,bluerov2/dvl_sonar1_link,0.0,0.0,0.0,0.0,0.0,0.9999999999999998,0.9663899781345132,3.8134076595306396,0.0,0.0,0.0,0,1169000000,bluerov2/dvl_sonar2_link,0.0,0.0,0.0,0.0,0.9999999999999998,0.0,0.9663899781345132,4.693202972412109,0.0,0.0,0.0,0,1169000000,bluerov2/dvl_sonar3_link,0.0,0.0,0.0,0.0,0.0,-0.9999999999999998,0.9663899781345132
20657000000,174,20657000000,bluerov2/dvl_link,0.7564245005141279,-0.10519672896124355,-0.056773533203998874,0.25,0.0,0.0,0.0,0.25,0.0,0.0,0.0,0.25,23.98988151550293,81.0,0.0,0.0,0.0,0,1169000000,bluerov2/dvl_sonar0_link,0.0,0.0,0.0,0.0,-0.9999999999999998,0.0,0.9663899781345132,6.598728656768799,0.0,0.0,0.0,0,1169000000,bluerov2/dvl_sonar1_link,0.0,0.0,0.0,0.0,0.0,0.9999999999999998,0.9663899781345132,3.805699110031128,0.0,0.0,0.0,0,1169000000,bluerov2/dvl_sonar2_link,0.0,0.0,0.0,0.0,0.9999999999999998,0.0,0.9663899781345132,4.555088996887207,0.0,0.0,0.0,0,1169000000,bluerov2/dvl_sonar3_link,0.0,0.0,0.0,0.0,0.0,-0.9999999999999998,0.9663899781345132
20769000000,175,20769000000,bluerov2/dvl_link,0.7859042671042547,-0.22321208034592754,0.01908431269295988,0.25,0.0,0.0,0.0,0.25,0.0,0.0,0.0,0.25,24.010480880737305,81.0,0.0,0.0,0.0,0,1169000000,bluerov2/dvl_sonar0_link,0.0,0.0,0.0,0.0,-0.9999999999999998,0.0,0.9663899781345132,6.805584907531738,0.0,0.0,0.0,0,1169000000,bluerov2/dvl_sonar1_link,0.0,0.0,0.0,0.0,0.0,0.9999999999999998,0.9663899781345132,3.7991697788238525,0.0,0.0,0.0,0,1169000000,bluerov2/dvl_sonar2_link,0.0,0.0,0.0,0.0,0.9999999999999998,0.0,0.9663899781345132,4.437166690826416,0.0,0.0,0.0,0,1169000000,bluerov2/dvl_sonar3_link,0.0,0.0,0.0,0.0,0.0,-0.9999999999999998,0.9663899781345132
