%time,field.header.seq,field.header.stamp,field.header.frame_id,field.velocity.x,field.velocity.y,field.velocity.z,field.velocity_covariance0,field.velocity_covariance1,field.velocity_covariance2,field.velocity_covariance3,field.velocity_covariance4,field.velocity_covariance5,field.velocity_covariance6,field.velocity_covariance7,field.velocity_covariance8,field.altitude,field.beams0.range,field.beams0.range_covariance,field.beams0.velocity,field.beams0.velocity_covariance,field.beams0.pose.header.seq,field.beams0.pose.header.stamp,field.beams0.pose.header.frame_id,field.beams0.pose.pose.position.x,field.beams0.pose.pose.position.y,field.beams0.pose.pose.position.z,field.beams0.pose.pose.orientation.x,field.beams0.pose.pose.orientation.y,field.beams0.pose.pose.orientation.z,field.beams0.pose.pose.orientation.w,field.beams1.range,field.beams1.range_covariance,field.beams1.velocity,field.beams1.velocity_covariance,field.beams1.pose.header.seq,field.beams1.pose.header.stamp,field.beams1.pose.header.frame_id,field.beams1.pose.pose.position.x,field.beams1.pose.pose.position.y,field.beams1.pose.pose.position.z,field.beams1.pose.pose.orientation.x,field.beams1.pose.pose.orientation.y,field.beams1.pose.pose.orientation.z,field.beams1.pose.pose.orientation.w,field.beams2.range,field.beams2.range_covariance,field.beams2.velocity,field.beams2.velocity_covariance,field.beams2.pose.header.seq,field.beams2.pose.header.stamp,field.beams2.pose.header.frame_id,field.beams2.pose.pose.position.x,field.beams2.pose.pose.position.y,field.beams2.pose.pose.position.z,field.beams2.pose.pose.orientation.x,field.beams2.pose.pose.orientation.y,field.beams2.pose.pose.orientation.z,field.beams2.pose.pose.orientation.w,field.beams3.range,field.beams3.range_covariance,field.beams3.velocity,field.beams3.velocity_covariance,field.beams3.pose.header.seq,field.beams3.pose.header.stamp,field.beams3.pose.header.frame_id,field.beams3.pose.pose.position.x,field.beams3.pose.pose.position.y,field.beams3.pose.pose.position.z,field.beams3.pose.pose.orientation.x,field.beams3.pose.pose.orientation.y,field.beams3.pose.pose.orientation.z,field.beams3.pose.pose.orientation.w
3093000000,25,3093000000,bluerov2/dvl_link,0.009957626286647462,-0.08687785703109935,0.024381618294778362,0.25,0.0,0.0,0.0,0.25,0.0,0.0,0.0,0.25,21.967565536499023,81.0,0.0,0.0,0.0,0,293000000,bluerov2/dvl_sonar0_link,0.0,0.0,0.0,0.0,-0.9999999999999998,0.0,0.9663899781345132,1.745732069015503,0.0,0.0,0.0,0,293000000,bluerov2/dvl_sonar1_link,0.0,0.0,0.0,0.0,0.0,0.9999999999999998,0.9663899781345132,3.40289306640625,0.0,0.0,0.0,0,293000000,bluerov2/dvl_sonar2_link,0.0,0.0,0.0,0.0,0.9999999999999998,0.0,0.9663899781345132,1.7216370105743408,0.0,0.0,0.0,0,293000000,bluerov2/dvl_sonar3_link,0.0,0.0,0.0,0.0,0.0,-0.9999999999999998,0.9663899781345132
3205000000,26,3205000000,bluerov2/dvl_link,0.008939384520615004,-0.28569148699320607,-0.16948271413429378,0.25,0.0,0.0,0.0,0.25,0.0,0.0,0.0,0.25,21.944351196289062,81.0,0.0,0.0,0.0,0,293000000,bluerov2/dvl_sonar0_link,0.0,0.0,0.0,0.0,-0.9999999999999998,0.0,0.9663899781345132,1.6800161600112915,0.0,0.0,0.0,0,293000000,bluerov2/dvl_sonar1_link,0.0,0.0,0.0,0.0,0.0,0.9999999999999998,0.9663899781345132,3.3996224403381348,0.0,0.0,0.0,0,293000000,bluerov2/dvl_sonar2_link,0.0,0.0,0.0,0.0,0.9999999999999998,0.0,0.9663899781345132,1.697765588760376,0.0,0.0,0.0,0,293000000,bluerov2/dvl_sonar3_link,0.0,0.0,0.0,0.0,0.0,-0.9999999999999998,0.9663899781345132
3317000000,27,3317000000,bluerov2/dvl_link,0.1109053264916976,-0.6989550840529998,-0.2035542183747863,0.25,0.0,0.0,0.0,0.25,0.0,0.0,0.0,0.25,21.85352325439453,81.0,0.0,0.0,0.0,0,293000000,bluerov2/dvl_sonar0_link,0.0,0.0,0.0,0.0,-0.9999999999999998,0.0,0.9663899781345132,1.3768672943115234,0.0,0.0,0.0,0,293000000,bluerov2/dvl_sonar1_link,0.0,0.0,0.0,0.0,0.0,0.9999999999999998,0.9663899781345132,3.4011173248291016,0.0,0.0,0.0,0,293000000,bluerov2/dvl_sonar2_link,0.0,0.0,0.0,0.0,0.9999999999999998,0.0,0.9663899781345132,1.636107325553894,0.0,0.0,0.0,0,293000000,bluerov2/dvl_sonar3_link,0.0,0.0,0.0,0.0,0.0,-0.9999999999999998,0.9663899781345132
3429000000,28,3429000000,bluerov2/dvl_link,0.5094786829125336,-1.108648507997252,-0.1346257065467925,0.25,0.0,0.0,0.0,0.25,0.0,0.0,0.0,0.25,21.64723014831543,81.0,0.0,0.0,0.0,0,293000000,bluerov2/dvl_sonar0_link,0.0,0.0,0.0,0.0,-0.9999999999999998,0.0,0.9663899781345132,0.774226188659668,0.0,0.0,0.0,0,293000000,bluerov2/dvl_sonar1_link,0.0,0.0,0.0,0.0,0.0,0.9999999999999998,0.9663899781345132,3.3998568058013916,0.0,0.0,0.0,0,293000000,bluerov2/dvl_sonar2_link,0.0,0.0,0.0,0.0,0.9999999999999998,0.0,0.9663899781345132,1.4148411750793457,0.0,0.0,0.0,0,293000000,bluerov2/dvl_sonar3_link,0.0,0.0,0.0,0.0,0.0,-0.9999999999999998,0.9663899781345132
3541000000,29,3541000000,bluerov2/dvl_link,0.36205515430584945,-1.0707549843142852,0.009895172030052558,0.25,0.0,0.0,0.0,0.25,0.0,0.0,0.0,0.25,22.279216766357422,81.0,0.0,0.0,0.0,0,293000000,bluerov2/dvl_sonar0_link,0.0,0.0,0.0,0.0,-0.9999999999999998,0.0,0.9663899781345132,0.567997395992279,0.0,0.0,0.0,0,293000000,bluerov2/dvl_sonar1_link,0.0,0.0,0.0,0.0,0.0,0.9999999999999998,0.9663899781345132,3.4705865383148193,0.0,0.0,0.0,0,293000000,bluerov2/dvl_sonar2_link,0.0,0.0,0.0,0.0,0.9999999999999998,0.0,0.9663899781345132,4.078280448913574,0.0,0.0,0.0,0,293000000,bluerov2/dvl_sonar3_link,0.0,0.0,0.0,0.0,0.0,-0.9999999999999998,0.9663899781345132
3653000000,30,3653000000,bluerov2/dvl_link,0.6462579725113204,-1.0966180238945022,-0.06364614774632613,0.25,0.0,0.0,0.0,0.25,0.0,0.0,0.0,0.25,22.08270263671875,81.0,0.0,0.0,0.0,0,293000000,bluerov2/dvl_sonar0_link,0.0,0.0,0.0,0.0,-0.9999999999999998,0.0,0.9663899781345132,3.0017502307891846,0.0,0.0,0.0,0,293000000,bluerov2/dvl_sonar1_link,0.0,0.0,0.0,0.0,0.0,0.9999999999999998,0.9663899781345132,3.7683732509613037,0.0,0.0,0.0,0,293000000,bluerov2/dvl_sonar2_link,0.0,0.0,0.0,0.0,0.9999999999999998,0.0,0.9663899781345132,0.5606887340545654,0.0,0.0,0.0,0,293000000,bluerov2/dvl_sonar3_link,0.0,0.0,0.0,0.0,0.0,-0.9999999999999998,0.9663899781345132
3765000000,31,3765000000,bluerov2/dvl_link,0.8638963176127012,-0.8375708427026533,-0.07447417572092901,0.25,0.0,0.0,0.0,0.25,0.0,0.0,0.0,0.25,22.19926643371582,81.0,0.0,0.0,0.0,0,293000000,bluerov2/dvl_sonar0_link,0.0,0.0,0.0,0.0,-0.9999999999999998,0.0,0.9663899781345132,3.0530855655670166,0.0,0.0,0.0,0,293000000,bluerov2/dvl_sonar1_link,0.0,0.0,0.0,0.0,0.0,0.9999999999999998,0.9663899781345132,3.8017213344573975,0.0,0.0,0.0,0,293000000,bluerov2/dvl_sonar2_link,0.0,0.0,0.0,0.0,0.9999999999999998,0.0,0.9663899781345132,0.9422622323036194,0.0,0.0,0.0,0,293000000,bluerov2/dvl_sonar3_link,0.0,0.0,0.0,0.0,0.0,-0.9999999999999998,0.9663899781345132
3877000000,32,3877000000,bluerov2/dvl_link,0.8972203389690406,-0.47856326653902836,0.04984467487132204,0.25,0.0,0.0,0.0,0.25,0.0,0.0,0.0,0.25,22.602935791015625,81.0,0.0,0.0,0.0,0,293000000,bluerov2/dvl_sonar0_link,0.0,0.0,0.0,0.0,-0.9999999999999998,0.0,0.9663899781345132,3.2723519802093506,0.0,0.0,0.0,0,293000000,bluerov2/dvl_sonar1_link,0.0,0.0,0.0,0.0,0.0,0.9999999999999998,0.9663899781345132,3.8005154132843018,0.0,0.0,0.0,0,293000000,bluerov2/dvl_sonar2_link,0.0,0.0,0.0,0.0,0.9999999999999998,0.0,0.9663899781345132,2.338876485824585,0.0,0.0,0.0,0,293000000,bluerov2/dvl_sonar3_link,0.0,0.0,0.0,0.0,0.0,-0.9999999999999998,0.9663899781345132
3989000000,33,3989000000,bluerov2/dvl_link,0.8372794338198717,-0.3164602992339456,0.017080282085752956,0.25,0.0,0.0,0.0,0.25,0.0,0.0,0.0,0.25,33.30933380126953,81.0,0.0,0.0,0.0,0,293000000,bluerov2/dvl_sonar0_link,0.0,0.0,0.0,0.0,-0.9999999999999998,0.0,0.9663899781345132,3.631321907043457,0.0,0.0,0.0,0,293000000,bluerov2/dvl_sonar1_link,0.0,0.0,0.0,0.0,0.0,0.9999999999999998,0.9663899781345132,3.801244020462036,0.0,0.0,0.0,0,293000000,bluerov2/dvl_sonar2_link,0.0,0.0,0.0,0.0,0.9999999999999998,0.0,0.9663899781345132,44.80475997924805,0.0,0.0,0.0,0,293000000,bluerov2/dvl_sonar3_link,0.0,0.0,0.0,0.0,0.0,-0.9999999999999998,0.9663899781345132
4101000000,34,4101000000,bluerov2/dvl_link,0.705773639110771,-0.0674351069353393,-0.05672601535529897,0.25,0.0,0.0,0.0,0.25,0.0,0.0,0.0,0.25,33.03824996948242,81.0,0.0,0.0,0.0,0,293000000,bluerov2/dvl_sonar0_link,0.0,0.0,0.0,0.0,-0.9999999999999998,0.0,0.9663899781345132,1.7340577840805054,0.0,0.0,0.0,0,293000000,bluerov2/dvl_sonar1_link,0.0,0.0,0.0,0.0,0.0,0.9999999999999998,0.9663899781345132,3.7968947887420654,0.0,0.0,0.0,0,293000000,bluerov2/dvl_sonar2_link,0.0,0.0,0.0,0.0,0.9999999999999998,0.0,0.9663899781345132,45.622047424316406,0.0,0.0,0.0,0,293000000,bluerov2/dvl_sonar3_link,0.0,0.0,0.0,0.0,0.0,-0.9999999999999998,0.9663899781345132
4213000000,35,4213000000,bluerov2/dvl_link,0.8036582157027911,0.10774344391399489,-0.06587455398349287,0.25,0.0,0.0,0.0,0.25,0.0,0.0,0.0,0.25,33.41598892211914,81.0,0.0,0.0,0.0,0,293000000,bluerov2/dvl_sonar0_link,0.0,0.0,0.0,0.0,-0.9999999999999998,0.0,0.9663899781345132,1.5075702667236328,0.0,0.0,0.0,0,293000000,bluerov2/dvl_sonar1_link,0.0,0.0,0.0,0.0,0.0,0.9999999999999998,0.9663899781345132,3.8063061237335205,0.0,0.0,0.0,0,293000000,bluerov2/dvl_sonar2_link,0.0,0.0,0.0,0.0,0.9999999999999998,0.0,0.9663899781345132,47.35008239746094,0.0,0.0,0.0,0,293000000,bluerov2/dvl_sonar3_link,0.0,0.0,0.0,0.0,0.0,-0.9999999999999998,0.9663899781345132
4325000000,36,4325000000,bluerov2/dvl_link,0.7519327724048142,0.15325055707762045,0.0036469851138915613,0.25,0.0,0.0,0.0,0.25,0.0,0.0,0.0,0.25,33.29881286621094,81.0,0.0,0.0,0.0,0,293000000,bluerov2/dvl_sonar0_link,0.0,0.0,0.0,0.0,-0.9999999999999998,0.0,0.9663899781345132,1.6528934240341187,0.0,0.0,0.0,0,293000000,bluerov2/dvl_sonar1_link,0.0,0.0,0.0,0.0,0.0,0.9999999999999998,0.9663899781345132,3.809904098510742,0.0,0.0,0.0,0,293000000,bluerov2/dvl_sonar2_link,0.0,0.0,0.0,0.0,0.9999999999999998,0.0,0.9663899781345132,46.732452392578125,0.0,0.0,0.0,0,293000000,bluerov2/dvl_sonar3_link,0.0,0.0,0.0,0.0,0.0,-0.9999999999999998,0.9663899781345132
4437000000,37,4437000000,bluerov2/dvl_link,0.5982012517440173,0.169358740147308,-0.01818278012522481,0.25,0.0,0.0,0.0,0.25,0.0,0.0,0.0,0.25,31.94028091430664,81.0,0.0,0.0,0.0,0,293000000,bluerov2/dvl_sonar0_link,0.0,0.0,0.0,0.0,-0.9999999999999998,0.0,0.9663899781345132,2.026947021484375,0.0,0.0,0.0,0,293000000,bluerov2/dvl_sonar1_link,0.0,0.0,0.0,0.0,0.0,0.9999999999999998,0.9663899781345132,3.8079516887664795,0.0,0.0,0.0,0,293000000,bluerov2/dvl_sonar2_link,0.0,0.0,0.0,0.0,0.9999999999999998,0.0,0.9663899781345132,40.92622375488281,0.0,0.0,0.0,0,293000000,bluerov2/dvl_sonar3_link,0.0,0.0,0.0,0.0,0.0,-0.9999999999999998,0.9663899781345132
4549000000,38,4549000000,bluerov2/dvl_link,0.6534779465961411,0.15090393133444102,0.08363029598087364,0.25,0.0,0.0,0.0,0.25,0.0,0.0,0.0,0.25,32.37909698486328,81.0,0.0,0.0,0.0,0,293000000,bluerov2/dvl_sonar0_link,0.0,0.0,0.0,0.0,-0.9999999999999998,0.0,0.9663899781345132,7.114190101623535,0.0,0.0,0.0,0,293000000,bluerov2/dvl_sonar1_link,0.0,0.0,0.0,0.0,0.0,0.9999999999999998,0.9663899781345132,3.813352108001709,0.0,0.0,0.0,0,293000000,bluerov2/dvl_sonar2_link,0.0,0.0,0.0,0.0,0.9999999999999998,0.0,0.9663899781345132,37.58884048461914,0.0,0.0,0.0,0,293000000,bluerov2/dvl_sonar3_link,0.0,0.0,0.0,0.0,0.0,-0.9999999999999998,0.9663899781345132
4661000000,39,4661000000,bluerov2/dvl_link,0.5421226877548124,0.15955790476463874,0.021857838538171498,0.25,0.0,0.0,0.0,0.25,0.0,0.0,0.0,0.25,27.396135330200195,81.0,0.0,0.0,0.0,0,293000000,bluerov2/dvl_sonar0_link,0.0,0.0,0.0,0.0,-0.9999999999999998,0.0,0.9663899781345132,7.720523357391357,0.0,0.0,0.0,0,293000000,bluerov2/dvl_sonar1_link,0.0,0.0,0.0,0.0,0.0,0.9999999999999998,0.9663899781345132,3.8088839054107666,0.0,0.0,0.0,0,293000000,bluerov2/dvl_sonar2_link,0.0,0.0,0.0,0.0,0.9999999999999998,0.0,0.9663899781345132,17.05513572692871,0.0,0.0,0.0,0,293000000,bluerov2/dvl_sonar3_link,0.0,0.0,0.0,0.0,0.0,-0.9999999999999998,0.9663899781345132
4773000000,40,4773000000,bluerov2/dvl_link,0.5372398241825369,0.1725512557955615,-0.06933451897771135,0.25,0.0,0.0,0.0,0.25,0.0,0.0,0.0,0.25,32.03328323364258,81.0,0.0,0.0,0.0,0,293000000,bluerov2/dvl_sonar0_link,0.0,0.0,0.0,0.0,-0.9999999999999998,0.0,0.9663899781345132,7.9022417068481445,0.0,0.0,0.0,0,293000000,bluerov2/dvl_sonar1_link,0.0,0.0,0.0,0.0,0.0,0.9999999999999998,0.9663899781345132,3.8052921295166016,0.0,0.0,0.0,0,293000000,bluerov2/dvl_sonar2_link,0.0,0.0,0.0,0.0,0.9999999999999998,0.0,0.9663899781345132,35.425601959228516,0.0,0.0,0.0,0,293000000,bluerov2/dvl_sonar3_link,0.0,0.0,0.0,0.0,0.0,-0.9999999999999998,0.9663899781345132
4885000000,41,4885000000,bluerov2/dvl_link,0.6260690966549287,0.06050713320938137,-0.02377056308001205,0.25,0.0,0.0,0.0,0.25,0.0,0.0,0.0,0.25,32.06279373168945,81.0,0.0,0.0,0.0,0,293000000,bluerov2/dvl_sonar0_link,0.0,0.0,0.0,0.0,-0.9999999999999998,0.0,0.9663899781345132,7.829623699188232,0.0,0.0,0.0,0,293000000,bluerov2/dvl_sonar1_link,0.0,0.0,0.0,0.0,0.0,0.9999999999999998,0.9663899781345132,3.80379319190979,0.0,0.0,0.0,0,293000000,bluerov2/dvl_sonar2_link,0.0,0.0,0.0,0.0,0.9999999999999998,0.0,0.9663899781345132,35.617759704589844,0.0,0.0,0.0,0,293000000,bluerov2/dvl_sonar3_link,0.0,0.0,0.0,0.0,0.0,-0.9999999999999998,0.9663899781345132
4997000000,42,4997000000,bluerov2/dvl_link,0.55267387508811,0.09881921282606763,-0.08699148535841489,0.25,0.0,0.0,0.0,0.25,0.0,0.0,0.0,0.25,32.116451263427734,81.0,0.0,0.0,0.0,0,293000000,bluerov2/dvl_sonar0_link,0.0,0.0,0.0,0.0,-0.9999999999999998,0.0,0.9663899781345132,7.670412063598633,0.0,0.0,0.0,0,293000000,bluerov2/dvl_sonar1_link,0.0,0.0,0.0,0.0,0.0,0.9999999999999998,0.9663899781345132,3.807807683944702,0.0,0.0,0.0,0,293000000,bluerov2/dvl_sonar2_link,0.0,0.0,0.0,0.0,0.9999999999999998,0.0,0.9663899781345132,35.987586975097656,0.0,0.0,0.0,0,293000000,bluerov2/dvl_sonar3_link,0.0,0.0,0.0,0.0,0.0,-0.9999999999999998,0.9663899781345132
5109000000,43,5109000000,bluerov2/dvl_link,0.6520714640816273,0.14801984119169717,-0.025369753108681187,0.25,0.0,0.0,0.0,0.25,0.0,0.0,0.0,0.25,32.18570327758789,81.0,0.0,0.0,0.0,0,293000000,bluerov2/dvl_sonar0_link,0.0,0.0,0.0,0.0,-0.9999999999999998,0.0,0.9663899781345132,7.501978397369385,0.0,0.0,0.0,0,293000000,bluerov2/dvl_sonar1_link,0.0,0.0,0.0,0.0,0.0,0.9999999999999998,0.9663899781345132,3.807394504547119,0.0,0.0,0.0,0,293000000,bluerov2/dvl_sonar2_link,0.0,0.0,0.0,0.0,0.9999999999999998,0.0,0.9663899781345132,36.43343734741211,0.0,0.0,0.0,0,293000000,bluerov2/dvl_sonar3_link,0.0,0.0,0.0,0.0,0.0,-0.9999999999999998,0.9663899781345132
5221000000,44,5221000000,bluerov2/dvl_link,0.6797147232406912,0.16328837031618604,-0.078931520910714,0.25,0.0,0.0,0.0,0.25,0.0,0.0,0.0,0.25,32.25669860839844,81.0,0.0,0.0,0.0,0,293000000,bluerov2/dvl_sonar0_link,0.0,0.0,0.0,0.0,-0.9999999999999998,0.0,0.9663899781345132,7.33784818649292,0.0,0.0,0.0,0,293000000,bluerov2/dvl_sonar1_link,0.0,0.0,0.0,0.0,0.0,0.9999999999999998,0.9663899781345132,3.8052990436553955,0.0,0.0,0.0,0,293000000,bluerov2/dvl_sonar2_link,0.0,0.0,0.0,0.0,0.9999999999999998,0.0,0.9663899781345132,36.88365936279297,0.0,0.0,0.0,0,293000000,bluerov2/dvl_sonar3_link,0.0,0.0,0.0,0.0,0.0,-0.9999999999999998,0.9663899781345132
5333000000,45,5333000000,bluerov2/dvl_link,0.7519319982701687,0.18510745001929885,-0.08605533759275097,0.25,0.0,0.0,0.0,0.25,0.0,0.0,0.0,0.25,32.329261779785156,81.0,0.0,0.0,0.0,0,293000000,bluerov2/dvl_sonar0_link,0.0,0.0,0.0,0.0,-0.9999999999999998,0.0,0.9663899781345132,7.19624662399292,0.0,0.0,0.0,0,293000000,bluerov2/dvl_sonar1_link,0.0,0.0,0.0,0.0,0.0,0.9999999999999998,0.9663899781345132,3.807464361190796,0.0,0.0,0.0,0,293000000,bluerov2/dvl_sonar2_link,0.0,0.0,0.0,0.0,0.9999999999999998,0.0,0.9663899781345132,37.31333923339844,0.0,0.0,0.0,0,293000000,bluerov2/dvl_sonar3_link,0.0,0.0,0.0,0.0,0.0,-0.9999999999999998,0.9663899781345132
5445000000,46,5445000000,bluerov2/dvl_link,0.7137302085931048,0.03516279525591139,0.025852226573406797,0.25,0.0,0.0,0.0,0.25,0.0,0.0,0.0,0.25,32.401363372802734,81.0,0.0,0.0,0.0,0,293000000,bluerov2/dvl_sonar0_link,0.0,0.0,0.0,0.0,-0.9999999999999998,0.0,0.9663899781345132,7.054983615875244,0.0,0.0,0.0,0,293000000,bluerov2/dvl_sonar1_link,0.0,0.0,0.0,0.0,0.0,0.9999999999999998,0.9663899781345132,3.7980458736419678,0.0,0.0,0.0,0,293000000,bluerov2/dvl_sonar2_link,0.0,0.0,0.0,0.0,0.9999999999999998,0.0,0.9663899781345132,37.7524299621582,0.0,0.0,0.0,0,293000000,bluerov2/dvl_sonar3_link,0.0,0.0,0.0,0.0,0.0,-0.9999999999999998,0.9663899781345132
5557000000,47,5557000000,bluerov2/dvl_link,0.8082693095275415,0.13439368500297602,-0.006192643766018297,0.25,0.0,0.0,0.0,0.25,0.0,0.0,0.0,0.25,32.475730895996094,81.0,0.0,0.0,0.0,0,293000000,bluerov2/dvl_sonar0_link,0.0,0.0,0.0,0.0,-0.9999999999999998,0.0,0.9663899781345132,6.931724548339844,0.0,0.0,0.0,0,293000000,bluerov2/dvl_sonar1_link,0.0,0.0,0.0,0.0,0.0,0.9999999999999998,0.9663899781345132,3.8033363819122314,0.0,0.0,0.0,0,293000000,bluerov2/dvl_sonar2_link,0.0,0.0,0.0,0.0,0.9999999999999998,0.0,0.9663899781345132,38.16785430908203,0.0,0.0,0.0,0,293000000,bluerov2/dvl_sonar3_link,0.0,0.0,0.0,0.0,0.0,-0.9999999999999998,0.9663899781345132
5669000000,48,5669000000,bluerov2/dvl_link,0.9300417960895391,0.0770311929292924,-0.027414998203337173,0.25,0.0,0.0,0.0,0.25,0.0,0.0,0.0,0.25,32.53911590576172,81.0,0.0,0.0,0.0,0,293000000,bluerov2/dvl_sonar0_link,0.0,0.0,0.0,0.0,-0.9999999999999998,0.0,0.9663899781345132,6.831064224243164,0.0,0.0,0.0,0,293000000,bluerov2/dvl_sonar1_link,0.0,0.0,0.0,0.0,0.0,0.9999999999999998,0.9663899781345132,3.8000385761260986,0.0,0.0,0.0,0,293000000,bluerov2/dvl_sonar2_link,0.0,0.0,0.0,0.0,0.9999999999999998,0.0,0.9663899781345132,38.52535629272461,0.0,0.0,0.0,0,293000000,bluerov2/dvl_sonar3_link,0.0,0.0,0.0,0.0,0.0,-0.9999999999999998,0.9663899781345132
5781000000,49,5781000000,bluerov2/dvl_link,0.8575914860792838,0.06590848511254524,0.0065706278017512755,0.25,0.0,0.0,0.0,0.25,0.0,0.0,0.0,0.25,32.598663330078125,81.0,0.0,0.0,0.0,0,293000000,bluerov2/dvl_sonar0_link,0.0,0.0,0.0,0.0,-0.9999999999999998,0.0,0.9663899781345132,6.748899936676025,0.0,0.0,0.0,0,293000000,bluerov2/dvl_sonar1_link,0.0,0.0,0.0,0.0,0.0,0.9999999999999998,0.9663899781345132,3.803232431411743,0.0,0.0,0.0,0,293000000,bluerov2/dvl_sonar2_link,0.0,0.0,0.0,0.0,0.9999999999999998,0.0,0.9663899781345132,38.8425178527832,0.0,0.0,0.0,0,293000000,bluerov2/dvl_sonar3_link,0.0,0.0,0.0,0.0,0.0,-0.9999999999999998,0.9663899781345132
5893000000,50,5893000000,bluerov2/dvl_link,0.9560140596370728,0.04148202577710906,0.0015931221715142514,0.25,0.0,0.0,0.0,0.25,0.0,0.0,0.0,0.25,32.652366638183594,81.0,0.0,0.0,0.0,0,293000000,bluerov2/dvl_sonar0_link,0.0,0.0,0.0,0.0,-0.9999999999999998,0.0,0.9663899781345132,6.679793834686279,0.0,0.0,0.0,0,293000000,bluerov2/dvl_sonar1_link,0.0,0.0,0.0,0.0,0.0,0.9999999999999998,0.9663899781345132,3.800426483154297,0.0,0.0,0.0,0,293000000,bluerov2/dvl_sonar2_link,0.0,0.0,0.0,0.0,0.9999999999999998,0.0,0.9663899781345132,39.129241943359375,0.0,0.0,0.0,0,293000000,bluerov2/dvl_sonar3_link,0.0,0.0,0.0,0.0,0.0,-0.9999999999999998,0.9663899781345132
6005000000,51,6005000000,bluerov2/dvl_link,1.1353745383559317,0.09163032734569532,-0.04519737187799705,0.25,0.0,0.0,0.0,0.25,0.0,0.0,0.0,0.25,32.71125793457031,81.0,0.0,0.0,0.0,0,293000000,bluerov2/dvl_sonar0_link,0.0,0.0,0.0,0.0,-0.9999999999999998,0.0,0.9663899781345132,6.599224090576172,0.0,0.0,0.0,0,293000000,bluerov2/dvl_sonar1_link,0.0,0.0,0.0,0.0,0.0,0.9999999999999998,0.9663899781345132,3.8032736778259277,0.0,0.0,0.0,0,293000000,bluerov2/dvl_sonar2_link,0.0,0.0,0.0,0.0,0.9999999999999998,0.0,0.9663899781345132,39.44252395629883,0.0,0.0,0.0,0,293000000,bluerov2/dvl_sonar3_link,0.0,0.0,0.0,0.0,0.0,-0.9999999999999998,0.9663899781345132
6117000000,52,6117000000,bluerov2/dvl_link,1.1440086756881882,0.07301051547886814,-0.06303867639799222,0.25,0.0,0.0,0.0,0.25,0.0,0.0,0.0,0.25,32.7615852355957,81.0,0.0,0.0,0.0,0,293000000,bluerov2/dvl_sonar0_link,0.0,0.0,0.0,0.0,-0.9999999999999998,0.0,0.9663899781345132,6.544651508331299,0.0,0.0,0.0,0,293000000,bluerov2/dvl_sonar1_link,0.0,0.0,0.0,0.0,0.0,0.9999999999999998,0.9663899781345132,3.7983107566833496,0.0,0.0,0.0,0,293000000,bluerov2/dvl_sonar2_link,0.0,0.0,0.0,0.0,0.9999999999999998,0.0,0.9663899781345132,39.70337677001953,0.0,0.0,0.0,0,293000000,bluerov2/dvl_sonar3_link,0.0,0.0,0.0,0.0,0.0,-0.9999999999999998,0.9663899781345132
6229000000,53,6229000000,bluerov2/dvl_link,1.2348099408272346,0.12972150638016672,-0.05895061277897597,0.25,0.0,0.0,0.0,0.25,0.0,0.0,0.0,0.25,32.80723190307617,81.0,0.0,0.0,0.0,0,293000000,bluerov2/dvl_sonar0_link,0.0,0.0,0.0,0.0,-0.9999999999999998,0.0,0.9663899781345132,6.497412204742432,0.0,0.0,0.0,0,293000000,bluerov2/dvl_sonar1_link,0.0,0.0,0.0,0.0,0.0,0.9999999999999998,0.9663899781345132,3.8093626499176025,0.0,0.0,0.0,0,293000000,bluerov2/dvl_sonar2_link,0.0,0.0,0.0,0.0,0.9999999999999998,0.0,0.9663899781345132,39.92214584350586,0.0,0.0,0.0,0,293000000,bluerov2/dvl_sonar3_link,0.0,0.0,0.0,0.0,0.0,-0.9999999999999998,0.9663899781345132
6341000000,54,6341000000,bluerov2/dvl_link,1.082133350292622,0.06854560877585471,0.11703399361967641,0.25,0.0,0.0,0.0,0.25,0.0,0.0,0.0,0.25,32.845088958740234,81.0,0.0,0.0,0.0,0,293000000,bluerov2/dvl_sonar0_link,0.0,0.0,0.0,0.0,-0.9999999999999998,0.0,0.9663899781345132,6.451781272888184,0.0,0.0,0.0,0,293000000,bluerov2/dvl_sonar1_link,0.0,0.0,0.0,0.0,0.0,0.9999999999999998,0.9663899781345132,3.796786069869995,0.0,0.0,0.0,0,293000000,bluerov2/dvl_sonar2_link,0.0,0.0,0.0,0.0,0.9999999999999998,0.0,0.9663899781345132,40.13178634643555,0.0,0.0,0.0,0,293000000,bluerov2/dvl_sonar3_link,0.0,0.0,0.0,0.0,0.0,-0.9999999999999998,0.9663899781345132
6453000000,55,6453000000,bluerov2/dvl_link,1.1677393359703587,0.053072147330585365,0.04239298677760625,0.25,0.0,0.0,0.0,0.25,0.0,0.0,0.0,0.25,32.879634857177734,81.0,0.0,0.0,0.0,0,293000000,bluerov2/dvl_sonar0_link,0.0,0.0,0.0,0.0,-0.9999999999999998,0.0,0.9663899781345132,6.407320022583008,0.0,0.0,0.0,0,293000000,bluerov2/dvl_sonar1_link,0.0,0.0,0.0,0.0,0.0,0.9999999999999998,0.9663899781345132,3.8027429580688477,0.0,0.0,0.0,0,293000000,bluerov2/dvl_sonar2_link,0.0,0.0,0.0,0.0,0.9999999999999998,0.0,0.9663899781345132,40.3084831237793,0.0,0.0,0.0,0,293000000,bluerov2/dvl_sonar3_link,0.0,0.0,0.0,0.0,0.0,-0.9999999999999998,0.9663899781345132
6565000000,56,6565000000,bluerov2/dvl_link,1.0715560201519987,0.10317878584230687,-0.02812609867435977,0.25,0.0,0.0,0.0,0.25,0.0,0.0,0.0,0.25,32.906429290771484,81.0,0.0,0.0,0.0,0,293000000,bluerov2/dvl_sonar0_link,0.0,0.0,0.0,0.0,-0.9999999999999998,0.0,0.9663899781345132,6.393068313598633,0.0,0.0,0.0,0,293000000,bluerov2/dvl_sonar1_link,0.0,0.0,0.0,0.0,0.0,0.9999999999999998,0.9663899781345132,3.797759771347046,0.0,0.0,0.0,0,293000000,bluerov2/dvl_sonar2_link,0.0,0.0,0.0,0.0,0.9999999999999998,0.0,0.9663899781345132,40.43489074707031,0.0,0.0,0.0,0,293000000,bluerov2/dvl_sonar3_link,0.0,0.0,0.0,0.0,0.0,-0.9999999999999998,0.9663899781345132
6677000000,57,6677000000,bluerov2/dvl_link,1.185994227006959,0.09460484530307073,-0.02499653939984041,0.25,0.0,0.0,0.0,0.25,0.0,0.0,0.0,0.25,32.941566467285156,81.0,0.0,0.0,0.0,0,293000000,bluerov2/dvl_sonar0_link,0.0,0.0,0.0,0.0,-0.9999999999999998,0.0,0.9663899781345132,6.35435152053833,0.0,0.0,0.0,0,293000000,bluerov2/dvl_sonar1_link,0.0,0.0,0.0,0.0,0.0,0.9999999999999998,0.9663899781345132,3.8058416843414307,0.0,0.0,0.0,0,293000000,bluerov2/dvl_sonar2_link,0.0,0.0,0.0,0.0,0.9999999999999998,0.0,0.9663899781345132,40.606075286865234,0.0,0.0,0.0,0,293000000,bluerov2/dvl_sonar3_link,0.0,0.0,0.0,0.0,0.0,-0.9999999999999998,0.9663899781345132
6789000000,58,6789000000,bluerov2/dvl_link,1.2739996497687396,0.09272165856934302,0.03056141450130831,0.25,0.0,0.0,0.0,0.25,0.0,0.0,0.0,0.25,32.973236083984375,81.0,0.0,0.0,0.0,0,293000000,bluerov2/dvl_sonar0_link,0.0,0.0,0.0,0.0,-0.9999999999999998,0.0,0.9663899781345132,6.3220601081848145,0.0,0.0,0.0,0,293000000,bluerov2/dvl_sonar1_link,0.0,0.0,0.0,0.0,0.0,0.9999999999999998,0.9663899781345132,3.803528308868408,0.0,0.0,0.0,0,293000000,bluerov2/dvl_sonar2_link,0.0,0.0,0.0,0.0,0.9999999999999998,0.0,0.9663899781345132,40.767356872558594,0.0,0.0,0.0,0,293000000,bluerov2/dvl_sonar3_link,0.0,0.0,0.0,0.0,0.0,-0.9999999999999998,0.9663899781345132
6901000000,59,6901000000,bluerov2/dvl_link,1.1823649311882165,0.08708761325990887,-0.0433102947219189,0.25,0.0,0.0,0.0,0.25,0.0,0.0,0.0,0.25,33.00490951538086,81.0,0.0,0.0,0.0,0,293000000,bluerov2/dvl_sonar0_link,0.0,0.0,0.0,0.0,-0.9999999999999998,0.0,0.9663899781345132,6.284211158752441,0.0,0.0,0.0,0,293000000,bluerov2/dvl_sonar1_link,0.0,0.0,0.0,0.0,0.0,0.9999999999999998,0.9663899781345132,3.796914577484131,0.0,0.0,0.0,0,293000000,bluerov2/dvl_sonar2_link,0.0,0.0,0.0,0.0,0.9999999999999998,0.0,0.9663899781345132,40.938514709472656,0.0,0.0,0.0,0,293000000,bluerov2/dvl_sonar3_link,0.0,0.0,0.0,0.0,0.0,-0.9999999999999998,0.9663899781345132
7013000000,60,7013000000,bluerov2/dvl_link,1.0419727467863045,0.007860088796662938,-0.07529516951844355,0.25,0.0,0.0,0.0,0.25,0.0,0.0,0.0,0.25,33.042091369628906,81.0,0.0,0.0,0.0,0,293000000,bluerov2/dvl_sonar0_link,0.0,0.0,0.0,0.0,-0.9999999999999998,0.0,0.9663899781345132,6.25739049911499,0.0,0.0,0.0,0,293000000,bluerov2/dvl_sonar1_link,0.0,0.0,0.0,0.0,0.0,0.9999999999999998,0.9663899781345132,3.811159372329712,0.0,0.0,0.0,0,293000000,bluerov2/dvl_sonar2_link,0.0,0.0,0.0,0.0,0.9999999999999998,0.0,0.9663899781345132,41.09981155395508,0.0,0.0,0.0,0,293000000,bluerov2/dvl_sonar3_link,0.0,0.0,0.0,0.0,0.0,-0.9999999999999998,0.9663899781345132
7125000000,61,7125000000,bluerov2/dvl_link,1.1096093891439471,0.11283692129092514,-0.08825111628511505,0.25,0.0,0.0,0.0,0.25,0.0,0.0,0.0,0.25,33.0713996887207,81.0,0.0,0.0,0.0,0,293000000,bluerov2/dvl_sonar0_link,0.0,0.0,0.0,0.0,-0.9999999999999998,0.0,0.9663899781345132,6.23851203918457,0.0,0.0,0.0,0,293000000,bluerov2/dvl_sonar1_link,0.0,0.0,0.0,0.0,0.0,0.9999999999999998,0.9663899781345132,3.809936046600342,0.0,0.0,0.0,0,293000000,bluerov2/dvl_sonar2_link,0.0,0.0,0.0,0.0,0.9999999999999998,0.0,0.9663899781345132,41.237152099609375,0.0,0.0,0.0,0,293000000,bluerov2/dvl_sonar3_link,0.0,0.0,0.0,0.0,0.0,-0.9999999999999998,0.9663899781345132
7237000000,62,7237000000,bluerov2/dvl_link,1.1023612939064003,-0.0020553710895561683,0.041581313131902393,0.25,0.0,0.0,0.0,0.25,0.0,0.0,0.0,0.25,33.08915710449219,81.0,0.0,0.0,0.0,0,293000000,bluerov2/dvl_sonar0_link,0.0,0.0,0.0,0.0,-0.9999999999999998,0.0,0.9663899781345132,6.20973014831543,0.0,0.0,0.0,0,293000000,bluerov2/dvl_sonar1_link,0.0,0.0,0.0,0.0,0.0,0.9999999999999998,0.9663899781345132,3.798657178878784,0.0,0.0,0.0,0,293000000,bluerov2/dvl_sonar2_link,0.0,0.0,0.0,0.0,0.9999999999999998,0.0,0.9663899781345132,41.348243713378906,0.0,0.0,0.0,0,293000000,bluerov2/dvl_sonar3_link,0.0,0.0,0.0,0.0,0.0,-0.9999999999999998,0.9663899781345132
7349000000,63,7349000000,bluerov2/dvl_link,1.141466345384044,0.031570689921465306,-0.07561413458086944,0.25,0.0,0.0,0.0,0.25,0.0,0.0,0.0,0.25,33.10920333862305,81.0,0.0,0.0,0.0,0,293000000,bluerov2/dvl_sonar0_link,0.0,0.0,0.0,0.0,-0.9999999999999998,0.0,0.9663899781345132,6.192684650421143,0.0,0.0,0.0,0,293000000,bluerov2/dvl_sonar1_link,0.0,0.0,0.0,0.0,0.0,0.9999999999999998,0.9663899781345132,3.812260150909424,0.0,0.0,0.0,0,293000000,bluerov2/dvl_sonar2_link,0.0,0.0,0.0,0.0,0.9999999999999998,0.0,0.9663899781345132,41.43185806274414,0.0,0.0,0.0,0,293000000,bluerov2/dvl_sonar3_link,0.0,0.0,0.0,0.0,0.0,-0.9999999999999998,0.9663899781345132
7461000000,64,7461000000,bluerov2/dvl_link,1.116628887531324,0.0013981916879609035,-0.0710498246803538,0.25,0.0,0.0,0.0,0.25,0.0,0.0,0.0,0.25,33.12800598144531,81.0,0.0,0.0,0.0,0,293000000,bluerov2/dvl_sonar0_link,0.0,0.0,0.0,0.0,-0.9999999999999998,0.0,0.9663899781345132,6.175556182861328,0.0,0.0,0.0,0,293000000,bluerov2/dvl_sonar1_link,0.0,0.0,0.0,0.0,0.0,0.9999999999999998,0.9663899781345132,3.8056235313415527,0.0,0.0,0.0,0,293000000,bluerov2/dvl_sonar2_link,0.0,0.0,0.0,0.0,0.9999999999999998,0.0,0.9663899781345132,41.53084182739258,0.0,0.0,0.0,0,293000000,bluerov2/dvl_sonar3_link,0.0,0.0,0.0,0.0,0.0,-0.9999999999999998,0.9663899781345132
7573000000,65,7573000000,bluerov2/dvl_link,1.0303535307126372,0.009989325926391998,0.06401824325630004,0.25,0.0,0.0,0.0,0.25,0.0,0.0,0.0,0.25,33.14341735839844,81.0,0.0,0.0,0.0,0,293000000,bluerov2/dvl_sonar0_link,0.0,0.0,0.0,0.0,-0.9999999999999998,0.0,0.9663899781345132,6.164541244506836,0.0,0.0,0.0,0,293000000,bluerov2/dvl_sonar1_link,0.0,0.0,0.0,0.0,0.0,0.9999999999999998,0.9663899781345132,3.804506540298462,0.0,0.0,0.0,0,293000000,bluerov2/dvl_sonar2_link,0.0,0.0,0.0,0.0,0.9999999999999998,0.0,0.9663899781345132,41.6046257019043,0.0,0.0,0.0,0,293000000,bluerov2/dvl_sonar3_link,0.0,0.0,0.0,0.0,0.0,-0.9999999999999998,0.9663899781345132
7685000000,66,7685000000,bluerov2/dvl_link,1.1066633464575824,0.05340606283087376,0.11716850251709318,0.25,0.0,0.0,0.0,0.25,0.0,0.0,0.0,0.25,33.153785705566406,81.0,0.0,0.0,0.0,0,293000000,bluerov2/dvl_sonar0_link,0.0,0.0,0.0,0.0,-0.9999999999999998,0.0,0.9663899781345132,6.147070407867432,0.0,0.0,0.0,0,293000000,bluerov2/dvl_sonar1_link,0.0,0.0,0.0,0.0,0.0,0.9999999999999998,0.9663899781345132,3.7988388538360596,0.0,0.0,0.0,0,293000000,bluerov2/dvl_sonar2_link,0.0,0.0,0.0,0.0,0.9999999999999998,0.0,0.9663899781345132,41.66924285888672,0.0,0.0,0.0,0,293000000,bluerov2/dvl_sonar3_link,0.0,0.0,0.0,0.0,0.0,-0.9999999999999998,0.9663899781345132
7797000000,67,7797000000,bluerov2/dvl_link,0.9397968028441397,-0.004142119598117416,0.012022691042419313,0.25,0.0,0.0,0.0,0.25,0.0,0.0,0.0,0.25,33.169097900390625,81.0,0.0,0.0,0.0,0,293000000,bluerov2/dvl_sonar0_link,0.0,0.0,0.0,0.0,-0.9999999999999998,0.0,0.9663899781345132,6.133376598358154,0.0,0.0,0.0,0,293000000,bluerov2/dvl_sonar1_link,0.0,0.0,0.0,0.0,0.0,0.9999999999999998,0.9663899781345132,3.802525043487549,0.0,0.0,0.0,0,293000000,bluerov2/dvl_sonar2_link,0.0,0.0,0.0,0.0,0.9999999999999998,0.0,0.9663899781345132,41.740478515625,0.0,0.0,0.0,0,293000000,bluerov2/dvl_sonar3_link,0.0,0.0,0.0,0.0,0.0,-0.9999999999999998,0.9663899781345132
7909000000,68,7909000000,bluerov2/dvl_link,0.9238408800632072,0.07067621463163061,-0.05409054949825047,0.25,0.0,0.0,0.0,0.25,0.0,0.0,0.0,0.25,33.18217849731445,81.0,0.0,0.0,0.0,0,293000000,bluerov2/dvl_sonar0_link,0.0,0.0,0.0,0.0,-0.9999999999999998,0.0,0.9663899781345132,6.124171257019043,0.0,0.0,0.0,0,293000000,bluerov2/dvl_sonar1_link,0.0,0.0,0.0,0.0,0.0,0.9999999999999998,0.9663899781345132,3.8056347370147705,0.0,0.0,0.0,0,293000000,bluerov2/dvl_sonar2_link,0.0,0.0,0.0,0.0,0.9999999999999998,0.0,0.9663899781345132,41.79891586303711,0.0,0.0,0.0,0,293000000,bluerov2/dvl_sonar3_link,0.0,0.0,0.0,0.0,0.0,-0.9999999999999998,0.9663899781345132
8021000000,69,8021000000,bluerov2/dvl_link,0.8677184774484887,-0.0014226516902856312,0.00015850919683793943,0.25,0.0,0.0,0.0,0.25,0.0,0.0,0.0,0.25,33.19709777832031,81.0,0.0,0.0,0.0,0,293000000,bluerov2/dvl_sonar0_link,0.0,0.0,0.0,0.0,-0.9999999999999998,0.0,0.9663899781345132,6.117021560668945,0.0,0.0,0.0,0,293000000,bluerov2/dvl_sonar1_link,0.0,0.0,0.0,0.0,0.0,0.9999999999999998,0.9663899781345132,3.8055620193481445,0.0,0.0,0.0,0,293000000,bluerov2/dvl_sonar2_link,0.0,0.0,0.0,0.0,0.9999999999999998,0.0,0.9663899781345132,41.86580276489258,0.0,0.0,0.0,0,293000000,bluerov2/dvl_sonar3_link,0.0,0.0,0.0,0.0,0.0,-0.9999999999999998,0.9663899781345132
8133000000,70,8133000000,bluerov2/dvl_link,0.8718009279508568,-0.007035885832475171,-0.0012129054527904087,0.25,0.0,0.0,0.0,0.25,0.0,0.0,0.0,0.25,33.208763122558594,81.0,0.0,0.0,0.0,0,293000000,bluerov2/dvl_sonar0_link,0.0,0.0,0.0,0.0,-0.9999999999999998,0.0,0.9663899781345132,6.108702659606934,0.0,0.0,0.0,0,293000000,bluerov2/dvl_sonar1_link,0.0,0.0,0.0,0.0,0.0,0.9999999999999998,0.9663899781345132,3.7986156940460205,0.0,0.0,0.0,0,293000000,bluerov2/dvl_sonar2_link,0.0,0.0,0.0,0.0,0.9999999999999998,0.0,0.9663899781345132,41.927730560302734,0.0,0.0,0.0,0,293000000,bluerov2/dvl_sonar3_link,0.0,0.0,0.0,0.0,0.0,-0.9999999999999998,0.9663899781345132
8245000000,71,8245000000,bluerov2/dvl_link,0.9299112496391635,0.03581672748042321,0.011019700209447394,0.25,0.0,0.0,0.0,0.25,0.0,0.0,0.0,0.25,33.2171516418457,81.0,0.0,0.0,0.0,0,293000000,bluerov2/dvl_sonar0_link,0.0,0.0,0.0,0.0,-0.9999999999999998,0.0,0.9663899781345132,6.09857177734375,0.0,0.0,0.0,0,293000000,bluerov2/dvl_sonar1_link,0.0,0.0,0.0,0.0,0.0,0.9999999999999998,0.9663899781345132,3.8011648654937744,0.0,0.0,0.0,0,293000000,bluerov2/dvl_sonar2_link,0.0,0.0,0.0,0.0,0.9999999999999998,0.0,0.9663899781345132,41.968875885009766,0.0,0.0,0.0,0,293000000,bluerov2/dvl_sonar3_link,0.0,0.0,0.0,0.0,0.0,-0.9999999999999998,0.9663899781345132
8357000000,72,8357000000,bluerov2/dvl_link,0.9128599692600802,0.014054496268224269,0.050626787432697266,0.25,0.0,0.0,0.0,0.25,0.0,0.0,0.0,0.25,33.228172302246094,81.0,0.0,0.0,0.0,0,293000000,bluerov2/dvl_sonar0_link,0.0,0.0,0.0,0.0,-0.9999999999999998,0.0,0.9663899781345132,6.092631816864014,0.0,0.0,0.0,0,293000000,bluerov2/dvl_sonar1_link,0.0,0.0,0.0,0.0,0.0,0.9999999999999998,0.9663899781345132,3.800963878631592,0.0,0.0,0.0,0,293000000,bluerov2/dvl_sonar2_link,0.0,0.0,0.0,0.0,0.9999999999999998,0.0,0.9663899781345132,42.01910400390625,0.0,0.0,0.0,0,293000000,bluerov2/dvl_sonar3_link,0.0,0.0,0.0,0.0,0.0,-0.9999999999999998,0.9663899781345132
8469000000,73,8469000000,bluerov2/dvl_link,0.9003993362143103,-0.016659041940912903,0.02943572179222833,0.25,0.0,0.0,0.0,0.25,0.0,0.0,0.0,0.25,33.24437713623047,81.0,0.0,0.0,0.0,0,293000000,bluerov2/dvl_sonar0_link,0.0,0.0,0.0,0.0,-0.9999999999999998,0.0,0.9663899781345132,6.07916784286499,0.0,0.0,0.0,0,293000000,bluerov2/dvl_sonar1_link,0.0,0.0,0.0,0.0,0.0,0.9999999999999998,0.9663899781345132,3.8040618896484375,0.0,0.0,0.0,0,293000000,bluerov2/dvl_sonar2_link,0.0,0.0,0.0,0.0,0.9999999999999998,0.0,0.9663899781345132,42.094276428222656,0.0,0.0,0.0,0,293000000,bluerov2/dvl_sonar3_link,0.0,0.0,0.0,0.0,0.0,-0.9999999999999998,0.9663899781345132
8581000000,74,8581000000,bluerov2/dvl_link,0.9664214897243706,-0.0003581387022581761,-0.02091470039697384,0.25,0.0,0.0,0.0,0.25,0.0,0.0,0.0,0.25,33.25442886352539,81.0,0.0,0.0,0.0,0,293000000,bluerov2/dvl_sonar0_link,0.0,0.0,0.0,0.0,-0.9999999999999998,0.0,0.9663899781345132,6.056855201721191,0.0,0.0,0.0,0,293000000,bluerov2/dvl_sonar1_link,0.0,0.0,0.0,0.0,0.0,0.9999999999999998,0.9663899781345132,3.8115153312683105,0.0,0.0,0.0,0,293000000,bluerov2/dvl_sonar2_link,0.0,0.0,0.0,0.0,0.9999999999999998,0.0,0.9663899781345132,42.14934158325195,0.0,0.0,0.0,0,293000000,bluerov2/dvl_sonar3_link,0.0,0.0,0.0,0.0,0.0,-0.9999999999999998,0.9663899781345132
8693000000,75,8693000000,bluerov2/dvl_link,0.8857033120867568,0.025152735813890197,-0.014535338854589186,0.25,0.0,0.0,0.0,0.25,0.0,0.0,0.0,0.25,33.266300201416016,81.0,0.0,0.0,0.0,0,293000000,bluerov2/dvl_sonar0_link,0.0,0.0,0.0,0.0,-0.9999999999999998,0.0,0.9663899781345132,6.05532693862915,0.0,0.0,0.0,0,293000000,bluerov2/dvl_sonar1_link,0.0,0.0,0.0,0.0,0.0,0.9999999999999998,0.9663899781345132,3.8089520931243896,0.0,0.0,0.0,0,293000000,bluerov2/dvl_sonar2_link,0.0,0.0,0.0,0.0,0.9999999999999998,0.0,0.9663899781345132,42.2009162902832,0.0,0.0,0.0,0,293000000,bluerov2/dvl_sonar3_link,0.0,0.0,0.0,0.0,0.0,-0.9999999999999998,0.9663899781345132
8805000000,76,8805000000,bluerov2/dvl_link,0.9370017770732814,0.058087079665717106,0.04390840620456809,0.25,0.0,0.0,0.0,0.25,0.0,0.0,0.0,0.25,33.27301025390625,81.0,0.0,0.0,0.0,0,293000000,bluerov2/dvl_sonar0_link,0.0,0.0,0.0,0.0,-0.9999999999999998,0.0,0.9663899781345132,6.0540924072265625,0.0,0.0,0.0,0,293000000,bluerov2/dvl_sonar1_link,0.0,0.0,0.0,0.0,0.0,0.9999999999999998,0.9663899781345132,3.804533004760742,0.0,0.0,0.0,0,293000000,bluerov2/dvl_sonar2_link,0.0,0.0,0.0,0.0,0.9999999999999998,0.0,0.9663899781345132,42.23340606689453,0.0,0.0,0.0,0,293000000,bluerov2/dvl_sonar3_link,0.0,0.0,0.0,0.0,0.0,-0.9999999999999998,0.9663899781345132
8917000000,77,8917000000,bluerov2/dvl_link,1.014032833810493,0.12205105765339297,0.011669677537718165,0.25,0.0,0.0,0.0,0.25,0.0,0.0,0.0,0.25,33.280364990234375,81.0,0.0,0.0,0.0,0,293000000,bluerov2/dvl_sonar0_link,0.0,0.0,0.0,0.0,-0.9999999999999998,0.0,0.9663899781345132,6.041511058807373,0.0,0.0,0.0,0,293000000,bluerov2/dvl_sonar1_link,0.0,0.0,0.0,0.0,0.0,0.9999999999999998,0.9663899781345132,3.8016371726989746,0.0,0.0,0.0,0,293000000,bluerov2/dvl_sonar2_link,0.0,0.0,0.0,0.0,0.9999999999999998,0.0,0.9663899781345132,42.27830505371094,0.0,0.0,0.0,0,293000000,bluerov2/dvl_sonar3_link,0.0,0.0,0.0,0.0,0.0,-0.9999999999999998,0.9663899781345132
9029000000,78,9029000000,bluerov2/dvl_link,1.0224222057600802,0.00034449874041927314,0.031961805831043105,0.25,0.0,0.0,0.0,0.25,0.0,0.0,0.0,0.25,33.28710174560547,81.0,0.0,0.0,0.0,0,293000000,bluerov2/dvl_sonar0_link,0.0,0.0,0.0,0.0,-0.9999999999999998,0.0,0.9663899781345132,6.038021564483643,0.0,0.0,0.0,0,293000000,bluerov2/dvl_sonar1_link,0.0,0.0,0.0,0.0,0.0,0.9999999999999998,0.9663899781345132,3.797412157058716,0.0,0.0,0.0,0,293000000,bluerov2/dvl_sonar2_link,0.0,0.0,0.0,0.0,0.9999999999999998,0.0,0.9663899781345132,42.3129768371582,0.0,0.0,0.0,0,293000000,bluerov2/dvl_sonar3_link,0.0,0.0,0.0,0.0,0.0,-0.9999999999999998,0.9663899781345132
9141000000,79,9141000000,bluerov2/dvl_link,1.009308194859154,0.020242676474628393,-0.00994379127987514,0.25,0.0,0.0,0.0,0.25,0.0,0.0,0.0,0.25,33.299137115478516,81.0,0.0,0.0,0.0,0,293000000,bluerov2/dvl_sonar0_link,0.0,0.0,0.0,0.0,-0.9999999999999998,0.0,0.9663899781345132,6.029911041259766,0.0,0.0,0.0,0,293000000,bluerov2/dvl_sonar1_link,0.0,0.0,0.0,0.0,0.0,0.9999999999999998,0.9663899781345132,3.8102214336395264,0.0,0.0,0.0,0,293000000,bluerov2/dvl_sonar2_link,0.0,0.0,0.0,0.0,0.9999999999999998,0.0,0.9663899781345132,42.356422424316406,0.0,0.0,0.0,0,293000000,bluerov2/dvl_sonar3_link,0.0,0.0,0.0,0.0,0.0,-0.9999999999999998,0.9663899781345132
9253000000,80,9253000000,bluerov2/dvl_link,0.9780458980808532,0.037005806138059816,-0.033077757902928016,0.25,0.0,0.0,0.0,0.25,0.0,0.0,0.0,0.25,33.29882049560547,81.0,0.0,0.0,0.0,0,293000000,bluerov2/dvl_sonar0_link,0.0,0.0,0.0,0.0,-0.9999999999999998,0.0,0.9663899781345132,6.027682304382324,0.0,0.0,0.0,0,293000000,bluerov2/dvl_sonar1_link,0.0,0.0,0.0,0.0,0.0,0.9999999999999998,0.9663899781345132,3.8015263080596924,0.0,0.0,0.0,0,293000000,bluerov2/dvl_sonar2_link,0.0,0.0,0.0,0.0,0.9999999999999998,0.0,0.9663899781345132,42.366065979003906,0.0,0.0,0.0,0,293000000,bluerov2/dvl_sonar3_link,0.0,0.0,0.0,0.0,0.0,-0.9999999999999998,0.9663899781345132
9365000000,81,9365000000,bluerov2/dvl_link,0.8809109818785655,0.03887065203115202,0.09506484318744829,0.25,0.0,0.0,0.0,0.25,0.0,0.0,0.0,0.25,33.310707092285156,81.0,0.0,0.0,0.0,0,293000000,bluerov2/dvl_sonar0_link,0.0,0.0,0.0,0.0,-0.9999999999999998,0.0,0.9663899781345132,6.020626544952393,0.0,0.0,0.0,0,293000000,bluerov2/dvl_sonar1_link,0.0,0.0,0.0,0.0,0.0,0.9999999999999998,0.9663899781345132,3.8040497303009033,0.0,0.0,0.0,0,293000000,bluerov2/dvl_sonar2_link,0.0,0.0,0.0,0.0,0.9999999999999998,0.0,0.9663899781345132,42.41814422607422,0.0,0.0,0.0,0,293000000,bluerov2/dvl_sonar3_link,0.0,0.0,0.0,0.0,0.0,-0.9999999999999998,0.9663899781345132
9477000000,82,9477000000,bluerov2/dvl_link,0.9551601878191428,0.04962584323403491,-0.006292114086681838,0.25,0.0,0.0,0.0,0.25,0.0,0.0,0.0,0.25,33.32014465332031,81.0,0.0,0.0,0.0,0,293000000,bluerov2/dvl_sonar0_link,0.0,0.0,0.0,0.0,-0.9999999999999998,0.0,0.9663899781345132,6.025014400482178,0.0,0.0,0.0,0,293000000,bluerov2/dvl_sonar1_link,0.0,0.0,0.0,0.0,0.0,0.9999999999999998,0.9663899781345132,3.811037540435791,0.0,0.0,0.0,0,293000000,bluerov2/dvl_sonar2_link,0.0,0.0,0.0,0.0,0.9999999999999998,0.0,0.9663899781345132,42.44451904296875,0.0,0.0,0.0,0,293000000,bluerov2/dvl_sonar3_link,0.0,0.0,0.0,0.0,0.0,-0.9999999999999998,0.9663899781345132
9589000000,83,9589000000,bluerov2/dvl_link,1.0293035954675804,0.012326606759899491,0.026647122579565502,0.25,0.0,0.0,0.0,0.25,0.0,0.0,0.0,0.25,33.32353591918945,81.0,0.0,0.0,0.0,0,293000000,bluerov2/dvl_sonar0_link,0.0,0.0,0.0,0.0,-0.9999999999999998,0.0,0.9663899781345132,6.0204386711120605,0.0,0.0,0.0,0,293000000,bluerov2/dvl_sonar1_link,0.0,0.0,0.0,0.0,0.0,0.9999999999999998,0.9663899781345132,3.8013670444488525,0.0,0.0,0.0,0,293000000,bluerov2/dvl_sonar2_link,0.0,0.0,0.0,0.0,0.9999999999999998,0.0,0.9663899781345132,42.47233581542969,0.0,0.0,0.0,0,293000000,bluerov2/dvl_sonar3_link,0.0,0.0,0.0,0.0,0.0,-0.9999999999999998,0.9663899781345132
9701000000,84,9701000000,bluerov2/dvl_link,0.981879309242994,0.00571345971730584,-0.0035367539593431727,0.25,0.0,0.0,0.0,0.25,0.0,0.0,0.0,0.25,33.32790756225586,81.0,0.0,0.0,0.0,0,293000000,bluerov2/dvl_sonar0_link,0.0,0.0,0.0,0.0,-0.9999999999999998,0.0,0.9663899781345132,5.996436595916748,0.0,0.0,0.0,0,293000000,bluerov2/dvl_sonar1_link,0.0,0.0,0.0,0.0,0.0,0.9999999999999998,0.9663899781345132,3.8059704303741455,0.0,0.0,0.0,0,293000000,bluerov2/dvl_sonar2_link,0.0,0.0,0.0,0.0,0.9999999999999998,0.0,0.9663899781345132,42.509220123291016,0.0,0.0,0.0,0,293000000,bluerov2/dvl_sonar3_link,0.0,0.0,0.0,0.0,0.0,-0.9999999999999998,0.9663899781345132
9813000000,85,9813000000,bluerov2/dvl_link,1.0538922858155528,0.08921125435737184,-0.11540330106720734,0.25,0.0,0.0,0.0,0.25,0.0,0.0,0.0,0.25,33.33651351928711,81.0,0.0,0.0,0.0,0,293000000,bluerov2/dvl_sonar0_link,0.0,0.0,0.0,0.0,-0.9999999999999998,0.0,0.9663899781345132,5.9915947914123535,0.0,0.0,0.0,0,293000000,bluerov2/dvl_sonar1_link,0.0,0.0,0.0,0.0,0.0,0.9999999999999998,0.9663899781345132,3.81497859954834,0.0,0.0,0.0,0,293000000,bluerov2/dvl_sonar2_link,0.0,0.0,0.0,0.0,0.9999999999999998,0.0,0.9663899781345132,42.53948211669922,0.0,0.0,0.0,0,293000000,bluerov2/dvl_sonar3_link,0.0,0.0,0.0,0.0,0.0,-0.9999999999999998,0.9663899781345132
9925000000,86,9925000000,bluerov2/dvl_link,0.9390501141475788,-0.07095726650361267,-0.07976979696372177,0.25,0.0,0.0,0.0,0.25,0.0,0.0,0.0,0.25,33.3424186706543,81.0,0.0,0.0,0.0,0,293000000,bluerov2/dvl_sonar0_link,0.0,0.0,0.0,0.0,-0.9999999999999998,0.0,0.9663899781345132,6.002039432525635,0.0,0.0,0.0,0,293000000,bluerov2/dvl_sonar1_link,0.0,0.0,0.0,0.0,0.0,0.9999999999999998,0.9663899781345132,3.8041653633117676,0.0,0.0,0.0,0,293000000,bluerov2/dvl_sonar2_link,0.0,0.0,0.0,0.0,0.9999999999999998,0.0,0.9663899781345132,42.563472747802734,0.0,0.0,0.0,0,293000000,bluerov2/dvl_sonar3_link,0.0,0.0,0.0,0.0,0.0,-0.9999999999999998,0.9663899781345132
10037000000,87,10037000000,bluerov2/dvl_link,1.0264391804910364,0.019507598239553427,0.01736909283270388,0.25,0.0,0.0,0.0,0.25,0.0,0.0,0.0,0.25,33.3510856628418,81.0,0.0,0.0,0.0,0,293000000,bluerov2/dvl_sonar0_link,0.0,0.0,0.0,0.0,-0.9999999999999998,0.0,0.9663899781345132,5.989738941192627,0.0,0.0,0.0,0,293000000,bluerov2/dvl_sonar1_link,0.0,0.0,0.0,0.0,0.0,0.9999999999999998,0.9663899781345132,3.80611515045166,0.0,0.0,0.0,0,293000000,bluerov2/dvl_sonar2_link,0.0,0.0,0.0,0.0,0.9999999999999998,0.0,0.9663899781345132,42.60849380493164,0.0,0.0,0.0,0,293000000,bluerov2/dvl_sonar3_link,0.0,0.0,0.0,0.0,0.0,-0.9999999999999998,0.9663899781345132
10149000000,88,10149000000,bluerov2/dvl_link,0.9982767415737699,-0.04817816470410051,0.006248462807385798,0.25,0.0,0.0,0.0,0.25,0.0,0.0,0.0,0.25,33.367713928222656,81.0,0.0,0.0,0.0,0,293000000,bluerov2/dvl_sonar0_link,0.0,0.0,0.0,0.0,-0.9999999999999998,0.0,0.9663899781345132,5.977524757385254,0.0,0.0,0.0,0,293000000,bluerov2/dvl_sonar1_link,0.0,0.0,0.0,0.0,0.0,0.9999999999999998,0.9663899781345132,3.807307481765747,0.0,0.0,0.0,0,293000000,bluerov2/dvl_sonar2_link,0.0,0.0,0.0,0.0,0.9999999999999998,0.0,0.9663899781345132,42.68602752685547,0.0,0.0,0.0,0,293000000,bluerov2/dvl_sonar3_link,0.0,0.0,0.0,0.0,0.0,-0.9999999999999998,0.9663899781345132
10261000000,89,10261000000,bluerov2/dvl_link,1.0096049997843108,-0.04060622095599775,0.018406338059234716,0.25,0.0,0.0,0.0,0.25,0.0,0.0,0.0,0.25,33.38030242919922,81.0,0.0,0.0,0.0,0,293000000,bluerov2/dvl_sonar0_link,0.0,0.0,0.0,0.0,-0.9999999999999998,0.0,0.9663899781345132,5.965814113616943,0.0,0.0,0.0,0,293000000,bluerov2/dvl_sonar1_link,0.0,0.0,0.0,0.0,0.0,0.9999999999999998,0.9663899781345132,3.8139748573303223,0.0,0.0,0.0,0,293000000,bluerov2/dvl_sonar2_link,0.0,0.0,0.0,0.0,0.9999999999999998,0.0,0.9663899781345132,42.741416931152344,0.0,0.0,0.0,0,293000000,bluerov2/dvl_sonar3_link,0.0,0.0,0.0,0.0,0.0,-0.9999999999999998,0.9663899781345132
10373000000,90,10373000000,bluerov2/dvl_link,1.0931158880883813,-0.05377485594467915,0.07974541288340375,0.25,0.0,0.0,0.0,0.25,0.0,0.0,0.0,0.25,33.39656448364258,81.0,0.0,0.0,0.0,0,293000000,bluerov2/dvl_sonar0_link,0.0,0.0,0.0,0.0,-0.9999999999999998,0.0,0.9663899781345132,5.952639579772949,0.0,0.0,0.0,0,293000000,bluerov2/dvl_sonar1_link,0.0,0.0,0.0,0.0,0.0,0.9999999999999998,0.9663899781345132,3.8091650009155273,0.0,0.0,0.0,0,293000000,bluerov2/dvl_sonar2_link,0.0,0.0,0.0,0.0,0.9999999999999998,0.0,0.9663899781345132,42.82445526123047,0.0,0.0,0.0,0,293000000,bluerov2/dvl_sonar3_link,0.0,0.0,0.0,0.0,0.0,-0.9999999999999998,0.9663899781345132
10485000000,91,10485000000,bluerov2/dvl_link,0.9248619558738779,-0.018715075973549905,0.06390571323051228,0.25,0.0,0.0,0.0,0.25,0.0,0.0,0.0,0.25,33.4097900390625,81.0,0.0,0.0,0.0,0,293000000,bluerov2/dvl_sonar0_link,0.0,0.0,0.0,0.0,-0.9999999999999998,0.0,0.9663899781345132,5.941098690032959,0.0,0.0,0.0,0,293000000,bluerov2/dvl_sonar1_link,0.0,0.0,0.0,0.0,0.0,0.9999999999999998,0.9663899781345132,3.7997708320617676,0.0,0.0,0.0,0,293000000,bluerov2/dvl_sonar2_link,0.0,0.0,0.0,0.0,0.9999999999999998,0.0,0.9663899781345132,42.89828872680664,0.0,0.0,0.0,0,293000000,bluerov2/dvl_sonar3_link,0.0,0.0,0.0,0.0,0.0,-0.9999999999999998,0.9663899781345132
10597000000,92,10597000000,bluerov2/dvl_link,1.0351523105662694,-0.004474476262448141,-0.012288592592504564,0.25,0.0,0.0,0.0,0.25,0.0,0.0,0.0,0.25,33.42379379272461,81.0,0.0,0.0,0.0,0,293000000,bluerov2/dvl_sonar0_link,0.0,0.0,0.0,0.0,-0.9999999999999998,0.0,0.9663899781345132,5.942281723022461,0.0,0.0,0.0,0,293000000,bluerov2/dvl_sonar1_link,0.0,0.0,0.0,0.0,0.0,0.9999999999999998,0.9663899781345132,3.8102850914001465,0.0,0.0,0.0,0,293000000,bluerov2/dvl_sonar2_link,0.0,0.0,0.0,0.0,0.9999999999999998,0.0,0.9663899781345132,42.94260025024414,0.0,0.0,0.0,0,293000000,bluerov2/dvl_sonar3_link,0.0,0.0,0.0,0.0,0.0,-0.9999999999999998,0.9663899781345132
10709000000,93,10709000000,bluerov2/dvl_link,1.004072630759502,0.06652406159542074,-0.009523316556305662,0.25,0.0,0.0,0.0,0.25,0.0,0.0,0.0,0.25,33.420204162597656,81.0,0.0,0.0,0.0,0,293000000,bluerov2/dvl_sonar0_link,0.0,0.0,0.0,0.0,-0.9999999999999998,0.0,0.9663899781345132,5.927015781402588,0.0,0.0,0.0,0,293000000,bluerov2/dvl_sonar1_link,0.0,0.0,0.0,0.0,0.0,0.9999999999999998,0.9663899781345132,3.800182580947876,0.0,0.0,0.0,0,293000000,bluerov2/dvl_sonar2_link,0.0,0.0,0.0,0.0,0.9999999999999998,0.0,0.9663899781345132,42.953617095947266,0.0,0.0,0.0,0,293000000,bluerov2/dvl_sonar3_link,0.0,0.0,0.0,0.0,0.0,-0.9999999999999998,0.9663899781345132
10821000000,94,10821000000,bluerov2/dvl_link,1.0218747084515016,-0.03638791012464039,-0.019859311137062803,0.25,0.0,0.0,0.0,0.25,0.0,0.0,0.0,0.25,33.43061828613281,81.0,0.0,0.0,0.0,0,293000000,bluerov2/dvl_sonar0_link,0.0,0.0,0.0,0.0,-0.9999999999999998,0.0,0.9663899781345132,5.935576915740967,0.0,0.0,0.0,0,293000000,bluerov2/dvl_sonar1_link,0.0,0.0,0.0,0.0,0.0,0.9999999999999998,0.9663899781345132,3.8164968490600586,0.0,0.0,0.0,0,293000000,bluerov2/dvl_sonar2_link,0.0,0.0,0.0,0.0,0.9999999999999998,0.0,0.9663899781345132,42.97040557861328,0.0,0.0,0.0,0,293000000,bluerov2/dvl_sonar3_link,0.0,0.0,0.0,0.0,0.0,-0.9999999999999998,0.9663899781345132
10933000000,95,10933000000,bluerov2/dvl_link,1.0639383385864556,0.07833176477007903,-0.025026628934211533,0.25,0.0,0.0,0.0,0.25,0.0,0.0,0.0,0.25,33.42749786376953,81.0,0.0,0.0,0.0,0,293000000,bluerov2/dvl_sonar0_link,0.0,0.0,0.0,0.0,-0.9999999999999998,0.0,0.9663899781345132,5.923823356628418,0.0,0.0,0.0,0,293000000,bluerov2/dvl_sonar1_link,0.0,0.0,0.0,0.0,0.0,0.9999999999999998,0.9663899781345132,3.803745746612549,0.0,0.0,0.0,0,293000000,bluerov2/dvl_sonar2_link,0.0,0.0,0.0,0.0,0.9999999999999998,0.0,0.9663899781345132,42.982425689697266,0.0,0.0,0.0,0,293000000,bluerov2/dvl_sonar3_link,0.0,0.0,0.0,0.0,0.0,-0.9999999999999998,0.9663899781345132
11045000000,96,11045000000,bluerov2/dvl_link,0.9468315621932024,0.02149424793569164,0.041170314197089636,0.25,0.0,0.0,0.0,0.25,0.0,0.0,0.0,0.25,33.4337158203125,81.0,0.0,0.0,0.0,0,293000000,bluerov2/dvl_sonar0_link,0.0,0.0,0.0,0.0,-0.9999999999999998,0.0,0.9663899781345132,5.930978775024414,0.0,0.0,0.0,0,293000000,bluerov2/dvl_sonar1_link,0.0,0.0,0.0,0.0,0.0,0.9999999999999998,0.9663899781345132,3.807039737701416,0.0,0.0,0.0,0,293000000,bluerov2/dvl_sonar2_link,0.0,0.0,0.0,0.0,0.9999999999999998,0.0,0.9663899781345132,42.99685287475586,0.0,0.0,0.0,0,293000000,bluerov2/dvl_sonar3_link,0.0,0.0,0.0,0.0,0.0,-0.9999999999999998,0.9663899781345132
11157000000,97,11157000000,bluerov2/dvl_link,1.0848144015723498,0.01473642627622046,0.0011343376378000957,0.25,0.0,0.0,0.0,0.25,0.0,0.0,0.0,0.25,33.43501663208008,81.0,0.0,0.0,0.0,0,293000000,bluerov2/dvl_sonar0_link,0.0,0.0,0.0,0.0,-0.9999999999999998,0.0,0.9663899781345132,5.918961524963379,0.0,0.0,0.0,0,293000000,bluerov2/dvl_sonar1_link,0.0,0.0,0.0,0.0,0.0,0.9999999999999998,0.9663899781345132,3.808603048324585,0.0,0.0,0.0,0,293000000,bluerov2/dvl_sonar2_link,0.0,0.0,0.0,0.0,0.9999999999999998,0.0,0.9663899781345132,43.01250457763672,0.0,0.0,0.0,0,293000000,bluerov2/dvl_sonar3_link,0.0,0.0,0.0,0.0,0.0,-0.9999999999999998,0.9663899781345132
11269000000,98,11269000000,bluerov2/dvl_link,1.0184095895406846,0.10912769701998086,-0.011030463019637806,0.25,0.0,0.0,0.0,0.25,0.0,0.0,0.0,0.25,33.43912887573242,81.0,0.0,0.0,0.0,0,293000000,bluerov2/dvl_sonar0_link,0.0,0.0,0.0,0.0,-0.9999999999999998,0.0,0.9663899781345132,5.916660308837891,0.0,0.0,0.0,0,293000000,bluerov2/dvl_sonar1_link,0.0,0.0,0.0,0.0,0.0,0.9999999999999998,0.9663899781345132,3.8034441471099854,0.0,0.0,0.0,0,293000000,bluerov2/dvl_sonar2_link,0.0,0.0,0.0,0.0,0.9999999999999998,0.0,0.9663899781345132,43.03641891479492,0.0,0.0,0.0,0,293000000,bluerov2/dvl_sonar3_link,0.0,0.0,0.0,0.0,0.0,-0.9999999999999998,0.9663899781345132
11381000000,99,11381000000,bluerov2/dvl_link,1.0333304718904706,-0.019439841538184004,0.055110484701380844,0.25,0.0,0.0,0.0,0.25,0.0,0.0,0.0,0.25,33.439918518066406,81.0,0.0,0.0,0.0,0,293000000,bluerov2/dvl_sonar0_link,0.0,0.0,0.0,0.0,-0.9999999999999998,0.0,0.9663899781345132,5.915185928344727,0.0,0.0,0.0,0,293000000,bluerov2/dvl_sonar1_link,0.0,0.0,0.0,0.0,0.0,0.9999999999999998,0.9663899781345132,3.807849168777466,0.0,0.0,0.0,0,293000000,bluerov2/dvl_sonar2_link,0.0,0.0,0.0,0.0,0.9999999999999998,0.0,0.9663899781345132,43.03663635253906,0.0,0.0,0.0,0,293000000,bluerov2/dvl_sonar3_link,0.0,0.0,0.0,0.0,0.0,-0.9999999999999998,0.9663899781345132
11493000000,100,11493000000,bluerov2/dvl_link,1.0337558693046853,0.009452454650604618,-0.037378576398142176,0.25,0.0,0.0,0.0,0.25,0.0,0.0,0.0,0.25,33.41675567626953,81.0,0.0,0.0,0.0,0,293000000,bluerov2/dvl_sonar0_link,0.0,0.0,0.0,0.0,-0.9999999999999998,0.0,0.9663899781345132,5.924212455749512,0.0,0.0,0.0,0,293000000,bluerov2/dvl_sonar1_link,0.0,0.0,0.0,0.0,0.0,0.9999999999999998,0.9663899781345132,3.8040452003479004,0.0,0.0,0.0,0,293000000,bluerov2/dvl_sonar2_link,0.0,0.0,0.0,0.0,0.9999999999999998,0.0,0.9663899781345132,42.938758850097656,0.0,0.0,0.0,0,293000000,bluerov2/dvl_sonar3_link,0.0,0.0,0.0,0.0,0.0,-0.9999999999999998,0.9663899781345132
11605000000,101,11605000000,bluerov2/dvl_link,0.9238800677867682,0.04437009510119453,0.059660097934720345,0.25,0.0,0.0,0.0,0.25,0.0,0.0,0.0,0.25,33.37602233886719,81.0,0.0,0.0,0.0,0,293000000,bluerov2/dvl_sonar0_link,0.0,0.0,0.0,0.0,-0.9999999999999998,0.0,0.9663899781345132,5.904777526855469,0.0,0.0,0.0,0,293000000,bluerov2/dvl_sonar1_link,0.0,0.0,0.0,0.0,0.0,0.9999999999999998,0.9663899781345132,3.803032159805298,0.0,0.0,0.0,0,293000000,bluerov2/dvl_sonar2_link,0.0,0.0,0.0,0.0,0.9999999999999998,0.0,0.9663899781345132,42.79627227783203,0.0,0.0,0.0,0,293000000,bluerov2/dvl_sonar3_link,0.0,0.0,0.0,0.0,0.0,-0.9999999999999998,0.9663899781345132
11717000000,102,11717000000,bluerov2/dvl_link,0.9389213055189847,0.025166565666318363,-0.036293353337003544,0.25,0.0,0.0,0.0,0.25,0.0,0.0,0.0,0.25,33.34184265136719,81.0,0.0,0.0,0.0,0,293000000,bluerov2/dvl_sonar0_link,0.0,0.0,0.0,0.0,-0.9999999999999998,0.0,0.9663899781345132,5.901088714599609,0.0,0.0,0.0,0,293000000,bluerov2/dvl_sonar1_link,0.0,0.0,0.0,0.0,0.0,0.9999999999999998,0.9663899781345132,3.806898593902588,0.0,0.0,0.0,0,293000000,bluerov2/dvl_sonar2_link,0.0,0.0,0.0,0.0,0.9999999999999998,0.0,0.9663899781345132,42.65937805175781,0.0,0.0,0.0,0,293000000,bluerov2/dvl_sonar3_link,0.0,0.0,0.0,0.0,0.0,-0.9999999999999998,0.9663899781345132
11829000000,103,11829000000,bluerov2/dvl_link,0.9815234369043652,0.051299475174934696,-0.000536667285509597,0.25,0.0,0.0,0.0,0.25,0.0,0.0,0.0,0.25,33.31221008300781,81.0,0.0,0.0,0.0,0,293000000,bluerov2/dvl_sonar0_link,0.0,0.0,0.0,0.0,-0.9999999999999998,0.0,0.9663899781345132,5.906808853149414,0.0,0.0,0.0,0,293000000,bluerov2/dvl_sonar1_link,0.0,0.0,0.0,0.0,0.0,0.9999999999999998,0.9663899781345132,3.8114373683929443,0.0,0.0,0.0,0,293000000,bluerov2/dvl_sonar2_link,0.0,0.0,0.0,0.0,0.9999999999999998,0.0,0.9663899781345132,42.53059005737305,0.0,0.0,0.0,0,293000000,bluerov2/dvl_sonar3_link,0.0,0.0,0.0,0.0,0.0,-0.9999999999999998,0.9663899781345132
11941000000,104,11941000000,bluerov2/dvl_link,0.9964850538996379,0.07359087553390471,-0.06024660875649574,0.25,0.0,0.0,0.0,0.25,0.0,0.0,0.0,0.25,33.27462387084961,81.0,0.0,0.0,0.0,0,293000000,bluerov2/dvl_sonar0_link,0.0,0.0,0.0,0.0,-0.9999999999999998,0.0,0.9663899781345132,5.899862289428711,0.0,0.0,0.0,0,293000000,bluerov2/dvl_sonar1_link,0.0,0.0,0.0,0.0,0.0,0.9999999999999998,0.9663899781345132,3.8100626468658447,0.0,0.0,0.0,0,293000000,bluerov2/dvl_sonar2_link,0.0,0.0,0.0,0.0,0.9999999999999998,0.0,0.9663899781345132,42.3885612487793,0.0,0.0,0.0,0,293000000,bluerov2/dvl_sonar3_link,0.0,0.0,0.0,0.0,0.0,-0.9999999999999998,0.9663899781345132
12053000000,105,12053000000,bluerov2/dvl_link,0.9857534697852396,-0.001736445729888167,-0.02899520593247202,0.25,0.0,0.0,0.0,0.25,0.0,0.0,0.0,0.25,33.23794937133789,81.0,0.0,0.0,0.0,0,293000000,bluerov2/dvl_sonar0_link,0.0,0.0,0.0,0.0,-0.9999999999999998,0.0,0.9663899781345132,5.892389297485352,0.0,0.0,0.0,0,293000000,bluerov2/dvl_sonar1_link,0.0,0.0,0.0,0.0,0.0,0.9999999999999998,0.9663899781345132,3.8004353046417236,0.0,0.0,0.0,0,293000000,bluerov2/dvl_sonar2_link,0.0,0.0,0.0,0.0,0.9999999999999998,0.0,0.9663899781345132,42.258968353271484,0.0,0.0,0.0,0,293000000,bluerov2/dvl_sonar3_link,0.0,0.0,0.0,0.0,0.0,-0.9999999999999998,0.9663899781345132
12165000000,106,12165000000,bluerov2/dvl_link,1.0244329410866548,0.02684311635353998,0.04567444912781639,0.25,0.0,0.0,0.0,0.25,0.0,0.0,0.0,0.25,33.21244812011719,81.0,0.0,0.0,0.0,0,293000000,bluerov2/dvl_sonar0_link,0.0,0.0,0.0,0.0,-0.9999999999999998,0.0,0.9663899781345132,5.902988433837891,0.0,0.0,0.0,0,293000000,bluerov2/dvl_sonar1_link,0.0,0.0,0.0,0.0,0.0,0.9999999999999998,0.9663899781345132,3.8105669021606445,0.0,0.0,0.0,0,293000000,bluerov2/dvl_sonar2_link,0.0,0.0,0.0,0.0,0.9999999999999998,0.0,0.9663899781345132,42.136234283447266,0.0,0.0,0.0,0,293000000,bluerov2/dvl_sonar3_link,0.0,0.0,0.0,0.0,0.0,-0.9999999999999998,0.9663899781345132
12277000000,107,12277000000,bluerov2/dvl_link,0.8795735994021908,0.06347117443823949,0.018338949192662973,0.25,0.0,0.0,0.0,0.25,0.0,0.0,0.0,0.25,33.178009033203125,81.0,0.0,0.0,0.0,0,293000000,bluerov2/dvl_sonar0_link,0.0,0.0,0.0,0.0,-0.9999999999999998,0.0,0.9663899781345132,5.908401966094971,0.0,0.0,0.0,0,293000000,bluerov2/dvl_sonar1_link,0.0,0.0,0.0,0.0,0.0,0.9999999999999998,0.9663899781345132,3.802492141723633,0.0,0.0,0.0,0,293000000,bluerov2/dvl_sonar2_link,0.0,0.0,0.0,0.0,0.9999999999999998,0.0,0.9663899781345132,42.00114059448242,0.0,0.0,0.0,0,293000000,bluerov2/dvl_sonar3_link,0.0,0.0,0.0,0.0,0.0,-0.9999999999999998,0.9663899781345132
12389000000,108,12389000000,bluerov2/dvl_link,0.953724156630695,-0.01910069629288802,-0.007013180429543403,0.25,0.0,0.0,0.0,0.25,0.0,0.0,0.0,0.25,33.149017333984375,81.0,0.0,0.0,0.0,0,293000000,bluerov2/dvl_sonar0_link,0.0,0.0,0.0,0.0,-0.9999999999999998,0.0,0.9663899781345132,5.900146961212158,0.0,0.0,0.0,0,293000000,bluerov2/dvl_sonar1_link,0.0,0.0,0.0,0.0,0.0,0.9999999999999998,0.9663899781345132,3.806168794631958,0.0,0.0,0.0,0,293000000,bluerov2/dvl_sonar2_link,0.0,0.0,0.0,0.0,0.9999999999999998,0.0,0.9663899781345132,41.88975524902344,0.0,0.0,0.0,0,293000000,bluerov2/dvl_sonar3_link,0.0,0.0,0.0,0.0,0.0,-0.9999999999999998,0.9663899781345132
12501000000,109,12501000000,bluerov2/dvl_link,1.0215913838572281,-0.06250024773482604,-0.006953924902566591,0.25,0.0,0.0,0.0,0.25,0.0,0.0,0.0,0.25,33.10736083984375,81.0,0.0,0.0,0.0,0,293000000,bluerov2/dvl_sonar0_link,0.0,0.0,0.0,0.0,-0.9999999999999998,0.0,0.9663899781345132,5.884110927581787,0.0,0.0,0.0,0,293000000,bluerov2/dvl_sonar1_link,0.0,0.0,0.0,0.0,0.0,0.9999999999999998,0.9663899781345132,3.802400827407837,0.0,0.0,0.0,0,293000000,bluerov2/dvl_sonar2_link,0.0,0.0,0.0,0.0,0.9999999999999998,0.0,0.9663899781345132,41.742942810058594,0.0,0.0,0.0,0,293000000,bluerov2/dvl_sonar3_link,0.0,0.0,0.0,0.0,0.0,-0.9999999999999998,0.9663899781345132
12613000000,110,12613000000,bluerov2/dvl_link,0.9789838806664821,0.09126481249072918,0.028026797642349353,0.25,0.0,0.0,0.0,0.25,0.0,0.0,0.0,0.25,33.08217239379883,81.0,0.0,0.0,0.0,0,293000000,bluerov2/dvl_sonar0_link,0.0,0.0,0.0,0.0,-0.9999999999999998,0.0,0.9663899781345132,5.898760795593262,0.0,0.0,0.0,0,293000000,bluerov2/dvl_sonar1_link,0.0,0.0,0.0,0.0,0.0,0.9999999999999998,0.9663899781345132,3.8070173263549805,0.0,0.0,0.0,0,293000000,bluerov2/dvl_sonar2_link,0.0,0.0,0.0,0.0,0.9999999999999998,0.0,0.9663899781345132,41.62291717529297,0.0,0.0,0.0,0,293000000,bluerov2/dvl_sonar3_link,0.0,0.0,0.0,0.0,0.0,-0.9999999999999998,0.9663899781345132
12725000000,111,12725000000,bluerov2/dvl_link,0.9586997527809321,0.025428358420770132,-0.032300602875815265,0.25,0.0,0.0,0.0,0.25,0.0,0.0,0.0,0.25,33.04969024658203,81.0,0.0,0.0,0.0,0,293000000,bluerov2/dvl_sonar0_link,0.0,0.0,0.0,0.0,-0.9999999999999998,0.0,0.9663899781345132,5.898054599761963,0.0,0.0,0.0,0,293000000,bluerov2/dvl_sonar1_link,0.0,0.0,0.0,0.0,0.0,0.9999999999999998,0.9663899781345132,3.8036744594573975,0.0,0.0,0.0,0,293000000,bluerov2/dvl_sonar2_link,0.0,0.0,0.0,0.0,0.9999999999999998,0.0,0.9663899781345132,41.497039794921875,0.0,0.0,0.0,0,293000000,bluerov2/dvl_sonar3_link,0.0,0.0,0.0,0.0,0.0,-0.9999999999999998,0.9663899781345132
12837000000,112,12837000000,bluerov2/dvl_link,1.0743485262374721,0.07477218324569841,-0.05142387728049013,0.25,0.0,0.0,0.0,0.25,0.0,0.0,0.0,0.25,33.0128059387207,81.0,0.0,0.0,0.0,0,293000000,bluerov2/dvl_sonar0_link,0.0,0.0,0.0,0.0,-0.9999999999999998,0.0,0.9663899781345132,5.889307975769043,0.0,0.0,0.0,0,293000000,bluerov2/dvl_sonar1_link,0.0,0.0,0.0,0.0,0.0,0.9999999999999998,0.9663899781345132,3.804420232772827,0.0,0.0,0.0,0,293000000,bluerov2/dvl_sonar2_link,0.0,0.0,0.0,0.0,0.9999999999999998,0.0,0.9663899781345132,41.35749816894531,0.0,0.0,0.0,0,293000000,bluerov2/dvl_sonar3_link,0.0,0.0,0.0,0.0,0.0,-0.9999999999999998,0.9663899781345132
