%time,field.header.seq,field.header.stamp,field.header.frame_id,field.child_frame_id,field.pose.pose.position.x,field.pose.pose.position.y,field.pose.pose.position.z,field.pose.pose.orientation.x,field.pose.pose.orientation.y,field.pose.pose.orientation.z,field.pose.pose.orientation.w,field.pose.covariance0,field.pose.covariance1,field.pose.covariance2,field.pose.covariance3,field.pose.covariance4,field.pose.covariance5,field.pose.covariance6,field.pose.covariance7,field.pose.covariance8,field.pose.covariance9,field.pose.covariance10,field.pose.covariance11,field.pose.covariance12,field.pose.covariance13,field.pose.covariance14,field.pose.covariance15,field.pose.covariance16,field.pose.covariance17,field.pose.covariance18,field.pose.covariance19,field.pose.covariance20,field.pose.covariance21,field.pose.covariance22,field.pose.covariance23,field.pose.covariance24,field.pose.covariance25,field.pose.covariance26,field.pose.covariance27,field.pose.covariance28,field.pose.covariance29,field.pose.covariance30,field.pose.covariance31,field.pose.covariance32,field.pose.covariance33,field.pose.covariance34,field.pose.covariance35,field.twist.twist.linear.x,field.twist.twist.linear.y,field.twist.twist.linear.z,field.twist.twist.angular.x,field.twist.twist.angular.y,field.twist.twist.angular.z,field.twist.covariance0,field.twist.covariance1,field.twist.covariance2,field.twist.covariance3,field.twist.covariance4,field.twist.covariance5,field.twist.covariance6,field.twist.covariance7,field.twist.covariance8,field.twist.covariance9,field.twist.covariance10,field.twist.covariance11,field.twist.covariance12,field.twist.covariance13,field.twist.covariance14,field.twist.covariance15,field.twist.covariance16,field.twist.covariance17,field.twist.covariance18,field.twist.covariance19,field.twist.covariance20,field.twist.covariance21,field.twist.covariance22,field.twist.covariance23,field.twist.covariance24,field.twist.covariance25,field.twist.covariance26,field.twist.covariance27,field.twist.covariance28,field.twist.covariance29,field.twist.covariance30,field.twist.covariance31,field.twist.covariance32,field.twist.covariance33,field.twist.covariance34,field.twist.covariance35
3031000000,56,3031000000,world,bluerov2/base_link,9.988513304698373,19.991663986076286,-94.73535390398585,0.00018523252522400742,-0.0030189859864105458,0.0011806683934791045,0.9999947287034419,0.0,0.0,0.0,0.0,0.0,0.0,0.0,0.0,0.0,0.0,0.0,0.0,0.0,0.0,0.0,0.0,0.0,0.0,0.0,0.0,0.0,0.0,0.0,0.0,0.0,0.0,0.0,0.0,0.0,0.0,0.0,0.0,0.0,0.0,0.0,0.0,0.0014001556589196863,-0.00959773149588501,0.0031775652157482333,-0.003587395200488568,0.006888208111006883,-0.013682109514104044,0.0,0.0,0.0,0.0,0.0,0.0,0.0,0.0,0.0,0.0,0.0,0.0,0.0,0.0,0.0,0.0,0.0,0.0,0.0,0.0,0.0,0.0,0.0,0.0,0.0,0.0,0.0,0.0,0.0,0.0,0.0,0.0,0.0,0.0,0.0,0.0
3081000000,57,3081000000,world,bluerov2/base_link,9.988731228181353,19.990394593591493,-94.73547692289297,-1.046267972514657e-05,-0.002866158512562264,0.0002360555831592284,0.999995864643287,0.0,0.0,0.0,0.0,0.0,0.0,0.0,0.0,0.0,0.0,0.0,0.0,0.0,0.0,0.0,0.0,0.0,0.0,0.0,0.0,0.0,0.0,0.0,0.0,0.0,0.0,0.0,0.0,0.0,0.0,0.0,0.0,0.0,0.0,0.0,0.0,0.008367124873930215,-0.04619540802965264,-0.009370683388537065,-0.012925702031866911,0.005200133485181049,-0.06995986476456643,0.0,0.0,0.0,0.0,0.0,0.0,0.0,0.0,0.0,0.0,0.0,0.0,0.0,0.0,0.0,0.0,0.0,0.0,0.0,0.0,0.0,0.0,0.0,0.0,0.0,0.0,0.0,0.0,0.0,0.0,0.0,0.0,0.0,0.0,0.0,0.0
3131000000,58,3131000000,world,bluerov2/base_link,9.989457858592182,19.98636680086878,-94.73645667169212,-0.0005362682311450966,-0.0027632136421077394,-0.002841346428144432,0.9999920018766287,0.0,0.0,0.0,0.0,0.0,0.0,0.0,0.0,0.0,0.0,0.0,0.0,0.0,0.0,0.0,0.0,0.0,0.0,0.0,0.0,0.0,0.0,0.0,0.0,0.0,0.0,0.0,0.0,0.0,0.0,0.0,0.0,0.0,0.0,0.0,0.0,0.021443314614274088,-0.11978023066060997,-0.030789077250879086,-0.02907710247958184,0.002988886373861372,-0.18370531653205555,0.0,0.0,0.0,0.0,0.0,0.0,0.0,0.0,0.0,0.0,0.0,0.0,0.0,0.0,0.0,0.0,0.0,0.0,0.0,0.0,0.0,0.0,0.0,0.0,0.0,0.0,0.0,0.0,0.0,0.0,0.0,0.0,0.0,0.0,0.0,0.0
3181000000,59,3181000000,world,bluerov2/base_link,9.990999668872476,19.97770677381168,-94.73870639604772,-0.0015380019903809457,-0.002721588865698761,-0.009471376367855585,0.9999502590297291,0.0,0.0,0.0,0.0,0.0,0.0,0.0,0.0,0.0,0.0,0.0,0.0,0.0,0.0,0.0,0.0,0.0,0.0,0.0,0.0,0.0,0.0,0.0,0.0,0.0,0.0,0.0,0.0,0.0,0.0,0.0,0.0,0.0,0.0,0.0,0.0,0.04077144053222532,-0.23042163040412453,-0.059695570243737076,-0.049771893981845616,0.00025285818735879315,-0.3523093789658382,0.0,0.0,0.0,0.0,0.0,0.0,0.0,0.0,0.0,0.0,0.0,0.0,0.0,0.0,0.0,0.0,0.0,0.0,0.0,0.0,0.0,0.0,0.0,0.0,0.0,0.0,0.0,0.0,0.0,0.0,0.0,0.0,0.0,0.0,0.0,0.0
3231000000,60,3231000000,world,bluerov2/base_link,9.993620983461714,19.96261650045793,-94.74254499306397,-0.003108166778712118,-0.0027494579295968056,-0.020961871307182432,0.9997716637971242,0.0,0.0,0.0,0.0,0.0,0.0,0.0,0.0,0.0,0.0,0.0,0.0,0.0,0.0,0.0,0.0,0.0,0.0,0.0,0.0,0.0,0.0,0.0,0.0,0.0,0.0,0.0,0.0,0.0,0.0,0.0,0.0,0.0,0.0,0.0,0.0,0.06386842868676566,-0.3754525676371051,-0.09383750562554743,-0.07316482194244399,-0.0027101173576064837,-0.5701563643331833,0.0,0.0,0.0,0.0,0.0,0.0,0.0,0.0,0.0,0.0,0.0,0.0,0.0,0.0,0.0,0.0,0.0,0.0,0.0,0.0,0.0,0.0,0.0,0.0,0.0,0.0,0.0,0.0,0.0,0.0,0.0,0.0,0.0,0.0,0.0,0.0
3281000000,61,3281000000,world,bluerov2/base_link,9.997383992551484,19.939565783678503,-94.74817332424037,-0.005285814296696428,-0.0028434055716538777,-0.03835807806980737,0.9992460322957336,0.0,0.0,0.0,0.0,0.0,0.0,0.0,0.0,0.0,0.0,0.0,0.0,0.0,0.0,0.0,0.0,0.0,0.0,0.0,0.0,0.0,0.0,0.0,0.0,0.0,0.0,0.0,0.0,0.0,0.0,0.0,0.0,0.0,0.0,0.0,0.0,0.08555925873807678,-0.5469735348774052,-0.13083460548417955,-0.09699021156338122,-0.005572911778369506,-0.8222347099091956,0.0,0.0,0.0,0.0,0.0,0.0,0.0,0.0,0.0,0.0,0.0,0.0,0.0,0.0,0.0,0.0,0.0,0.0,0.0,0.0,0.0,0.0,0.0,0.0,0.0,0.0,0.0,0.0,0.0,0.0,0.0,0.0,0.0,0.0,0.0,0.0
3331000000,62,3331000000,world,bluerov2/base_link,10.002089241449038,19.907401878505553,-94.75567465861432,-0.008069531823251305,-0.0029961471799017326,-0.06234305857846892,0.9980176595658573,0.0,0.0,0.0,0.0,0.0,0.0,0.0,0.0,0.0,0.0,0.0,0.0,0.0,0.0,0.0,0.0,0.0,0.0,0.0,0.0,0.0,0.0,0.0,0.0,0.0,0.0,0.0,0.0,0.0,0.0,0.0,0.0,0.0,0.0,0.0,0.0,0.10090582065549235,-0.7379556894660463,-0.16837861399681875,-0.12035552980638428,-0.008567547368194948,-1.0959838287771464,0.0,0.0,0.0,0.0,0.0,0.0,0.0,0.0,0.0,0.0,0.0,0.0,0.0,0.0,0.0,0.0,0.0,0.0,0.0,0.0,0.0,0.0,0.0,0.0,0.0,0.0,0.0,0.0,0.0,0.0,0.0,0.0,0.0,0.0,0.0,0.0
3380000000,63,3381000000,world,bluerov2/base_link,10.007313004061295,19.865506093329312,-94.76502351805037,-0.01141052576546693,-0.003205185771942644,-0.09311472086744638,0.9955848409069419,0.0,0.0,0.0,0.0,0.0,0.0,0.0,0.0,0.0,0.0,0.0,0.0,0.0,0.0,0.0,0.0,0.0,0.0,0.0,0.0,0.0,0.0,0.0,0.0,0.0,0.0,0.0,0.0,0.0,0.0,0.0,0.0,0.0,0.0,0.0,0.0,0.10598329501800591,-0.9342322728424268,-0.20452052920049227,-0.14084584352690951,-0.012054500666550767,-1.367479603159379,0.0,0.0,0.0,0.0,0.0,0.0,0.0,0.0,0.0,0.0,0.0,0.0,0.0,0.0,0.0,0.0,0.0,0.0,0.0,0.0,0.0,0.0,0.0,0.0,0.0,0.0,0.0,0.0,0.0,0.0,0.0,0.0,0.0,0.0,0.0,0.0
3431000000,64,3431000000,world,bluerov2/base_link,10.012470339485706,19.813782977378818,-94.77612244247408,-0.015232537823215448,-0.0034771215226330064,-0.13043369594892046,0.991333914671785,0.0,0.0,0.0,0.0,0.0,0.0,0.0,0.0,0.0,0.0,0.0,0.0,0.0,0.0,0.0,0.0,0.0,0.0,0.0,0.0,0.0,0.0,0.0,0.0,0.0,0.0,0.0,0.0,0.0,0.0,0.0,0.0,0.0,0.0,0.0,0.0,0.09823731934049726,-1.1290780076409408,-0.23825255107370796,-0.15893760039947974,-0.016486890541019518,-1.6290788069784081,0.0,0.0,0.0,0.0,0.0,0.0,0.0,0.0,0.0,0.0,0.0,0.0,0.0,0.0,0.0,0.0,0.0,0.0,0.0,0.0,0.0,0.0,0.0,0.0,0.0,0.0,0.0,0.0,0.0,0.0,0.0,0.0,0.0,0.0,0.0,0.0
3481000000,65,3481000000,world,bluerov2/base_link,10.012270156085325,19.757376569573267,-94.78425366608792,-0.016311546129197885,-0.0008050056715487591,-0.17302978213216752,0.9847811837784262,0.0,0.0,0.0,0.0,0.0,0.0,0.0,0.0,0.0,0.0,0.0,0.0,0.0,0.0,0.0,0.0,0.0,0.0,0.0,0.0,0.0,0.0,0.0,0.0,0.0,0.0,0.0,0.0,0.0,0.0,0.0,0.0,0.0,0.0,0.0,0.0,-0.16010061521278915,-1.0707507011740915,-0.03876660425338237,0.1571930786576144,0.19795130121302573,-1.7963556793788928,0.0,0.0,0.0,0.0,0.0,0.0,0.0,0.0,0.0,0.0,0.0,0.0,0.0,0.0,0.0,0.0,0.0,0.0,0.0,0.0,0.0,0.0,0.0,0.0,0.0,0.0,0.0,0.0,0.0,0.0,0.0,0.0,0.0,0.0,0.0,0.0
3531000000,66,3531000000,world,bluerov2/base_link,10.0027711560012,19.701415786671674,-94.78565596263397,-0.013719519652969156,0.003588283801510402,-0.218907358827933,0.9756425919622567,0.0,0.0,0.0,0.0,0.0,0.0,0.0,0.0,0.0,0.0,0.0,0.0,0.0,0.0,0.0,0.0,0.0,0.0,0.0,0.0,0.0,0.0,0.0,0.0,0.0,0.0,0.0,0.0,0.0,0.0,0.0,0.0,0.0,0.0,0.0,0.0,-0.18278118021890896,-1.148252194036137,-0.005953198928115308,0.11232423410322094,0.01782294781077464,-1.92764627990713,0.0,0.0,0.0,0.0,0.0,0.0,0.0,0.0,0.0,0.0,0.0,0.0,0.0,0.0,0.0,0.0,0.0,0.0,0.0,0.0,0.0,0.0,0.0,0.0,0.0,0.0,0.0,0.0,0.0,0.0,0.0,0.0,0.0,0.0,0.0,0.0
3581000000,67,3581000000,world,bluerov2/base_link,9.99440816656152,19.641734509367904,-94.78628252877051,-0.01142716801242784,0.0034899362178614406,-0.2668675840389045,0.9636591372293676,0.0,0.0,0.0,0.0,0.0,0.0,0.0,0.0,0.0,0.0,0.0,0.0,0.0,0.0,0.0,0.0,0.0,0.0,0.0,0.0,0.0,0.0,0.0,0.0,0.0,0.0,0.0,0.0,0.0,0.0,0.0,0.0,0.0,0.0,0.0,0.0,-0.1542150997312026,-1.232386118776492,-0.019854367887156478,0.04622746167348465,-0.09381803568385423,-2.018570004927139,0.0,0.0,0.0,0.0,0.0,0.0,0.0,0.0,0.0,0.0,0.0,0.0,0.0,0.0,0.0,0.0,0.0,0.0,0.0,0.0,0.0,0.0,0.0,0.0,0.0,0.0,0.0,0.0,0.0,0.0,0.0,0.0,0.0,0.0,0.0,0.0
3631000000,68,3631000000,world,bluerov2/base_link,9.98430568186301,19.579404210826684,-94.7868765764743,-0.009358077408400736,0.0031821456509454073,-0.31576772296564654,0.9487850364910723,0.0,0.0,0.0,0.0,0.0,0.0,0.0,0.0,0.0,0.0,0.0,0.0,0.0,0.0,0.0,0.0,0.0,0.0,0.0,0.0,0.0,0.0,0.0,0.0,0.0,0.0,0.0,0.0,0.0,0.0,0.0,0.0,0.0,0.0,0.0,0.0,-0.23902509118925214,-1.2570402041165012,-0.006357728337647926,0.0706236856215645,-0.038441969111314395,-2.060074452321575,0.0,0.0,0.0,0.0,0.0,0.0,0.0,0.0,0.0,0.0,0.0,0.0,0.0,0.0,0.0,0.0,0.0,0.0,0.0,0.0,0.0,0.0,0.0,0.0,0.0,0.0,0.0,0.0,0.0,0.0,0.0,0.0,0.0,0.0,0.0,0.0
3681000000,69,3681000000,world,bluerov2/base_link,9.971824785694645,19.516122057029435,-94.78736438247483,-0.007337805559198161,0.002968902573994836,-0.3641633734832219,0.9313014440235775,0.0,0.0,0.0,0.0,0.0,0.0,0.0,0.0,0.0,0.0,0.0,0.0,0.0,0.0,0.0,0.0,0.0,0.0,0.0,0.0,0.0,0.0,0.0,0.0,0.0,0.0,0.0,0.0,0.0,0.0,0.0,0.0,0.0,0.0,0.0,0.0,-0.250642980076415,-1.2608006405206338,-0.004460515345334011,0.06094170461162326,-0.07481719829700251,-2.0410766501626307,0.0,0.0,0.0,0.0,0.0,0.0,0.0,0.0,0.0,0.0,0.0,0.0,0.0,0.0,0.0,0.0,0.0,0.0,0.0,0.0,0.0,0.0,0.0,0.0,0.0,0.0,0.0,0.0,0.0,0.0,0.0,0.0,0.0,0.0,0.0,0.0
3731000000,70,3731000000,world,bluerov2/base_link,9.958386217814207,19.453121635190914,-94.78791085177855,-0.00525556679009852,0.00241985157314215,-0.41078382397358637,0.9117144143303408,0.0,0.0,0.0,0.0,0.0,0.0,0.0,0.0,0.0,0.0,0.0,0.0,0.0,0.0,0.0,0.0,0.0,0.0,0.0,0.0,0.0,0.0,0.0,0.0,0.0,0.0,0.0,0.0,0.0,0.0,0.0,0.0,0.0,0.0,0.0,0.0,-0.2884492422416745,-1.2463961726850707,-0.008403327626031921,0.07014582675576345,-0.049735104860025914,-1.9912915981091939,0.0,0.0,0.0,0.0,0.0,0.0,0.0,0.0,0.0,0.0,0.0,0.0,0.0,0.0,0.0,0.0,0.0,0.0,0.0,0.0,0.0,0.0,0.0,0.0,0.0,0.0,0.0,0.0,0.0,0.0,0.0,0.0,0.0,0.0,0.0,0.0
3781000000,71,3781000000,world,bluerov2/base_link,9.944864915249768,19.39162992775003,-94.78853753784766,-0.0029409660212205433,0.0015503132214732573,-0.4546010628067165,0.8906889585836244,0.0,0.0,0.0,0.0,0.0,0.0,0.0,0.0,0.0,0.0,0.0,0.0,0.0,0.0,0.0,0.0,0.0,0.0,0.0,0.0,0.0,0.0,0.0,0.0,0.0,0.0,0.0,0.0,0.0,0.0,0.0,0.0,0.0,0.0,0.0,0.0,-0.2717055717293009,-1.205514741603367,-0.010663982909653326,0.07141195254421821,-0.07654288197289949,-1.8897896136167247,0.0,0.0,0.0,0.0,0.0,0.0,0.0,0.0,0.0,0.0,0.0,0.0,0.0,0.0,0.0,0.0,0.0,0.0,0.0,0.0,0.0,0.0,0.0,0.0,0.0,0.0,0.0,0.0,0.0,0.0,0.0,0.0,0.0,0.0,0.0,0.0
3831000000,72,3831000000,world,bluerov2/base_link,9.93230083152739,19.332472897416196,-94.78922337532761,-0.00033959535882827356,0.00032630694371997635,-0.4948155566862239,0.8689978958893244,0.0,0.0,0.0,0.0,0.0,0.0,0.0,0.0,0.0,0.0,0.0,0.0,0.0,0.0,0.0,0.0,0.0,0.0,0.0,0.0,0.0,0.0,0.0,0.0,0.0,0.0,0.0,0.0,0.0,0.0,0.0,0.0,0.0,0.0,0.0,0.0,-0.2311469775278114,-1.156373403864542,-0.012297878714666907,0.06406448280420067,-0.11126448732402008,-1.7598506065279758,0.0,0.0,0.0,0.0,0.0,0.0,0.0,0.0,0.0,0.0,0.0,0.0,0.0,0.0,0.0,0.0,0.0,0.0,0.0,0.0,0.0,0.0,0.0,0.0,0.0,0.0,0.0,0.0,0.0,0.0,0.0,0.0,0.0,0.0,0.0,0.0
3881000000,73,3881000000,world,bluerov2/base_link,9.923217308604555,19.27703314943408,-94.78891472591344,0.0022526453371930375,-0.0013640077591700185,-0.5313207096070675,0.8471666710951631,0.0,0.0,0.0,0.0,0.0,0.0,0.0,0.0,0.0,0.0,0.0,0.0,0.0,0.0,0.0,0.0,0.0,0.0,0.0,0.0,0.0,0.0,0.0,0.0,0.0,0.0,0.0,0.0,0.0,0.0,0.0,0.0,0.0,0.0,0.0,0.0,-0.14611464510296146,-1.0700113565698475,0.0162278398874703,0.043316038294303444,-0.09005451275492136,-1.6474090742425234,0.0,0.0,0.0,0.0,0.0,0.0,0.0,0.0,0.0,0.0,0.0,0.0,0.0,0.0,0.0,0.0,0.0,0.0,0.0,0.0,0.0,0.0,0.0,0.0,0.0,0.0,0.0,0.0,0.0,0.0,0.0,0.0,0.0,0.0,0.0,0.0
3931000000,74,3931000000,world,bluerov2/base_link,9.916733685603978,19.224613940562794,-94.78848486483388,0.0036809690488317417,-0.0023265975908593403,-0.564656876288643,0.8253142731532419,0.0,0.0,0.0,0.0,0.0,0.0,0.0,0.0,0.0,0.0,0.0,0.0,0.0,0.0,0.0,0.0,0.0,0.0,0.0,0.0,0.0,0.0,0.0,0.0,0.0,0.0,0.0,0.0,0.0,0.0,0.0,0.0,0.0,0.0,0.0,0.0,-0.10149541130824138,-1.0196688897191872,0.0093363542943323,0.020222722821711444,-0.04833127169265014,-1.5347948213810285,0.0,0.0,0.0,0.0,0.0,0.0,0.0,0.0,0.0,0.0,0.0,0.0,0.0,0.0,0.0,0.0,0.0,0.0,0.0,0.0,0.0,0.0,0.0,0.0,0.0,0.0,0.0,0.0,0.0,0.0,0.0,0.0,0.0,0.0,0.0,0.0
3981000000,75,3981000000,world,bluerov2/base_link,9.913265474093029,19.17487239332623,-94.78824427910604,0.004411100996362968,-0.003233923042412913,-0.5945617392997982,0.8040313564100312,0.0,0.0,0.0,0.0,0.0,0.0,0.0,0.0,0.0,0.0,0.0,0.0,0.0,0.0,0.0,0.0,0.0,0.0,0.0,0.0,0.0,0.0,0.0,0.0,0.0,0.0,0.0,0.0,0.0,0.0,0.0,0.0,0.0,0.0,0.0,0.0,-0.04776185360691677,-0.9678186707893074,0.0038151639473745416,0.00908843592709285,-0.029068260369078443,-1.406296374391636,0.0,0.0,0.0,0.0,0.0,0.0,0.0,0.0,0.0,0.0,0.0,0.0,0.0,0.0,0.0,0.0,0.0,0.0,0.0,0.0,0.0,0.0,0.0,0.0,0.0,0.0,0.0,0.0,0.0,0.0,0.0,0.0,0.0,0.0,0.0,0.0
4031000000,76,4031000000,world,bluerov2/base_link,9.91145294632137,19.12784115601856,-94.78810893944188,0.004691926559146296,-0.003449333921319281,-0.6212733530477063,0.7835722740842245,0.0,0.0,0.0,0.0,0.0,0.0,0.0,0.0,0.0,0.0,0.0,0.0,0.0,0.0,0.0,0.0,0.0,0.0,0.0,0.0,0.0,0.0,0.0,0.0,0.0,0.0,0.0,0.0,0.0,0.0,0.0,0.0,0.0,0.0,0.0,0.0,-0.01672445586028519,-0.9214326062261522,-0.004991111842270892,0.0035270211033668953,-0.009511660121520465,-1.2856928571691009,0.0,0.0,0.0,0.0,0.0,0.0,0.0,0.0,0.0,0.0,0.0,0.0,0.0,0.0,0.0,0.0,0.0,0.0,0.0,0.0,0.0,0.0,0.0,0.0,0.0,0.0,0.0,0.0,0.0,0.0,0.0,0.0,0.0,0.0,0.0,0.0
4081000000,77,4081000000,world,bluerov2/base_link,9.912206721269179,19.08342120353362,-94.78806680013732,0.0047961662290614045,-0.0038686908187589887,-0.6448219608164298,0.7643079672944059,0.0,0.0,0.0,0.0,0.0,0.0,0.0,0.0,0.0,0.0,0.0,0.0,0.0,0.0,0.0,0.0,0.0,0.0,0.0,0.0,0.0,0.0,0.0,0.0,0.0,0.0,0.0,0.0,0.0,0.0,0.0,0.0,0.0,0.0,0.0,0.0,0.0293560973855446,-0.8717981484299604,-0.008201875664323705,-0.003426796178136547,-0.009992601832819458,-1.1575942446163463,0.0,0.0,0.0,0.0,0.0,0.0,0.0,0.0,0.0,0.0,0.0,0.0,0.0,0.0,0.0,0.0,0.0,0.0,0.0,0.0,0.0,0.0,0.0,0.0,0.0,0.0,0.0,0.0,0.0,0.0,0.0,0.0,0.0,0.0,0.0,0.0
4131000000,78,4131000000,world,bluerov2/base_link,9.914997447614528,19.041556473709413,-94.78803089714386,0.00481617149805508,-0.004198755686708026,-0.665427703294443,0.74643495807141,0.0,0.0,0.0,0.0,0.0,0.0,0.0,0.0,0.0,0.0,0.0,0.0,0.0,0.0,0.0,0.0,0.0,0.0,0.0,0.0,0.0,0.0,0.0,0.0,0.0,0.0,0.0,0.0,0.0,0.0,0.0,0.0,0.0,0.0,0.0,0.0,0.05098518872228937,-0.8126577297098105,0.0013841706746371496,0.014360919616832817,0.015633537195117782,-1.0338472796566758,0.0,0.0,0.0,0.0,0.0,0.0,0.0,0.0,0.0,0.0,0.0,0.0,0.0,0.0,0.0,0.0,0.0,0.0,0.0,0.0,0.0,0.0,0.0,0.0,0.0,0.0,0.0,0.0,0.0,0.0,0.0,0.0,0.0,0.0,0.0,0.0
4181000000,79,4181000000,world,bluerov2/base_link,9.918514505191604,19.00205786358047,-94.78800981540043,0.004682230899896978,-0.003990598807961197,-0.6833732945295928,0.7300432125283574,0.0,0.0,0.0,0.0,0.0,0.0,0.0,0.0,0.0,0.0,0.0,0.0,0.0,0.0,0.0,0.0,0.0,0.0,0.0,0.0,0.0,0.0,0.0,0.0,0.0,0.0,0.0,0.0,0.0,0.0,0.0,0.0,0.0,0.0,0.0,0.0,0.08562986568683427,-0.771575681926909,-0.003209997947283708,0.002581995905480963,0.007702096735596867,-0.9140986977188638,0.0,0.0,0.0,0.0,0.0,0.0,0.0,0.0,0.0,0.0,0.0,0.0,0.0,0.0,0.0,0.0,0.0,0.0,0.0,0.0,0.0,0.0,0.0,0.0,0.0,0.0,0.0,0.0,0.0,0.0,0.0,0.0,0.0,0.0,0.0,0.0
4231000000,80,4231000000,world,bluerov2/base_link,9.923884753378324,18.964692029439693,-94.78802771264279,0.004538086597840401,-0.0040216396382638945,-0.6988006657018537,0.7152907533299284,0.0,0.0,0.0,0.0,0.0,0.0,0.0,0.0,0.0,0.0,0.0,0.0,0.0,0.0,0.0,0.0,0.0,0.0,0.0,0.0,0.0,0.0,0.0,0.0,0.0,0.0,0.0,0.0,0.0,0.0,0.0,0.0,0.0,0.0,0.0,0.0,0.12007168374214608,-0.732729822780136,-0.005535188558974951,-0.0024639430337159013,0.0031227427112046264,-0.7984677802857976,0.0,0.0,0.0,0.0,0.0,0.0,0.0,0.0,0.0,0.0,0.0,0.0,0.0,0.0,0.0,0.0,0.0,0.0,0.0,0.0,0.0,0.0,0.0,0.0,0.0,0.0,0.0,0.0,0.0,0.0,0.0,0.0,0.0,0.0,0.0,0.0
4281000000,81,4281000000,world,bluerov2/base_link,9.929982595171088,18.92910782274301,-94.78817379973682,0.004129605358813076,-0.0038902367316009695,-0.7121563851389978,0.7019979312815018,0.0,0.0,0.0,0.0,0.0,0.0,0.0,0.0,0.0,0.0,0.0,0.0,0.0,0.0,0.0,0.0,0.0,0.0,0.0,0.0,0.0,0.0,0.0,0.0,0.0,0.0,0.0,0.0,0.0,0.0,0.0,0.0,0.0,0.0,0.0,0.0,0.11703877537655977,-0.6983972866492081,-0.00642161229823733,-0.004706393532123437,0.0278875292102792,-0.713044107230792,0.0,0.0,0.0,0.0,0.0,0.0,0.0,0.0,0.0,0.0,0.0,0.0,0.0,0.0,0.0,0.0,0.0,0.0,0.0,0.0,0.0,0.0,0.0,0.0,0.0,0.0,0.0,0.0,0.0,0.0,0.0,0.0,0.0,0.0,0.0,0.0
4331000000,82,4331000000,world,bluerov2/base_link,9.935593072005373,18.895002166459307,-94.78846622886905,0.0032735539270145044,-0.003362417198568885,-0.723898538537907,0.689890486887558,0.0,0.0,0.0,0.0,0.0,0.0,0.0,0.0,0.0,0.0,0.0,0.0,0.0,0.0,0.0,0.0,0.0,0.0,0.0,0.0,0.0,0.0,0.0,0.0,0.0,0.0,0.0,0.0,0.0,0.0,0.0,0.0,0.0,0.0,0.0,0.0,0.10788367173166534,-0.664188158375792,-0.0022761984924357394,-0.004843204139212158,0.05039317474948393,-0.6403286645442263,0.0,0.0,0.0,0.0,0.0,0.0,0.0,0.0,0.0,0.0,0.0,0.0,0.0,0.0,0.0,0.0,0.0,0.0,0.0,0.0,0.0,0.0,0.0,0.0,0.0,0.0,0.0,0.0,0.0,0.0,0.0,0.0,0.0,0.0,0.0,0.0
4381000000,83,4381000000,world,bluerov2/base_link,9.940425781066105,18.862232821407208,-94.78882758326198,0.002243107749487659,-0.0023249474816059174,-0.7340193011836876,0.6791209233830471,0.0,0.0,0.0,0.0,0.0,0.0,0.0,0.0,0.0,0.0,0.0,0.0,0.0,0.0,0.0,0.0,0.0,0.0,0.0,0.0,0.0,0.0,0.0,0.0,0.0,0.0,0.0,0.0,0.0,0.0,0.0,0.0,0.0,0.0,0.0,0.0,0.09387158692773363,-0.6487372874321624,-0.013135465621582802,0.0007405044623428204,0.058043306176652626,-0.551622379295012,0.0,0.0,0.0,0.0,0.0,0.0,0.0,0.0,0.0,0.0,0.0,0.0,0.0,0.0,0.0,0.0,0.0,0.0,0.0,0.0,0.0,0.0,0.0,0.0,0.0,0.0,0.0,0.0,0.0,0.0,0.0,0.0,0.0,0.0,0.0,0.0
4431000000,84,4431000000,world,bluerov2/base_link,9.944773281990201,18.830643988862814,-94.78921541371423,0.0011157668493749153,-0.0010886520327427237,-0.7426537993709619,0.6696737296482255,0.0,0.0,0.0,0.0,0.0,0.0,0.0,0.0,0.0,0.0,0.0,0.0,0.0,0.0,0.0,0.0,0.0,0.0,0.0,0.0,0.0,0.0,0.0,0.0,0.0,0.0,0.0,0.0,0.0,0.0,0.0,0.0,0.0,0.0,0.0,0.0,0.08318524936985251,-0.621527803369967,-0.007894131563524278,0.004757547187004789,0.06868599109089965,-0.4778731796946421,0.0,0.0,0.0,0.0,0.0,0.0,0.0,0.0,0.0,0.0,0.0,0.0,0.0,0.0,0.0,0.0,0.0,0.0,0.0,0.0,0.0,0.0,0.0,0.0,0.0,0.0,0.0,0.0,0.0,0.0,0.0,0.0,0.0,0.0,0.0,0.0
4481000000,85,4481000000,world,bluerov2/base_link,9.948626516191428,18.80023752916061,-94.78940480428722,6.305716444077442e-05,7.927384121653583e-05,-0.7498174245346375,0.6616447835536038,0.0,0.0,0.0,0.0,0.0,0.0,0.0,0.0,0.0,0.0,0.0,0.0,0.0,0.0,0.0,0.0,0.0,0.0,0.0,0.0,0.0,0.0,0.0,0.0,0.0,0.0,0.0,0.0,0.0,0.0,0.0,0.0,0.0,0.0,0.0,0.0,0.077003285740311,-0.5977835088168288,-0.001980716930338394,0.006133671316472951,0.039320347514637435,-0.3674811738935293,0.0,0.0,0.0,0.0,0.0,0.0,0.0,0.0,0.0,0.0,0.0,0.0,0.0,0.0,0.0,0.0,0.0,0.0,0.0,0.0,0.0,0.0,0.0,0.0,0.0,0.0,0.0,0.0,0.0,0.0,0.0,0.0,0.0,0.0,0.0,0.0
4531000000,86,4531000000,world,bluerov2/base_link,9.951646193474485,18.77094382452624,-94.78929441785193,-0.0003384830978572591,0.0004796133430726819,-0.7549252140053365,0.6558106256071418,0.0,0.0,0.0,0.0,0.0,0.0,0.0,0.0,0.0,0.0,0.0,0.0,0.0,0.0,0.0,0.0,0.0,0.0,0.0,0.0,0.0,0.0,0.0,0.0,0.0,0.0,0.0,0.0,0.0,0.0,0.0,0.0,0.0,0.0,0.0,0.0,0.04865339562242018,-0.5830601086630283,-0.0016997414986985994,0.0031844787397344895,0.008709997107170608,-0.2489884261245069,0.0,0.0,0.0,0.0,0.0,0.0,0.0,0.0,0.0,0.0,0.0,0.0,0.0,0.0,0.0,0.0,0.0,0.0,0.0,0.0,0.0,0.0,0.0,0.0,0.0,0.0,0.0,0.0,0.0,0.0,0.0,0.0,0.0,0.0,0.0,0.0
4581000000,87,4581000000,world,bluerov2/base_link,9.953402631003403,18.742162089773945,-94.78928510012393,-0.0003016375172472771,0.0004757960587266593,-0.7580818620290335,0.6521591623948191,0.0,0.0,0.0,0.0,0.0,0.0,0.0,0.0,0.0,0.0,0.0,0.0,0.0,0.0,0.0,0.0,0.0,0.0,0.0,0.0,0.0,0.0,0.0,0.0,0.0,0.0,0.0,0.0,0.0,0.0,0.0,0.0,0.0,0.0,0.0,0.0,0.025408871904175442,-0.5728162871423313,-0.0015524218683347242,-0.002995254567975164,-0.009663318915858546,-0.14116873232854846,0.0,0.0,0.0,0.0,0.0,0.0,0.0,0.0,0.0,0.0,0.0,0.0,0.0,0.0,0.0,0.0,0.0,0.0,0.0,0.0,0.0,0.0,0.0,0.0,0.0,0.0,0.0,0.0,0.0,0.0,0.0,0.0,0.0,0.0,0.0,0.0
4631000000,88,4631000000,world,bluerov2/base_link,9.954084103386268,18.713652519257483,-94.78937554377889,-8.132967639571447e-05,0.00018927878741791491,-0.7595456645665898,0.6504539499435158,0.0,0.0,0.0,0.0,0.0,0.0,0.0,0.0,0.0,0.0,0.0,0.0,0.0,0.0,0.0,0.0,0.0,0.0,0.0,0.0,0.0,0.0,0.0,0.0,0.0,0.0,0.0,0.0,0.0,0.0,0.0,0.0,0.0,0.0,0.0,0.0,0.0031778840040584855,-0.5635432480673008,0.00283449292453934,0.0015503488848335823,-0.020894295421270213,-0.033221117301788436,0.0,0.0,0.0,0.0,0.0,0.0,0.0,0.0,0.0,0.0,0.0,0.0,0.0,0.0,0.0,0.0,0.0,0.0,0.0,0.0,0.0,0.0,0.0,0.0,0.0,0.0,0.0,0.0,0.0,0.0,0.0,0.0,0.0,0.0,0.0,0.0
4681000000,89,4681000000,world,bluerov2/base_link,9.953973801882231,18.685241868923438,-94.78950674290923,0.0003491504694054898,-0.00021081996782177197,-0.7594752457043282,0.6505360749499149,0.0,0.0,0.0,0.0,0.0,0.0,0.0,0.0,0.0,0.0,0.0,0.0,0.0,0.0,0.0,0.0,0.0,0.0,0.0,0.0,0.0,0.0,0.0,0.0,0.0,0.0,0.0,0.0,0.0,0.0,0.0,0.0,0.0,0.0,0.0,0.0,-0.011750718583866998,-0.562040425951444,0.003436075355989835,-0.002282462135622682,-0.02631138304300455,0.04052795401851026,0.0,0.0,0.0,0.0,0.0,0.0,0.0,0.0,0.0,0.0,0.0,0.0,0.0,0.0,0.0,0.0,0.0,0.0,0.0,0.0,0.0,0.0,0.0,0.0,0.0,0.0,0.0,0.0,0.0,0.0,0.0,0.0,0.0,0.0,0.0,0.0
4731000000,90,4731000000,world,bluerov2/base_link,9.953770819414675,18.656919411536357,-94.78949838580861,0.000398444845660625,-0.00039159638803862296,-0.7587535783368917,0.6513775366520833,0.0,0.0,0.0,0.0,0.0,0.0,0.0,0.0,0.0,0.0,0.0,0.0,0.0,0.0,0.0,0.0,0.0,0.0,0.0,0.0,0.0,0.0,0.0,0.0,0.0,0.0,0.0,0.0,0.0,0.0,0.0,0.0,0.0,0.0,0.0,0.0,-0.0018661056234558536,-0.5690367003093602,-0.0007552732427746926,-0.000585224060020134,0.015540740248503417,0.03811693449691228,0.0,0.0,0.0,0.0,0.0,0.0,0.0,0.0,0.0,0.0,0.0,0.0,0.0,0.0,0.0,0.0,0.0,0.0,0.0,0.0,0.0,0.0,0.0,0.0,0.0,0.0,0.0,0.0,0.0,0.0,0.0,0.0,0.0,0.0,0.0,0.0
4781000000,91,4781000000,world,bluerov2/base_link,9.953899429409539,18.62839874391091,-94.78948637670807,0.00013756806606144537,-7.973416966376644e-05,-0.7580644546138137,0.6521796204793208,0.0,0.0,0.0,0.0,0.0,0.0,0.0,0.0,0.0,0.0,0.0,0.0,0.0,0.0,0.0,0.0,0.0,0.0,0.0,0.0,0.0,0.0,0.0,0.0,0.0,0.0,0.0,0.0,0.0,0.0,0.0,0.0,0.0,0.0,0.0,0.0,-0.0033049431275475613,-0.5663303261701331,0.006882942120494868,0.004029120021527137,0.007642403432999504,0.05790064920427371,0.0,0.0,0.0,0.0,0.0,0.0,0.0,0.0,0.0,0.0,0.0,0.0,0.0,0.0,0.0,0.0,0.0,0.0,0.0,0.0,0.0,0.0,0.0,0.0,0.0,0.0,0.0,0.0,0.0,0.0,0.0,0.0,0.0,0.0,0.0,0.0
4831000000,92,4831000000,world,bluerov2/base_link,9.95377245595797,18.59954095042719,-94.7895092299107,0.00015793466080551595,-0.00012545442937476707,-0.7568805865960688,0.6535531630646584,0.0,0.0,0.0,0.0,0.0,0.0,0.0,0.0,0.0,0.0,0.0,0.0,0.0,0.0,0.0,0.0,0.0,0.0,0.0,0.0,0.0,0.0,0.0,0.0,0.0,0.0,0.0,0.0,0.0,0.0,0.0,0.0,0.0,0.0,0.0,0.0,-0.002833039477946987,-0.583898968089079,-0.0034095689846792418,-0.0029212103602729994,-0.010624335394633802,0.08453792532873339,0.0,0.0,0.0,0.0,0.0,0.0,0.0,0.0,0.0,0.0,0.0,0.0,0.0,0.0,0.0,0.0,0.0,0.0,0.0,0.0,0.0,0.0,0.0,0.0,0.0,0.0,0.0,0.0,0.0,0.0,0.0,0.0,0.0,0.0,0.0,0.0
4881000000,93,4881000000,world,bluerov2/base_link,9.953674412758431,18.570260734602154,-94.78952987883993,0.0002943230644968218,-0.0002343571976317298,-0.755491630378067,0.6551581907290237,0.0,0.0,0.0,0.0,0.0,0.0,0.0,0.0,0.0,0.0,0.0,0.0,0.0,0.0,0.0,0.0,0.0,0.0,0.0,0.0,0.0,0.0,0.0,0.0,0.0,0.0,0.0,0.0,0.0,0.0,0.0,0.0,0.0,0.0,0.0,0.0,-0.004430795127000003,-0.5917914994345108,-0.0017431708783231306,-0.004005941822548967,0.01517032126785472,0.07614938167861042,0.0,0.0,0.0,0.0,0.0,0.0,0.0,0.0,0.0,0.0,0.0,0.0,0.0,0.0,0.0,0.0,0.0,0.0,0.0,0.0,0.0,0.0,0.0,0.0,0.0,0.0,0.0,0.0,0.0,0.0,0.0,0.0,0.0,0.0,0.0,0.0
4931000000,94,4931000000,world,bluerov2/base_link,9.953765499372048,18.540503552419455,-94.7894898383936,0.00030420409696761084,-0.0001417776364236896,-0.7540736545137324,0.6567897768139158,0.0,0.0,0.0,0.0,0.0,0.0,0.0,0.0,0.0,0.0,0.0,0.0,0.0,0.0,0.0,0.0,0.0,0.0,0.0,0.0,0.0,0.0,0.0,0.0,0.0,0.0,0.0,0.0,0.0,0.0,0.0,0.0,0.0,0.0,0.0,0.0,-0.0060736165447363155,-0.5990658353688745,0.0027766172919885495,-0.0008695991538869396,0.00923894074963164,0.08725119780083124,0.0,0.0,0.0,0.0,0.0,0.0,0.0,0.0,0.0,0.0,0.0,0.0,0.0,0.0,0.0,0.0,0.0,0.0,0.0,0.0,0.0,0.0,0.0,0.0,0.0,0.0,0.0,0.0,0.0,0.0,0.0,0.0,0.0,0.0,0.0,0.0
4981000000,95,4981000000,world,bluerov2/base_link,9.95375060122118,18.510041708939994,-94.78952546298571,0.0003206542167473412,-0.00025579541007236264,-0.7524905861253692,0.6586028769617391,0.0,0.0,0.0,0.0,0.0,0.0,0.0,0.0,0.0,0.0,0.0,0.0,0.0,0.0,0.0,0.0,0.0,0.0,0.0,0.0,0.0,0.0,0.0,0.0,0.0,0.0,0.0,0.0,0.0,0.0,0.0,0.0,0.0,0.0,0.0,0.0,-0.001889712851999667,-0.6131882813629898,0.00203305439812342,-0.0035080095665308213,0.000767286463415179,0.09233537736516327,0.0,0.0,0.0,0.0,0.0,0.0,0.0,0.0,0.0,0.0,0.0,0.0,0.0,0.0,0.0,0.0,0.0,0.0,0.0,0.0,0.0,0.0,0.0,0.0,0.0,0.0,0.0,0.0,0.0,0.0,0.0,0.0,0.0,0.0,0.0,0.0
5031000000,96,5031000000,world,bluerov2/base_link,9.953938531046859,18.47887312385853,-94.7895426580442,0.00023658776211079582,-0.0002189171858627802,-0.7511017843966346,0.6601863415564487,0.0,0.0,0.0,0.0,0.0,0.0,0.0,0.0,0.0,0.0,0.0,0.0,0.0,0.0,0.0,0.0,0.0,0.0,0.0,0.0,0.0,0.0,0.0,0.0,0.0,0.0,0.0,0.0,0.0,0.0,0.0,0.0,0.0,0.0,0.0,0.0,0.0005243653497028672,-0.6336241955171452,-0.0028213394553789147,-0.00798412240700333,0.002291189109397996,0.08522025685763261,0.0,0.0,0.0,0.0,0.0,0.0,0.0,0.0,0.0,0.0,0.0,0.0,0.0,0.0,0.0,0.0,0.0,0.0,0.0,0.0,0.0,0.0,0.0,0.0,0.0,0.0,0.0,0.0,0.0,0.0,0.0,0.0,0.0,0.0,0.0,0.0
5081000000,97,5081000000,world,bluerov2/base_link,9.954354875594438,18.44691367151373,-94.78953633862457,0.000278525776831477,-0.0001746943855908231,-0.7497118582692925,0.6617643247226823,0.0,0.0,0.0,0.0,0.0,0.0,0.0,0.0,0.0,0.0,0.0,0.0,0.0,0.0,0.0,0.0,0.0,0.0,0.0,0.0,0.0,0.0,0.0,0.0,0.0,0.0,0.0,0.0,0.0,0.0,0.0,0.0,0.0,0.0,0.0,0.0,-0.001651445564539147,-0.6442545663531093,0.0034326606254924228,-0.0034261907904804016,0.008879262267015589,0.08033096654522068,0.0,0.0,0.0,0.0,0.0,0.0,0.0,0.0,0.0,0.0,0.0,0.0,0.0,0.0,0.0,0.0,0.0,0.0,0.0,0.0,0.0,0.0,0.0,0.0,0.0,0.0,0.0,0.0,0.0,0.0,0.0,0.0,0.0,0.0,0.0,0.0
5131000000,98,5131000000,world,bluerov2/base_link,9.954672474234298,18.41403775921331,-94.78955564010143,0.0002810417660282851,-0.00019616188891929061,-0.7482971295287124,0.663363617087287,0.0,0.0,0.0,0.0,0.0,0.0,0.0,0.0,0.0,0.0,0.0,0.0,0.0,0.0,0.0,0.0,0.0,0.0,0.0,0.0,0.0,0.0,0.0,0.0,0.0,0.0,0.0,0.0,0.0,0.0,0.0,0.0,0.0,0.0,0.0,0.0,0.005258938980432701,-0.6705220212068391,-0.003989874644762435,-0.0043019712875558514,0.010298655218535548,0.07950501435023646,0.0,0.0,0.0,0.0,0.0,0.0,0.0,0.0,0.0,0.0,0.0,0.0,0.0,0.0,0.0,0.0,0.0,0.0,0.0,0.0,0.0,0.0,0.0,0.0,0.0,0.0,0.0,0.0,0.0,0.0,0.0,0.0,0.0,0.0,0.0,0.0
5181000000,99,5181000000,world,bluerov2/base_link,9.95497598914292,18.380174564315546,-94.7895713624894,0.0002835668845210031,-0.0002493296316525971,-0.7468768774691074,0.6649622450384328,0.0,0.0,0.0,0.0,0.0,0.0,0.0,0.0,0.0,0.0,0.0,0.0,0.0,0.0,0.0,0.0,0.0,0.0,0.0,0.0,0.0,0.0,0.0,0.0,0.0,0.0,0.0,0.0,0.0,0.0,0.0,0.0,0.0,0.0,0.0,0.0,-0.0020544523103136637,-0.6803750946949035,0.006987659836311485,-0.0015562993527329133,0.019337967895901854,0.06803992846716676,0.0,0.0,0.0,0.0,0.0,0.0,0.0,0.0,0.0,0.0,0.0,0.0,0.0,0.0,0.0,0.0,0.0,0.0,0.0,0.0,0.0,0.0,0.0,0.0,0.0,0.0,0.0,0.0,0.0,0.0,0.0,0.0,0.0,0.0,0.0,0.0
5231000000,100,5231000000,world,bluerov2/base_link,9.955404441884447,18.34526828331527,-94.78954065550346,0.00025409170757699945,-0.00019608920447571515,-0.7455538663968394,0.6664452935441528,0.0,0.0,0.0,0.0,0.0,0.0,0.0,0.0,0.0,0.0,0.0,0.0,0.0,0.0,0.0,0.0,0.0,0.0,0.0,0.0,0.0,0.0,0.0,0.0,0.0,0.0,0.0,0.0,0.0,0.0,0.0,0.0,0.0,0.0,0.0,0.0,-0.005553851547108153,-0.7032487970446726,0.006627788361916569,-0.008925608158547144,0.0049190779322821464,0.07898051380114061,0.0,0.0,0.0,0.0,0.0,0.0,0.0,0.0,0.0,0.0,0.0,0.0,0.0,0.0,0.0,0.0,0.0,0.0,0.0,0.0,0.0,0.0,0.0,0.0,0.0,0.0,0.0,0.0,0.0,0.0,0.0,0.0,0.0,0.0,0.0,0.0
5281000000,101,5281000000,world,bluerov2/base_link,9.955824025124118,18.30919592914084,-94.7895451698259,0.00027301912279342473,-0.00016190516747426097,-0.7441991728890528,0.6679577009949995,0.0,0.0,0.0,0.0,0.0,0.0,0.0,0.0,0.0,0.0,0.0,0.0,0.0,0.0,0.0,0.0,0.0,0.0,0.0,0.0,0.0,0.0,0.0,0.0,0.0,0.0,0.0,0.0,0.0,0.0,0.0,0.0,0.0,0.0,0.0,0.0,-0.007108661183103794,-0.7210577183880605,0.011354600288606825,-0.0006882915166819023,0.0143624102637796,0.07187974727697019,0.0,0.0,0.0,0.0,0.0,0.0,0.0,0.0,0.0,0.0,0.0,0.0,0.0,0.0,0.0,0.0,0.0,0.0,0.0,0.0,0.0,0.0,0.0,0.0,0.0,0.0,0.0,0.0,0.0,0.0,0.0,0.0,0.0,0.0,0.0,0.0
5331000000,102,5331000000,world,bluerov2/base_link,9.956116318251338,18.27195663139427,-94.78956998027564,0.0002585847891721518,-0.00021475292924781123,-0.7428721994529291,0.6694331798581944,0.0,0.0,0.0,0.0,0.0,0.0,0.0,0.0,0.0,0.0,0.0,0.0,0.0,0.0,0.0,0.0,0.0,0.0,0.0,0.0,0.0,0.0,0.0,0.0,0.0,0.0,0.0,0.0,0.0,0.0,0.0,0.0,0.0,0.0,0.0,0.0,0.011793176801196131,-0.7562793552594697,-0.0003164037146597074,0.010656648086692552,-0.015009091679925016,0.09563534955889251,0.0,0.0,0.0,0.0,0.0,0.0,0.0,0.0,0.0,0.0,0.0,0.0,0.0,0.0,0.0,0.0,0.0,0.0,0.0,0.0,0.0,0.0,0.0,0.0,0.0,0.0,0.0,0.0,0.0,0.0,0.0,0.0,0.0,0.0,0.0,0.0
5381000000,103,5381000000,world,bluerov2/base_link,9.956381249675706,18.233551421563416,-94.78957392097094,0.00027217785616408155,-0.00023106657341571689,-0.7415294037695818,0.6709202753476614,0.0,0.0,0.0,0.0,0.0,0.0,0.0,0.0,0.0,0.0,0.0,0.0,0.0,0.0,0.0,0.0,0.0,0.0,0.0,0.0,0.0,0.0,0.0,0.0,0.0,0.0,0.0,0.0,0.0,0.0,0.0,0.0,0.0,0.0,0.0,0.0,0.0020602659699928017,-0.7724907379979687,0.00722795280961275,0.0011953986096137515,-0.0031053334748323497,0.07514649945124445,0.0,0.0,0.0,0.0,0.0,0.0,0.0,0.0,0.0,0.0,0.0,0.0,0.0,0.0,0.0,0.0,0.0,0.0,0.0,0.0,0.0,0.0,0.0,0.0,0.0,0.0,0.0,0.0,0.0,0.0,0.0,0.0,0.0,0.0,0.0,0.0
5431000000,104,5431000000,world,bluerov2/base_link,9.956823157063452,18.19394957036482,-94.78956391955003,0.00026983355938880603,-0.00020401167147180213,-0.74037373345069,0.6721953736715053,0.0,0.0,0.0,0.0,0.0,0.0,0.0,0.0,0.0,0.0,0.0,0.0,0.0,0.0,0.0,0.0,0.0,0.0,0.0,0.0,0.0,0.0,0.0,0.0,0.0,0.0,0.0,0.0,0.0,0.0,0.0,0.0,0.0,0.0,0.0,0.0,0.0034473169116175056,-0.8068069379542895,-0.0024140394678889045,-0.01032759634630931,0.004261278240654209,0.0629448490469905,0.0,0.0,0.0,0.0,0.0,0.0,0.0,0.0,0.0,0.0,0.0,0.0,0.0,0.0,0.0,0.0,0.0,0.0,0.0,0.0,0.0,0.0,0.0,0.0,0.0,0.0,0.0,0.0,0.0,0.0,0.0,0.0,0.0,0.0,0.0,0.0
5481000000,105,5481000000,world,bluerov2/base_link,9.957279926577977,18.153069097447815,-94.78959114214368,0.00028835213688599117,-0.0002224069367380001,-0.7392905597745212,0.673386468245743,0.0,0.0,0.0,0.0,0.0,0.0,0.0,0.0,0.0,0.0,0.0,0.0,0.0,0.0,0.0,0.0,0.0,0.0,0.0,0.0,0.0,0.0,0.0,0.0,0.0,0.0,0.0,0.0,0.0,0.0,0.0,0.0,0.0,0.0,0.0,0.0,0.012437097088309191,-0.8322068717434411,-0.0029877287828399737,0.007498462986644273,-0.006996455771794432,0.0744331160797734,0.0,0.0,0.0,0.0,0.0,0.0,0.0,0.0,0.0,0.0,0.0,0.0,0.0,0.0,0.0,0.0,0.0,0.0,0.0,0.0,0.0,0.0,0.0,0.0,0.0,0.0,0.0,0.0,0.0,0.0,0.0,0.0,0.0,0.0,0.0,0.0
5531000000,106,5531000000,world,bluerov2/base_link,9.957582344437046,18.110997956035295,-94.78957188448427,0.0002749689191172496,-0.00019234231405116292,-0.7382313723603594,0.6745474988905289,0.0,0.0,0.0,0.0,0.0,0.0,0.0,0.0,0.0,0.0,0.0,0.0,0.0,0.0,0.0,0.0,0.0,0.0,0.0,0.0,0.0,0.0,0.0,0.0,0.0,0.0,0.0,0.0,0.0,0.0,0.0,0.0,0.0,0.0,0.0,0.0,0.006908760891703029,-0.853555751497576,0.0003223345193028045,0.004284789538595648,-0.0008879618512307846,0.06562270378836224,0.0,0.0,0.0,0.0,0.0,0.0,0.0,0.0,0.0,0.0,0.0,0.0,0.0,0.0,0.0,0.0,0.0,0.0,0.0,0.0,0.0,0.0,0.0,0.0,0.0,0.0,0.0,0.0,0.0,0.0,0.0,0.0,0.0,0.0,0.0,0.0
5581000000,107,5581000000,world,bluerov2/base_link,9.957910668320187,18.067700386038236,-94.78956347107007,0.00035246621591951524,-0.00019384696671666306,-0.7372042902205647,0.6756697955890242,0.0,0.0,0.0,0.0,0.0,0.0,0.0,0.0,0.0,0.0,0.0,0.0,0.0,0.0,0.0,0.0,0.0,0.0,0.0,0.0,0.0,0.0,0.0,0.0,0.0,0.0,0.0,0.0,0.0,0.0,0.0,0.0,0.0,0.0,0.0,0.0,0.010118857973463364,-0.8782641661844484,-0.0004681942257784641,0.00831644117084783,0.008945190215020474,0.050143926851375205,0.0,0.0,0.0,0.0,0.0,0.0,0.0,0.0,0.0,0.0,0.0,0.0,0.0,0.0,0.0,0.0,0.0,0.0,0.0,0.0,0.0,0.0,0.0,0.0,0.0,0.0,0.0,0.0,0.0,0.0,0.0,0.0,0.0,0.0,0.0,0.0
5631000000,108,5631000000,world,bluerov2/base_link,9.958060053461116,18.023215393562545,-94.78954803967267,0.00020652892793809262,-0.00019635202849556754,-0.7363867771382475,0.6765607387719361,0.0,0.0,0.0,0.0,0.0,0.0,0.0,0.0,0.0,0.0,0.0,0.0,0.0,0.0,0.0,0.0,0.0,0.0,0.0,0.0,0.0,0.0,0.0,0.0,0.0,0.0,0.0,0.0,0.0,0.0,0.0,0.0,0.0,0.0,0.0,0.0,0.012552709246416266,-0.9064960351496898,-0.0046722591803288974,-0.001988697927996918,-0.011620242269337007,0.05518525373875903,0.0,0.0,0.0,0.0,0.0,0.0,0.0,0.0,0.0,0.0,0.0,0.0,0.0,0.0,0.0,0.0,0.0,0.0,0.0,0.0,0.0,0.0,0.0,0.0,0.0,0.0,0.0,0.0,0.0,0.0,0.0,0.0,0.0,0.0,0.0,0.0
5681000000,109,5681000000,world,bluerov2/base_link,9.958182468561699,17.97749374868401,-94.78956170220546,0.00019410953459816368,-0.00019485211644091715,-0.7354483919986102,0.677580686753098,0.0,0.0,0.0,0.0,0.0,0.0,0.0,0.0,0.0,0.0,0.0,0.0,0.0,0.0,0.0,0.0,0.0,0.0,0.0,0.0,0.0,0.0,0.0,0.0,0.0,0.0,0.0,0.0,0.0,0.0,0.0,0.0,0.0,0.0,0.0,0.0,-0.004157154448518391,-0.9250994754589931,0.0008538234616511093,-0.014125224133888978,0.0027793338572901297,0.05144743331940961,0.0,0.0,0.0,0.0,0.0,0.0,0.0,0.0,0.0,0.0,0.0,0.0,0.0,0.0,0.0,0.0,0.0,0.0,0.0,0.0,0.0,0.0,0.0,0.0,0.0,0.0,0.0,0.0,0.0,0.0,0.0,0.0,0.0,0.0,0.0,0.0
5731000000,110,5731000000,world,bluerov2/base_link,9.958602334396938,17.93051188189548,-94.78960379904021,0.00027006167577774706,-0.00017855127214484585,-0.734542980224083,0.678562086613787,0.0,0.0,0.0,0.0,0.0,0.0,0.0,0.0,0.0,0.0,0.0,0.0,0.0,0.0,0.0,0.0,0.0,0.0,0.0,0.0,0.0,0.0,0.0,0.0,0.0,0.0,0.0,0.0,0.0,0.0,0.0,0.0,0.0,0.0,0.0,0.0,0.005266502598972125,-0.9549045748633989,-0.003648538099334409,-0.0015928082717289141,0.021122887587785886,0.03494832366111847,0.0,0.0,0.0,0.0,0.0,0.0,0.0,0.0,0.0,0.0,0.0,0.0,0.0,0.0,0.0,0.0,0.0,0.0,0.0,0.0,0.0,0.0,0.0,0.0,0.0,0.0,0.0,0.0,0.0,0.0,0.0,0.0,0.0,0.0,0.0,0.0
5781000000,111,5781000000,world,bluerov2/base_link,9.958942581862479,17.88235152839433,-94.789566194157,0.00013639106775246383,-0.00014414969746867918,-0.733800766363628,0.6793647002181475,0.0,0.0,0.0,0.0,0.0,0.0,0.0,0.0,0.0,0.0,0.0,0.0,0.0,0.0,0.0,0.0,0.0,0.0,0.0,0.0,0.0,0.0,0.0,0.0,0.0,0.0,0.0,0.0,0.0,0.0,0.0,0.0,0.0,0.0,0.0,0.0,0.009629269231216035,-0.9842659190032845,-0.008089319153600099,-0.010835610251361203,-0.0021740295069606294,0.044886034987902196,0.0,0.0,0.0,0.0,0.0,0.0,0.0,0.0,0.0,0.0,0.0,0.0,0.0,0.0,0.0,0.0,0.0,0.0,0.0,0.0,0.0,0.0,0.0,0.0,0.0,0.0,0.0,0.0,0.0,0.0,0.0,0.0,0.0,0.0,0.0,0.0
5831000000,112,5831000000,world,bluerov2/base_link,9.95909990763768,17.832858394818714,-94.78961721092556,0.0002979236799037149,-0.00022648330868450174,-0.7327594875113832,0.6804876144419137,0.0,0.0,0.0,0.0,0.0,0.0,0.0,0.0,0.0,0.0,0.0,0.0,0.0,0.0,0.0,0.0,0.0,0.0,0.0,0.0,0.0,0.0,0.0,0.0,0.0,0.0,0.0,0.0,0.0,0.0,0.0,0.0,0.0,0.0,0.0,0.0,-0.0014832038660406392,-1.007126745231307,-0.006408154830143799,-0.011256423694295789,0.0008794746313298604,0.05427247669655569,0.0,0.0,0.0,0.0,0.0,0.0,0.0,0.0,0.0,0.0,0.0,0.0,0.0,0.0,0.0,0.0,0.0,0.0,0.0,0.0,0.0,0.0,0.0,0.0,0.0,0.0,0.0,0.0,0.0,0.0,0.0,0.0,0.0,0.0,0.0,0.0
5881000000,113,5881000000,world,bluerov2/base_link,9.959341592966002,17.782268492318913,-94.78960787535125,0.0002252028430099386,-0.00023057479849270822,-0.7320712576923805,0.6812279866385689,0.0,0.0,0.0,0.0,0.0,0.0,0.0,0.0,0.0,0.0,0.0,0.0,0.0,0.0,0.0,0.0,0.0,0.0,0.0,0.0,0.0,0.0,0.0,0.0,0.0,0.0,0.0,0.0,0.0,0.0,0.0,0.0,0.0,0.0,0.0,0.0,0.0052511899683296255,-1.030099658197588,-0.007619901913802475,-0.010123431689605713,0.004013084899673988,0.03532625718405366,0.0,0.0,0.0,0.0,0.0,0.0,0.0,0.0,0.0,0.0,0.0,0.0,0.0,0.0,0.0,0.0,0.0,0.0,0.0,0.0,0.0,0.0,0.0,0.0,0.0,0.0,0.0,0.0,0.0,0.0,0.0,0.0,0.0,0.0,0.0,0.0
5931000000,114,5931000000,world,bluerov2/base_link,9.959604877248465,17.73060389805692,-94.78960406525437,0.00025992953002429154,-0.0002291234708059145,-0.7314029914340553,0.6819454113493175,0.0,0.0,0.0,0.0,0.0,0.0,0.0,0.0,0.0,0.0,0.0,0.0,0.0,0.0,0.0,0.0,0.0,0.0,0.0,0.0,0.0,0.0,0.0,0.0,0.0,0.0,0.0,0.0,0.0,0.0,0.0,0.0,0.0,0.0,0.0,0.0,0.010937847653643928,-1.0487772321187527,-0.005007898571617558,0.0019197914965374458,-0.008777615816554058,0.04523130109623495,0.0,0.0,0.0,0.0,0.0,0.0,0.0,0.0,0.0,0.0,0.0,0.0,0.0,0.0,0.0,0.0,0.0,0.0,0.0,0.0,0.0,0.0,0.0,0.0,0.0,0.0,0.0,0.0,0.0,0.0,0.0,0.0,0.0,0.0,0.0,0.0
5981000000,115,5981000000,world,bluerov2/base_link,9.959707677328879,17.67789378982797,-94.78958956821013,0.00022589880207344353,-0.0001404259626733501,-0.730669055171657,0.6827317636267105,0.0,0.0,0.0,0.0,0.0,0.0,0.0,0.0,0.0,0.0,0.0,0.0,0.0,0.0,0.0,0.0,0.0,0.0,0.0,0.0,0.0,0.0,0.0,0.0,0.0,0.0,0.0,0.0,0.0,0.0,0.0,0.0,0.0,0.0,0.0,0.0,-0.0029985673604826196,-1.0656183454931278,-0.0008712432911275425,-0.01372688891585423,0.005145500408777774,0.0385359259396739,0.0,0.0,0.0,0.0,0.0,0.0,0.0,0.0,0.0,0.0,0.0,0.0,0.0,0.0,0.0,0.0,0.0,0.0,0.0,0.0,0.0,0.0,0.0,0.0,0.0,0.0,0.0,0.0,0.0,0.0,0.0,0.0,0.0,0.0,0.0,0.0
6031000000,116,6031000000,world,bluerov2/base_link,9.959921322845773,17.624088425784933,-94.78961303399129,0.0003151096548681296,-0.00017812608995113952,-0.7298713820012611,0.6835844020401364,0.0,0.0,0.0,0.0,0.0,0.0,0.0,0.0,0.0,0.0,0.0,0.0,0.0,0.0,0.0,0.0,0.0,0.0,0.0,0.0,0.0,0.0,0.0,0.0,0.0,0.0,0.0,0.0,0.0,0.0,0.0,0.0,0.0,0.0,0.0,0.0,-0.003960778960145065,-1.0869544182045352,-0.0009423408586814295,-0.005577592220796735,0.00603529920036771,0.04095235838685852,0.0,0.0,0.0,0.0,0.0,0.0,0.0,0.0,0.0,0.0,0.0,0.0,0.0,0.0,0.0,0.0,0.0,0.0,0.0,0.0,0.0,0.0,0.0,0.0,0.0,0.0,0.0,0.0,0.0,0.0,0.0,0.0,0.0,0.0,0.0,0.0
6081000000,117,6081000000,world,bluerov2/base_link,9.960050446349603,17.569266987683083,-94.78961702094908,0.00022963587809681394,-0.00017894449087472384,-0.7292731967856354,0.6842225659069515,0.0,0.0,0.0,0.0,0.0,0.0,0.0,0.0,0.0,0.0,0.0,0.0,0.0,0.0,0.0,0.0,0.0,0.0,0.0,0.0,0.0,0.0,0.0,0.0,0.0,0.0,0.0,0.0,0.0,0.0,0.0,0.0,0.0,0.0,0.0,0.0,0.008437994553624243,-1.1076879791454526,-0.0016429498839770984,-0.0003274285138416037,0.0019037439470798098,0.027110148138731995,0.0,0.0,0.0,0.0,0.0,0.0,0.0,0.0,0.0,0.0,0.0,0.0,0.0,0.0,0.0,0.0,0.0,0.0,0.0,0.0,0.0,0.0,0.0,0.0,0.0,0.0,0.0,0.0,0.0,0.0,0.0,0.0,0.0,0.0,0.0,0.0
6131000000,118,6131000000,world,bluerov2/base_link,9.960427579601768,17.51345120588021,-94.78963882622081,0.0003163349252614455,-0.00020947906929121544,-0.7287710409555784,0.684757348200994,0.0,0.0,0.0,0.0,0.0,0.0,0.0,0.0,0.0,0.0,0.0,0.0,0.0,0.0,0.0,0.0,0.0,0.0,0.0,0.0,0.0,0.0,0.0,0.0,0.0,0.0,0.0,0.0,0.0,0.0,0.0,0.0,0.0,0.0,0.0,0.0,0.005636958026102552,-1.1258249691257403,-0.0008568393194111876,0.003682944308906242,0.005748633742014455,0.023171947161816597,0.0,0.0,0.0,0.0,0.0,0.0,0.0,0.0,0.0,0.0,0.0,0.0,0.0,0.0,0.0,0.0,0.0,0.0,0.0,0.0,0.0,0.0,0.0,0.0,0.0,0.0,0.0,0.0,0.0,0.0,0.0,0.0,0.0,0.0,0.0,0.0
6181000000,119,6181000000,world,bluerov2/base_link,9.960605230305397,17.456822718847995,-94.78963268743448,0.00026626705469533267,-0.0002489321513413339,-0.7283360113504492,0.6852200534899414,0.0,0.0,0.0,0.0,0.0,0.0,0.0,0.0,0.0,0.0,0.0,0.0,0.0,0.0,0.0,0.0,0.0,0.0,0.0,0.0,0.0,0.0,0.0,0.0,0.0,0.0,0.0,0.0,0.0,0.0,0.0,0.0,0.0,0.0,0.0,0.0,0.011159489748351943,-1.1450629578297837,-0.005507251028145882,0.004950319136906949,0.0004447727095918116,0.026908867653142196,0.0,0.0,0.0,0.0,0.0,0.0,0.0,0.0,0.0,0.0,0.0,0.0,0.0,0.0,0.0,0.0,0.0,0.0,0.0,0.0,0.0,0.0,0.0,0.0,0.0,0.0,0.0,0.0,0.0,0.0,0.0,0.0,0.0,0.0,0.0,0.0
6231000000,120,6231000000,world,bluerov2/base_link,9.960579948311345,17.39949935549479,-94.78964660328097,0.00030871971582160934,-0.0002503119670509954,-0.7277098523882741,0.6858849850908624,0.0,0.0,0.0,0.0,0.0,0.0,0.0,0.0,0.0,0.0,0.0,0.0,0.0,0.0,0.0,0.0,0.0,0.0,0.0,0.0,0.0,0.0,0.0,0.0,0.0,0.0,0.0,0.0,0.0,0.0,0.0,0.0,0.0,0.0,0.0,0.0,-0.00202228238633333,-1.1509695292487239,0.0013097946765726549,-0.013054984174233807,0.0053261255762275745,0.028694419126541342,0.0,0.0,0.0,0.0,0.0,0.0,0.0,0.0,0.0,0.0,0.0,0.0,0.0,0.0,0.0,0.0,0.0,0.0,0.0,0.0,0.0,0.0,0.0,0.0,0.0,0.0,0.0,0.0,0.0,0.0,0.0,0.0,0.0,0.0,0.0,0.0
6281000000,121,6281000000,world,bluerov2/base_link,9.960793359381032,17.34160197211765,-94.78965465327946,0.0002783015247681844,-0.00022570558592158025,-0.7272015483048566,0.686423906742961,0.0,0.0,0.0,0.0,0.0,0.0,0.0,0.0,0.0,0.0,0.0,0.0,0.0,0.0,0.0,0.0,0.0,0.0,0.0,0.0,0.0,0.0,0.0,0.0,0.0,0.0,0.0,0.0,0.0,0.0,0.0,0.0,0.0,0.0,0.0,0.0,0.006189994746504898,-1.1634522700941705,-0.0006683820868681673,0.007905301370628162,-0.00939935977411029,0.04072116299814018,0.0,0.0,0.0,0.0,0.0,0.0,0.0,0.0,0.0,0.0,0.0,0.0,0.0,0.0,0.0,0.0,0.0,0.0,0.0,0.0,0.0,0.0,0.0,0.0,0.0,0.0,0.0,0.0,0.0,0.0,0.0,0.0,0.0,0.0,0.0,0.0
6331000000,122,6331000000,world,bluerov2/base_link,9.960963772493571,17.283214541333717,-94.7896666635932,0.00029771774306931785,-0.0002346334714951537,-0.7267062475072003,0.686948241241859,0.0,0.0,0.0,0.0,0.0,0.0,0.0,0.0,0.0,0.0,0.0,0.0,0.0,0.0,0.0,0.0,0.0,0.0,0.0,0.0,0.0,0.0,0.0,0.0,0.0,0.0,0.0,0.0,0.0,0.0,0.0,0.0,0.0,0.0,0.0,0.0,0.005447035557154536,-1.1705519928528993,0.0011273054481489317,0.003539807252268549,0.0005898777316134523,0.020220402466778004,0.0,0.0,0.0,0.0,0.0,0.0,0.0,0.0,0.0,0.0,0.0,0.0,0.0,0.0,0.0,0.0,0.0,0.0,0.0,0.0,0.0,0.0,0.0,0.0,0.0,0.0,0.0,0.0,0.0,0.0,0.0,0.0,0.0,0.0,0.0,0.0
6381000000,123,6381000000,world,bluerov2/base_link,9.961093837537378,17.22447436793709,-94.78966995353437,0.00029341195404393986,-0.00026317080282886986,-0.7263440922394876,0.687331146041956,0.0,0.0,0.0,0.0,0.0,0.0,0.0,0.0,0.0,0.0,0.0,0.0,0.0,0.0,0.0,0.0,0.0,0.0,0.0,0.0,0.0,0.0,0.0,0.0,0.0,0.0,0.0,0.0,0.0,0.0,0.0,0.0,0.0,0.0,0.0,0.0,0.0038942711242177103,-1.1726670682309104,0.00457139241863932,0.011667720866289543,0.005301473321928574,0.01648277139907077,0.0,0.0,0.0,0.0,0.0,0.0,0.0,0.0,0.0,0.0,0.0,0.0,0.0,0.0,0.0,0.0,0.0,0.0,0.0,0.0,0.0,0.0,0.0,0.0,0.0,0.0,0.0,0.0,0.0,0.0,0.0,0.0,0.0,0.0,0.0,0.0
6431000000,124,6431000000,world,bluerov2/base_link,9.961220479364059,17.165502366101546,-94.7896842378075,0.0003040061546949358,-0.0002383118297096747,-0.7259954330387541,0.6876994125303596,0.0,0.0,0.0,0.0,0.0,0.0,0.0,0.0,0.0,0.0,0.0,0.0,0.0,0.0,0.0,0.0,0.0,0.0,0.0,0.0,0.0,0.0,0.0,0.0,0.0,0.0,0.0,0.0,0.0,0.0,0.0,0.0,0.0,0.0,0.0,0.0,0.0024453146756363542,-1.1861284915759247,-0.005362093328631342,-0.0015177051691587385,0.0035430033687460787,0.01934699073603696,0.0,0.0,0.0,0.0,0.0,0.0,0.0,0.0,0.0,0.0,0.0,0.0,0.0,0.0,0.0,0.0,0.0,0.0,0.0,0.0,0.0,0.0,0.0,0.0,0.0,0.0,0.0,0.0,0.0,0.0,0.0,0.0,0.0,0.0,0.0,0.0
6481000000,125,6481000000,world,bluerov2/base_link,9.9614043507335,17.106436343443313,-94.78966094941491,0.0002302627668219466,-0.0001689718638259684,-0.7256670114455019,0.6880460064031483,0.0,0.0,0.0,0.0,0.0,0.0,0.0,0.0,0.0,0.0,0.0,0.0,0.0,0.0,0.0,0.0,0.0,0.0,0.0,0.0,0.0,0.0,0.0,0.0,0.0,0.0,0.0,0.0,0.0,0.0,0.0,0.0,0.0,0.0,0.0,0.0,0.0077550512884438745,-1.1884111700983961,-0.005768708750590808,0.0013221179065895372,-0.0074148178481416496,0.02878297719241685,0.0,0.0,0.0,0.0,0.0,0.0,0.0,0.0,0.0,0.0,0.0,0.0,0.0,0.0,0.0,0.0,0.0,0.0,0.0,0.0,0.0,0.0,0.0,0.0,0.0,0.0,0.0,0.0,0.0,0.0,0.0,0.0,0.0,0.0,0.0,0.0
6531000000,126,6531000000,world,bluerov2/base_link,9.961447289545646,17.047262582104747,-94.78965419540386,0.0003334730101591525,-0.00020860087783953522,-0.7251910266799181,0.6885476164393801,0.0,0.0,0.0,0.0,0.0,0.0,0.0,0.0,0.0,0.0,0.0,0.0,0.0,0.0,0.0,0.0,0.0,0.0,0.0,0.0,0.0,0.0,0.0,0.0,0.0,0.0,0.0,0.0,0.0,0.0,0.0,0.0,0.0,0.0,0.0,0.0,0.002672243983101182,-1.184156262427046,0.00032348458409206385,-0.0032827288380966576,0.010690645281598802,0.015173092209861842,0.0,0.0,0.0,0.0,0.0,0.0,0.0,0.0,0.0,0.0,0.0,0.0,0.0,0.0,0.0,0.0,0.0,0.0,0.0,0.0,0.0,0.0,0.0,0.0,0.0,0.0,0.0,0.0,0.0,0.0,0.0,0.0,0.0,0.0,0.0,0.0
6581000000,127,6581000000,world,bluerov2/base_link,9.961559795539133,16.988005440979478,-94.7896626830907,0.00029720888283395956,-0.00022406971484268374,-0.7247643248325769,0.6889967597236011,0.0,0.0,0.0,0.0,0.0,0.0,0.0,0.0,0.0,0.0,0.0,0.0,0.0,0.0,0.0,0.0,0.0,0.0,0.0,0.0,0.0,0.0,0.0,0.0,0.0,0.0,0.0,0.0,0.0,0.0,0.0,0.0,0.0,0.0,0.0,0.0,-0.000454225862863022,-1.1832683514755495,0.0019928230541714524,-0.004346553282327072,0.0020272517363975795,0.025743737880407156,0.0,0.0,0.0,0.0,0.0,0.0,0.0,0.0,0.0,0.0,0.0,0.0,0.0,0.0,0.0,0.0,0.0,0.0,0.0,0.0,0.0,0.0,0.0,0.0,0.0,0.0,0.0,0.0,0.0,0.0,0.0,0.0,0.0,0.0,0.0,0.0
6631000000,128,6631000000,world,bluerov2/base_link,9.961652008073404,16.928688214500475,-94.78969736577828,0.00025775161789794035,-0.0001891326668469852,-0.7243435871447703,0.6894390948845188,0.0,0.0,0.0,0.0,0.0,0.0,0.0,0.0,0.0,0.0,0.0,0.0,0.0,0.0,0.0,0.0,0.0,0.0,0.0,0.0,0.0,0.0,0.0,0.0,0.0,0.0,0.0,0.0,0.0,0.0,0.0,0.0,0.0,0.0,0.0,0.0,0.002701488547068839,-1.194487947257491,-0.008649859990791703,-0.010892486452630324,0.0004157091329092487,0.023754702042420524,0.0,0.0,0.0,0.0,0.0,0.0,0.0,0.0,0.0,0.0,0.0,0.0,0.0,0.0,0.0,0.0,0.0,0.0,0.0,0.0,0.0,0.0,0.0,0.0,0.0,0.0,0.0,0.0,0.0,0.0,0.0,0.0,0.0,0.0,0.0,0.0
6681000000,129,6681000000,world,bluerov2/base_link,9.961856378321865,16.869433291065015,-94.78968844667337,0.00023849735878332751,-0.00017907380175169745,-0.7239493712482581,0.6898530415391638,0.0,0.0,0.0,0.0,0.0,0.0,0.0,0.0,0.0,0.0,0.0,0.0,0.0,0.0,0.0,0.0,0.0,0.0,0.0,0.0,0.0,0.0,0.0,0.0,0.0,0.0,0.0,0.0,0.0,0.0,0.0,0.0,0.0,0.0,0.0,0.0,0.0010214041448688,-1.1809508532094048,0.003561724278017251,-0.003910691041298841,0.012980252735017048,0.011542029940295129,0.0,0.0,0.0,0.0,0.0,0.0,0.0,0.0,0.0,0.0,0.0,0.0,0.0,0.0,0.0,0.0,0.0,0.0,0.0,0.0,0.0,0.0,0.0,0.0,0.0,0.0,0.0,0.0,0.0,0.0,0.0,0.0,0.0,0.0,0.0,0.0
6731000000,130,6731000000,world,bluerov2/base_link,9.96193648502515,16.810276614655372,-94.78966935272308,0.00018904993416362278,-0.00019396950244895354,-0.7235733629286606,0.6902474303436872,0.0,0.0,0.0,0.0,0.0,0.0,0.0,0.0,0.0,0.0,0.0,0.0,0.0,0.0,0.0,0.0,0.0,0.0,0.0,0.0,0.0,0.0,0.0,0.0,0.0,0.0,0.0,0.0,0.0,0.0,0.0,0.0,0.0,0.0,0.0,0.0,0.00298324059584652,-1.177382810783084,0.005111376349386573,0.00953233856067766,-0.01458359250171688,0.03419595425289758,0.0,0.0,0.0,0.0,0.0,0.0,0.0,0.0,0.0,0.0,0.0,0.0,0.0,0.0,0.0,0.0,0.0,0.0,0.0,0.0,0.0,0.0,0.0,0.0,0.0,0.0,0.0,0.0,0.0,0.0,0.0,0.0,0.0,0.0,0.0,0.0
6781000000,131,6781000000,world,bluerov2/base_link,9.962045944975342,16.751271038406173,-94.78962379184735,0.0004127134737081279,-0.00010651526059899127,-0.7230562271623903,0.6907890493368998,0.0,0.0,0.0,0.0,0.0,0.0,0.0,0.0,0.0,0.0,0.0,0.0,0.0,0.0,0.0,0.0,0.0,0.0,0.0,0.0,0.0,0.0,0.0,0.0,0.0,0.0,0.0,0.0,0.0,0.0,0.0,0.0,0.0,0.0,0.0,0.0,-0.0021823967720542257,-1.178484747045938,0.0009539794614169433,-0.002503270119201432,-0.00344219293498344,0.029858621723906055,0.0,0.0,0.0,0.0,0.0,0.0,0.0,0.0,0.0,0.0,0.0,0.0,0.0,0.0,0.0,0.0,0.0,0.0,0.0,0.0,0.0,0.0,0.0,0.0,0.0,0.0,0.0,0.0,0.0,0.0,0.0,0.0,0.0,0.0,0.0,0.0
6831000000,132,6831000000,world,bluerov2/base_link,9.96211551343272,16.692267382425385,-94.78972221582349,0.0002661844502132883,-0.00028556490082211583,-0.7226401995558088,0.6912242686599384,0.0,0.0,0.0,0.0,0.0,0.0,0.0,0.0,0.0,0.0,0.0,0.0,0.0,0.0,0.0,0.0,0.0,0.0,0.0,0.0,0.0,0.0,0.0,0.0,0.0,0.0,0.0,0.0,0.0,0.0,0.0,0.0,0.0,0.0,0.0,0.0,0.00817879311157293,-1.1847077895768587,-0.0079209259837876,-0.007334067194297973,-0.010439985534474483,0.028835107315388922,0.0,0.0,0.0,0.0,0.0,0.0,0.0,0.0,0.0,0.0,0.0,0.0,0.0,0.0,0.0,0.0,0.0,0.0,0.0,0.0,0.0,0.0,0.0,0.0,0.0,0.0,0.0,0.0,0.0,0.0,0.0,0.0,0.0,0.0,0.0,0.0
6881000000,133,6881000000,world,bluerov2/base_link,9.962289095695974,16.633543337184655,-94.78970090724249,0.0002023181169884563,-0.0001578496779383501,-0.722325939733628,0.6915527246268286,0.0,0.0,0.0,0.0,0.0,0.0,0.0,0.0,0.0,0.0,0.0,0.0,0.0,0.0,0.0,0.0,0.0,0.0,0.0,0.0,0.0,0.0,0.0,0.0,0.0,0.0,0.0,0.0,0.0,0.0,0.0,0.0,0.0,0.0,0.0,0.0,0.0033396868651269737,-1.1734871487908127,-0.0006175791242455294,0.0034876531622475026,-0.0031566001350878496,0.025581055808394114,0.0,0.0,0.0,0.0,0.0,0.0,0.0,0.0,0.0,0.0,0.0,0.0,0.0,0.0,0.0,0.0,0.0,0.0,0.0,0.0,0.0,0.0,0.0,0.0,0.0,0.0,0.0,0.0,0.0,0.0,0.0,0.0,0.0,0.0,0.0,0.0
6931000000,134,6931000000,world,bluerov2/base_link,9.962237189433097,16.57500188855256,-94.78971921155059,0.00026304779563991976,-0.00027726961753013517,-0.7218357937367305,0.6920642606058204,0.0,0.0,0.0,0.0,0.0,0.0,0.0,0.0,0.0,0.0,0.0,0.0,0.0,0.0,0.0,0.0,0.0,0.0,0.0,0.0,0.0,0.0,0.0,0.0,0.0,0.0,0.0,0.0,0.0,0.0,0.0,0.0,0.0,0.0,0.0,0.0,0.0013010418122198742,-1.1724707507606615,-0.004646191290953207,-0.013266912860858399,-0.0012183356315762486,0.02314757936810505,0.0,0.0,0.0,0.0,0.0,0.0,0.0,0.0,0.0,0.0,0.0,0.0,0.0,0.0,0.0,0.0,0.0,0.0,0.0,0.0,0.0,0.0,0.0,0.0,0.0,0.0,0.0,0.0,0.0,0.0,0.0,0.0,0.0,0.0,0.0,0.0
6981000000,135,6981000000,world,bluerov2/base_link,9.962356224674751,16.516791848278203,-94.7897226615372,0.00023172742442546758,-0.0001806363352750766,-0.721507966915652,0.6924060711390085,0.0,0.0,0.0,0.0,0.0,0.0,0.0,0.0,0.0,0.0,0.0,0.0,0.0,0.0,0.0,0.0,0.0,0.0,0.0,0.0,0.0,0.0,0.0,0.0,0.0,0.0,0.0,0.0,0.0,0.0,0.0,0.0,0.0,0.0,0.0,0.0,0.0023974129573747,-1.1569233212199552,0.003242482550627838,0.0030116994633807045,-0.0049666086290291395,0.02163248842743725,0.0,0.0,0.0,0.0,0.0,0.0,0.0,0.0,0.0,0.0,0.0,0.0,0.0,0.0,0.0,0.0,0.0,0.0,0.0,0.0,0.0,0.0,0.0,0.0,0.0,0.0,0.0,0.0,0.0,0.0,0.0,0.0,0.0,0.0,0.0,0.0
7031000000,136,7031000000,world,bluerov2/base_link,9.962469073119994,16.45899350269569,-94.78974430525719,0.00033559334869163126,-0.00021817153727487923,-0.7212067368224477,0.6927197720147747,0.0,0.0,0.0,0.0,0.0,0.0,0.0,0.0,0.0,0.0,0.0,0.0,0.0,0.0,0.0,0.0,0.0,0.0,0.0,0.0,0.0,0.0,0.0,0.0,0.0,0.0,0.0,0.0,0.0,0.0,0.0,0.0,0.0,0.0,0.0,0.0,0.004943981313492194,-1.1615725060072324,-0.010746687785796863,-0.0050237165279803705,-0.0029806850070529757,0.016358560416729114,0.0,0.0,0.0,0.0,0.0,0.0,0.0,0.0,0.0,0.0,0.0,0.0,0.0,0.0,0.0,0.0,0.0,0.0,0.0,0.0,0.0,0.0,0.0,0.0,0.0,0.0,0.0,0.0,0.0,0.0,0.0,0.0,0.0,0.0,0.0,0.0
7081000000,137,7081000000,world,bluerov2/base_link,9.96256143369086,16.401766681340455,-94.78971606279829,0.00026131830817275334,-0.0001914684818034456,-0.720976023939028,0.6929599324330611,0.0,0.0,0.0,0.0,0.0,0.0,0.0,0.0,0.0,0.0,0.0,0.0,0.0,0.0,0.0,0.0,0.0,0.0,0.0,0.0,0.0,0.0,0.0,0.0,0.0,0.0,0.0,0.0,0.0,0.0,0.0,0.0,0.0,0.0,0.0,0.0,0.0019069524919846119,-1.1472426787234054,-0.007855596813444566,-0.009232561738877328,-0.0044998571741003595,0.019706113940866275,0.0,0.0,0.0,0.0,0.0,0.0,0.0,0.0,0.0,0.0,0.0,0.0,0.0,0.0,0.0,0.0,0.0,0.0,0.0,0.0,0.0,0.0,0.0,0.0,0.0,0.0,0.0,0.0,0.0,0.0,0.0,0.0,0.0,0.0,0.0,0.0
7131000000,138,7131000000,world,bluerov2/base_link,9.962567668737249,16.34505838202204,-94.78974626300311,0.00029630621557336334,-0.00024276279880873462,-0.7206527452163247,0.6932960940904147,0.0,0.0,0.0,0.0,0.0,0.0,0.0,0.0,0.0,0.0,0.0,0.0,0.0,0.0,0.0,0.0,0.0,0.0,0.0,0.0,0.0,0.0,0.0,0.0,0.0,0.0,0.0,0.0,0.0,0.0,0.0,0.0,0.0,0.0,0.0,0.0,0.004260709345501037,-1.1268175382431713,0.0011237150174471032,-0.0013877226998731912,0.014549896538142502,-0.0004875475808505316,0.0,0.0,0.0,0.0,0.0,0.0,0.0,0.0,0.0,0.0,0.0,0.0,0.0,0.0,0.0,0.0,0.0,0.0,0.0,0.0,0.0,0.0,0.0,0.0,0.0,0.0,0.0,0.0,0.0,0.0,0.0,0.0,0.0,0.0,0.0,0.0
7181000000,139,7181000000,world,bluerov2/base_link,9.962699524796145,16.28899148241037,-94.78971105152898,0.00029419156104659657,-0.00019347748909870027,-0.7205227117335746,0.6934312495798578,0.0,0.0,0.0,0.0,0.0,0.0,0.0,0.0,0.0,0.0,0.0,0.0,0.0,0.0,0.0,0.0,0.0,0.0,0.0,0.0,0.0,0.0,0.0,0.0,0.0,0.0,0.0,0.0,0.0,0.0,0.0,0.0,0.0,0.0,0.0,0.0,-0.001076439451527635,-1.115732047779282,0.0007222360805257392,-0.001219038960503966,-0.0071910531376579235,0.01629149318981571,0.0,0.0,0.0,0.0,0.0,0.0,0.0,0.0,0.0,0.0,0.0,0.0,0.0,0.0,0.0,0.0,0.0,0.0,0.0,0.0,0.0,0.0,0.0,0.0,0.0,0.0,0.0,0.0,0.0,0.0,0.0,0.0,0.0,0.0,0.0,0.0
7231000000,140,7231000000,world,bluerov2/base_link,9.962776311097361,16.233404535509678,-94.7897348381244,0.0003426316258158043,-0.00022020363773671064,-0.7202581915941857,0.6937059690931022,0.0,0.0,0.0,0.0,0.0,0.0,0.0,0.0,0.0,0.0,0.0,0.0,0.0,0.0,0.0,0.0,0.0,0.0,0.0,0.0,0.0,0.0,0.0,0.0,0.0,0.0,0.0,0.0,0.0,0.0,0.0,0.0,0.0,0.0,0.0,0.0,9.391037897529236e-05,-1.1103465290997105,-0.004003324145093148,-0.0007668740567160689,-0.005662894813888905,0.021332559168635804,0.0,0.0,0.0,0.0,0.0,0.0,0.0,0.0,0.0,0.0,0.0,0.0,0.0,0.0,0.0,0.0,0.0,0.0,0.0,0.0,0.0,0.0,0.0,0.0,0.0,0.0,0.0,0.0,0.0,0.0,0.0,0.0,0.0,0.0,0.0,0.0
7281000000,141,7281000000,world,bluerov2/base_link,9.962871631488033,16.178326229612424,-94.78975545332,0.0002891205043971672,-0.00022697176759544691,-0.7200280696421925,0.6939448420591429,0.0,0.0,0.0,0.0,0.0,0.0,0.0,0.0,0.0,0.0,0.0,0.0,0.0,0.0,0.0,0.0,0.0,0.0,0.0,0.0,0.0,0.0,0.0,0.0,0.0,0.0,0.0,0.0,0.0,0.0,0.0,0.0,0.0,0.0,0.0,0.0,0.004274265238168028,-1.098373752916324,-0.0022537493554582837,0.006581579835559332,-0.008469079419674183,0.022385247065036296,0.0,0.0,0.0,0.0,0.0,0.0,0.0,0.0,0.0,0.0,0.0,0.0,0.0,0.0,0.0,0.0,0.0,0.0,0.0,0.0,0.0,0.0,0.0,0.0,0.0,0.0,0.0,0.0,0.0,0.0,0.0,0.0,0.0,0.0,0.0,0.0
7331000000,142,7331000000,world,bluerov2/base_link,9.96295748635313,16.12377454844167,-94.78975898976877,0.0003156656879046204,-0.00020361815988445314,-0.7197934757674331,0.694188166952921,0.0,0.0,0.0,0.0,0.0,0.0,0.0,0.0,0.0,0.0,0.0,0.0,0.0,0.0,0.0,0.0,0.0,0.0,0.0,0.0,0.0,0.0,0.0,0.0,0.0,0.0,0.0,0.0,0.0,0.0,0.0,0.0,0.0,0.0,0.0,0.0,0.004096956680156472,-1.0914558802571517,-0.005542547331263004,-0.002499082298230831,0.0033772400730299372,0.008560396988447667,0.0,0.0,0.0,0.0,0.0,0.0,0.0,0.0,0.0,0.0,0.0,0.0,0.0,0.0,0.0,0.0,0.0,0.0,0.0,0.0,0.0,0.0,0.0,0.0,0.0,0.0,0.0,0.0,0.0,0.0,0.0,0.0,0.0,0.0,0.0,0.0
7381000000,143,7381000000,world,bluerov2/base_link,9.963024857266445,16.069752682838907,-94.78976679707097,0.00023816675118703277,-0.00021061534163641874,-0.7196148694083255,0.6943733424060975,0.0,0.0,0.0,0.0,0.0,0.0,0.0,0.0,0.0,0.0,0.0,0.0,0.0,0.0,0.0,0.0,0.0,0.0,0.0,0.0,0.0,0.0,0.0,0.0,0.0,0.0,0.0,0.0,0.0,0.0,0.0,0.0,0.0,0.0,0.0,0.0,0.0026685810668491037,-1.0784471011984096,-0.0036669811055544156,-0.00895640367506733,0.0029068669375987835,0.008279005982288963,0.0,0.0,0.0,0.0,0.0,0.0,0.0,0.0,0.0,0.0,0.0,0.0,0.0,0.0,0.0,0.0,0.0,0.0,0.0,0.0,0.0,0.0,0.0,0.0,0.0,0.0,0.0,0.0,0.0,0.0,0.0,0.0,0.0,0.0,0.0,0.0
7431000000,144,7431000000,world,bluerov2/base_link,9.963075638575555,16.01628762930655,-94.78976212869527,0.0003366544166467313,-0.00017630944173443246,-0.7193660231558359,0.6946311109558383,0.0,0.0,0.0,0.0,0.0,0.0,0.0,0.0,0.0,0.0,0.0,0.0,0.0,0.0,0.0,0.0,0.0,0.0,0.0,0.0,0.0,0.0,0.0,0.0,0.0,0.0,0.0,0.0,0.0,0.0,0.0,0.0,0.0,0.0,0.0,0.0,0.0013146012947023275,-1.065830964104544,-0.0016242462075109613,0.00032227243764666063,0.0032380534425459993,0.008883069309255453,0.0,0.0,0.0,0.0,0.0,0.0,0.0,0.0,0.0,0.0,0.0,0.0,0.0,0.0,0.0,0.0,0.0,0.0,0.0,0.0,0.0,0.0,0.0,0.0,0.0,0.0,0.0,0.0,0.0,0.0,0.0,0.0,0.0,0.0,0.0,0.0
7481000000,145,7481000000,world,bluerov2/base_link,9.963144025932069,15.96334777131025,-94.78977207070729,0.00030331079957219745,-0.00022433884075048885,-0.7192420547670149,0.6947594722845926,0.0,0.0,0.0,0.0,0.0,0.0,0.0,0.0,0.0,0.0,0.0,0.0,0.0,0.0,0.0,0.0,0.0,0.0,0.0,0.0,0.0,0.0,0.0,0.0,0.0,0.0,0.0,0.0,0.0,0.0,0.0,0.0,0.0,0.0,0.0,0.0,0.005092196490278612,-1.0555497544249492,-0.002338810290582517,0.0018872828803261168,0.007737555339953734,-0.00035277077713629745,0.0,0.0,0.0,0.0,0.0,0.0,0.0,0.0,0.0,0.0,0.0,0.0,0.0,0.0,0.0,0.0,0.0,0.0,0.0,0.0,0.0,0.0,0.0,0.0,0.0,0.0,0.0,0.0,0.0,0.0,0.0,0.0,0.0,0.0,0.0,0.0
7531000000,146,7531000000,world,bluerov2/base_link,9.9632428268699,15.910963705179675,-94.78976137753862,0.00029943579762589336,-0.00023004731572091723,-0.719088435273,0.6949184698027994,0.0,0.0,0.0,0.0,0.0,0.0,0.0,0.0,0.0,0.0,0.0,0.0,0.0,0.0,0.0,0.0,0.0,0.0,0.0,0.0,0.0,0.0,0.0,0.0,0.0,0.0,0.0,0.0,0.0,0.0,0.0,0.0,0.0,0.0,0.0,0.0,0.004068802248402735,-1.0429813917135042,-0.0002078040042449494,-0.006537562137232734,0.0068823594024179525,0.003022082282838303,0.0,0.0,0.0,0.0,0.0,0.0,0.0,0.0,0.0,0.0,0.0,0.0,0.0,0.0,0.0,0.0,0.0,0.0,0.0,0.0,0.0,0.0,0.0,0.0,0.0,0.0,0.0,0.0,0.0,0.0,0.0,0.0,0.0,0.0,0.0,0.0
7581000000,147,7581000000,world,bluerov2/base_link,9.963356722192545,15.859065379374814,-94.78980031990481,0.0002858533185481159,-0.000236318480310805,-0.7188774308268525,0.6951367504953541,0.0,0.0,0.0,0.0,0.0,0.0,0.0,0.0,0.0,0.0,0.0,0.0,0.0,0.0,0.0,0.0,0.0,0.0,0.0,0.0,0.0,0.0,0.0,0.0,0.0,0.0,0.0,0.0,0.0,0.0,0.0,0.0,0.0,0.0,0.0,0.0,0.00434900798798758,-1.0355898269494632,-0.003879543589460457,-0.0033368597007163866,-0.0010561634440518358,0.00732828032673008,0.0,0.0,0.0,0.0,0.0,0.0,0.0,0.0,0.0,0.0,0.0,0.0,0.0,0.0,0.0,0.0,0.0,0.0,0.0,0.0,0.0,0.0,0.0,0.0,0.0,0.0,0.0,0.0,0.0,0.0,0.0,0.0,0.0,0.0,0.0,0.0
7631000000,148,7631000000,world,bluerov2/base_link,9.963489607716932,15.807765583720867,-94.78979665351737,0.00030509969237835997,-0.0002243483239144258,-0.718690407216371,0.6953301051710433,0.0,0.0,0.0,0.0,0.0,0.0,0.0,0.0,0.0,0.0,0.0,0.0,0.0,0.0,0.0,0.0,0.0,0.0,0.0,0.0,0.0,0.0,0.0,0.0,0.0,0.0,0.0,0.0,0.0,0.0,0.0,0.0,0.0,0.0,0.0,0.0,-0.0032430229539730415,-1.0151444826944216,0.005571964082088334,-0.009825573235972397,-0.0059417381235919,0.0147835769027303,0.0,0.0,0.0,0.0,0.0,0.0,0.0,0.0,0.0,0.0,0.0,0.0,0.0,0.0,0.0,0.0,0.0,0.0,0.0,0.0,0.0,0.0,0.0,0.0,0.0,0.0,0.0,0.0,0.0,0.0,0.0,0.0,0.0,0.0,0.0,0.0
7681000000,149,7681000000,world,bluerov2/base_link,9.963614105668963,15.757041264522558,-94.78977299721014,0.00027720146058982017,-0.00015374600566877262,-0.7185473013488481,0.6954780192398634,0.0,0.0,0.0,0.0,0.0,0.0,0.0,0.0,0.0,0.0,0.0,0.0,0.0,0.0,0.0,0.0,0.0,0.0,0.0,0.0,0.0,0.0,0.0,0.0,0.0,0.0,0.0,0.0,0.0,0.0,0.0,0.0,0.0,0.0,0.0,0.0,-0.0012957215667966295,-1.0009445775776151,0.008472841496453262,-0.0022755266194234786,0.0006146860956914178,0.010770810500141304,0.0,0.0,0.0,0.0,0.0,0.0,0.0,0.0,0.0,0.0,0.0,0.0,0.0,0.0,0.0,0.0,0.0,0.0,0.0,0.0,0.0,0.0,0.0,0.0,0.0,0.0,0.0,0.0,0.0,0.0,0.0,0.0,0.0,0.0,0.0,0.0
7731000000,150,7731000000,world,bluerov2/base_link,9.963717965617942,15.706824227333016,-94.78980492063069,0.00031113275191388433,-0.00020320369607870815,-0.7183921918585908,0.6956382109841857,0.0,0.0,0.0,0.0,0.0,0.0,0.0,0.0,0.0,0.0,0.0,0.0,0.0,0.0,0.0,0.0,0.0,0.0,0.0,0.0,0.0,0.0,0.0,0.0,0.0,0.0,0.0,0.0,0.0,0.0,0.0,0.0,0.0,0.0,0.0,0.0,-0.0018013359195595715,-0.9912844762089684,0.006956010740886667,0.000618886141035007,-0.0017661603785160422,0.008485831365853869,0.0,0.0,0.0,0.0,0.0,0.0,0.0,0.0,0.0,0.0,0.0,0.0,0.0,0.0,0.0,0.0,0.0,0.0,0.0,0.0,0.0,0.0,0.0,0.0,0.0,0.0,0.0,0.0,0.0,0.0,0.0,0.0,0.0,0.0,0.0,0.0
