%time,field.header.seq,field.header.stamp,field.header.frame_id,field.child_frame_id,field.pose.pose.position.x,field.pose.pose.position.y,field.pose.pose.position.z,field.pose.pose.orientation.x,field.pose.pose.orientation.y,field.pose.pose.orientation.z,field.pose.pose.orientation.w,field.pose.covariance0,field.pose.covariance1,field.pose.covariance2,field.pose.covariance3,field.pose.covariance4,field.pose.covariance5,field.pose.covariance6,field.pose.covariance7,field.pose.covariance8,field.pose.covariance9,field.pose.covariance10,field.pose.covariance11,field.pose.covariance12,field.pose.covariance13,field.pose.covariance14,field.pose.covariance15,field.pose.covariance16,field.pose.covariance17,field.pose.covariance18,field.pose.covariance19,field.pose.covariance20,field.pose.covariance21,field.pose.covariance22,field.pose.covariance23,field.pose.covariance24,field.pose.covariance25,field.pose.covariance26,field.pose.covariance27,field.pose.covariance28,field.pose.covariance29,field.pose.covariance30,field.pose.covariance31,field.pose.covariance32,field.pose.covariance33,field.pose.covariance34,field.pose.covariance35,field.twist.twist.linear.x,field.twist.twist.linear.y,field.twist.twist.linear.z,field.twist.twist.angular.x,field.twist.twist.angular.y,field.twist.twist.angular.z,field.twist.covariance0,field.twist.covariance1,field.twist.covariance2,field.twist.covariance3,field.twist.covariance4,field.twist.covariance5,field.twist.covariance6,field.twist.covariance7,field.twist.covariance8,field.twist.covariance9,field.twist.covariance10,field.twist.covariance11,field.twist.covariance12,field.twist.covariance13,field.twist.covariance14,field.twist.covariance15,field.twist.covariance16,field.twist.covariance17,field.twist.covariance18,field.twist.covariance19,field.twist.covariance20,field.twist.covariance21,field.twist.covariance22,field.twist.covariance23,field.twist.covariance24,field.twist.covariance25,field.twist.covariance26,field.twist.covariance27,field.twist.covariance28,field.twist.covariance29,field.twist.covariance30,field.twist.covariance31,field.twist.covariance32,field.twist.covariance33,field.twist.covariance34,field.twist.covariance35
7802000000,151,7802000000,world,bluerov2/base_link,-11.43648727492053,-0.6036916965776309,-94.95195944591788,-0.07218291015984687,0.051869195051553,0.06572990257517389,0.9938706122997185,0.0,0.0,0.0,0.0,0.0,0.0,0.0,0.0,0.0,0.0,0.0,0.0,0.0,0.0,0.0,0.0,0.0,0.0,0.0,0.0,0.0,0.0,0.0,0.0,0.0,0.0,0.0,0.0,0.0,0.0,0.0,0.0,0.0,0.0,0.0,0.0,-2.3555367875401476,-1.9895967841817102,-0.4285625549613141,-0.1953994891547497,0.25941069624811924,0.806248647152144,0.0,0.0,0.0,0.0,0.0,0.0,0.0,0.0,0.0,0.0,0.0,0.0,0.0,0.0,0.0,0.0,0.0,0.0,0.0,0.0,0.0,0.0,0.0,0.0,0.0,0.0,0.0,0.0,0.0,0.0,0.0,0.0,0.0,0.0,0.0,0.0
7852000000,152,7852000000,world,bluerov2/base_link,-11.554183797480567,-0.7037633811049603,-94.9746791164899,-0.07749687563225054,0.05730798414941384,0.08673732524025762,0.9915576965714782,0.0,0.0,0.0,0.0,0.0,0.0,0.0,0.0,0.0,0.0,0.0,0.0,0.0,0.0,0.0,0.0,0.0,0.0,0.0,0.0,0.0,0.0,0.0,0.0,0.0,0.0,0.0,0.0,0.0,0.0,0.0,0.0,0.0,0.0,0.0,0.0,-2.3481842302445,-2.0102013395906373,-0.47748835566899966,-0.18158544963150178,0.27536667679954546,0.8616164230430682,0.0,0.0,0.0,0.0,0.0,0.0,0.0,0.0,0.0,0.0,0.0,0.0,0.0,0.0,0.0,0.0,0.0,0.0,0.0,0.0,0.0,0.0,0.0,0.0,0.0,0.0,0.0,0.0,0.0,0.0,0.0,0.0,0.0,0.0,0.0,0.0
7902000000,153,7902000000,world,bluerov2/base_link,-11.670867419047513,-0.8045986889311386,-94.9998249901073,-0.08239166652552768,0.06297888283864483,0.10886500017444999,0.9886322295679824,0.0,0.0,0.0,0.0,0.0,0.0,0.0,0.0,0.0,0.0,0.0,0.0,0.0,0.0,0.0,0.0,0.0,0.0,0.0,0.0,0.0,0.0,0.0,0.0,0.0,0.0,0.0,0.0,0.0,0.0,0.0,0.0,0.0,0.0,0.0,0.0,-2.318050022477024,-2.0215052165143623,-0.5278463203615706,-0.16305279355522773,0.28847938190718847,0.896734285580977,0.0,0.0,0.0,0.0,0.0,0.0,0.0,0.0,0.0,0.0,0.0,0.0,0.0,0.0,0.0,0.0,0.0,0.0,0.0,0.0,0.0,0.0,0.0,0.0,0.0,0.0,0.0,0.0,0.0,0.0,0.0,0.0,0.0,0.0,0.0,0.0
7952000000,154,7952000000,world,bluerov2/base_link,-11.785642957119572,-0.90573555246492,-95.02754982613398,-0.08679457775582272,0.06871544341284314,0.13161243601712352,0.9851005308060714,0.0,0.0,0.0,0.0,0.0,0.0,0.0,0.0,0.0,0.0,0.0,0.0,0.0,0.0,0.0,0.0,0.0,0.0,0.0,0.0,0.0,0.0,0.0,0.0,0.0,0.0,0.0,0.0,0.0,0.0,0.0,0.0,0.0,0.0,0.0,0.0,-2.2705512140931696,-2.0216146311205097,-0.5772311276470007,-0.14436315277907824,0.2957295452747501,0.9138999165016829,0.0,0.0,0.0,0.0,0.0,0.0,0.0,0.0,0.0,0.0,0.0,0.0,0.0,0.0,0.0,0.0,0.0,0.0,0.0,0.0,0.0,0.0,0.0,0.0,0.0,0.0,0.0,0.0,0.0,0.0,0.0,0.0,0.0,0.0,0.0,0.0
8002000000,155,8002000000,world,bluerov2/base_link,-11.897450335452488,-1.006594888305076,-95.05755356310276,-0.09065223364233846,0.07454735072801173,0.15451233928273808,0.980994802251503,0.0,0.0,0.0,0.0,0.0,0.0,0.0,0.0,0.0,0.0,0.0,0.0,0.0,0.0,0.0,0.0,0.0,0.0,0.0,0.0,0.0,0.0,0.0,0.0,0.0,0.0,0.0,0.0,0.0,0.0,0.0,0.0,0.0,0.0,0.0,0.0,-2.2025102551570246,-2.013687031759311,-0.6209423634366011,-0.12256459650580959,0.3023788475139492,0.9096191983260006,0.0,0.0,0.0,0.0,0.0,0.0,0.0,0.0,0.0,0.0,0.0,0.0,0.0,0.0,0.0,0.0,0.0,0.0,0.0,0.0,0.0,0.0,0.0,0.0,0.0,0.0,0.0,0.0,0.0,0.0,0.0,0.0,0.0,0.0,0.0,0.0
8052000000,156,8052000000,world,bluerov2/base_link,-12.005595772515615,-1.107173879882965,-95.08953349210894,-0.09373215551870606,0.08022770340931841,0.17684246517980576,0.9764755711929575,0.0,0.0,0.0,0.0,0.0,0.0,0.0,0.0,0.0,0.0,0.0,0.0,0.0,0.0,0.0,0.0,0.0,0.0,0.0,0.0,0.0,0.0,0.0,0.0,0.0,0.0,0.0,0.0,0.0,0.0,0.0,0.0,0.0,0.0,0.0,0.0,-2.1240222092279346,-2.0088632432303157,-0.6537742663179053,-0.09055399827370123,0.29417219549688545,0.873670205586572,0.0,0.0,0.0,0.0,0.0,0.0,0.0,0.0,0.0,0.0,0.0,0.0,0.0,0.0,0.0,0.0,0.0,0.0,0.0,0.0,0.0,0.0,0.0,0.0,0.0,0.0,0.0,0.0,0.0,0.0,0.0,0.0,0.0,0.0,0.0,0.0
8100000000,157,8102000000,world,bluerov2/base_link,-12.109511167502786,-1.2074424196822686,-95.12283009917219,-0.09597320205504403,0.08556102577941406,0.19798387759235464,0.9717359927307271,0.0,0.0,0.0,0.0,0.0,0.0,0.0,0.0,0.0,0.0,0.0,0.0,0.0,0.0,0.0,0.0,0.0,0.0,0.0,0.0,0.0,0.0,0.0,0.0,0.0,0.0,0.0,0.0,0.0,0.0,0.0,0.0,0.0,0.0,0.0,0.0,-2.034794840498179,-2.002021925717368,-0.6767745650147295,-0.06258435447199778,0.27972285485357856,0.8192335307059461,0.0,0.0,0.0,0.0,0.0,0.0,0.0,0.0,0.0,0.0,0.0,0.0,0.0,0.0,0.0,0.0,0.0,0.0,0.0,0.0,0.0,0.0,0.0,0.0,0.0,0.0,0.0,0.0,0.0,0.0,0.0,0.0,0.0,0.0,0.0,0.0
8150000000,158,8152000000,world,bluerov2/base_link,-12.20872062827016,-1.3073018029056676,-95.15704160597049,-0.09755820320123197,0.09047179004660798,0.2175700173166895,0.9669335756703896,0.0,0.0,0.0,0.0,0.0,0.0,0.0,0.0,0.0,0.0,0.0,0.0,0.0,0.0,0.0,0.0,0.0,0.0,0.0,0.0,0.0,0.0,0.0,0.0,0.0,0.0,0.0,0.0,0.0,0.0,0.0,0.0,0.0,0.0,0.0,0.0,-1.9350276751740974,-1.9918715702971017,-0.687705154834866,-0.04299217230062011,0.2612217856362635,0.7534830994800142,0.0,0.0,0.0,0.0,0.0,0.0,0.0,0.0,0.0,0.0,0.0,0.0,0.0,0.0,0.0,0.0,0.0,0.0,0.0,0.0,0.0,0.0,0.0,0.0,0.0,0.0,0.0,0.0,0.0,0.0,0.0,0.0,0.0,0.0,0.0,0.0
8202000000,159,8202000000,world,bluerov2/base_link,-12.302652688263265,-1.406614562272993,-95.1913907131708,-0.09863439407982208,0.09490622958954663,0.23533616964415266,0.9622270787848476,0.0,0.0,0.0,0.0,0.0,0.0,0.0,0.0,0.0,0.0,0.0,0.0,0.0,0.0,0.0,0.0,0.0,0.0,0.0,0.0,0.0,0.0,0.0,0.0,0.0,0.0,0.0,0.0,0.0,0.0,0.0,0.0,0.0,0.0,0.0,0.0,-1.8259737036443637,-1.9814426265330658,-0.685873009014335,-0.027423794087370282,0.23503495482877132,0.6779114463983542,0.0,0.0,0.0,0.0,0.0,0.0,0.0,0.0,0.0,0.0,0.0,0.0,0.0,0.0,0.0,0.0,0.0,0.0,0.0,0.0,0.0,0.0,0.0,0.0,0.0,0.0,0.0,0.0,0.0,0.0,0.0,0.0,0.0,0.0,0.0,0.0
8252000000,160,8252000000,world,bluerov2/base_link,-12.390891433028084,-1.5053730173192472,-95.22543043257573,-0.09936173458406646,0.09877037158002551,0.2510998321528966,0.957768517801236,0.0,0.0,0.0,0.0,0.0,0.0,0.0,0.0,0.0,0.0,0.0,0.0,0.0,0.0,0.0,0.0,0.0,0.0,0.0,0.0,0.0,0.0,0.0,0.0,0.0,0.0,0.0,0.0,0.0,0.0,0.0,0.0,0.0,0.0,0.0,0.0,-1.7058208340267154,-1.9683096688215393,-0.6725441334860237,-0.017399642213866882,0.20848861456401277,0.597183126533753,0.0,0.0,0.0,0.0,0.0,0.0,0.0,0.0,0.0,0.0,0.0,0.0,0.0,0.0,0.0,0.0,0.0,0.0,0.0,0.0,0.0,0.0,0.0,0.0,0.0,0.0,0.0,0.0,0.0,0.0,0.0,0.0,0.0,0.0,0.0,0.0
8302000000,161,8302000000,world,bluerov2/base_link,-12.472864340185904,-1.6033162527810474,-95.25832872246161,-0.09987920150120477,0.10208324694082133,0.2648138879111089,0.9536649100029339,0.0,0.0,0.0,0.0,0.0,0.0,0.0,0.0,0.0,0.0,0.0,0.0,0.0,0.0,0.0,0.0,0.0,0.0,0.0,0.0,0.0,0.0,0.0,0.0,0.0,0.0,0.0,0.0,0.0,0.0,0.0,0.0,0.0,0.0,0.0,0.0,-1.5769240893818757,-1.951742563544923,-0.6437101772462461,-0.01119626258909082,0.1766662908949169,0.5147153999315015,0.0,0.0,0.0,0.0,0.0,0.0,0.0,0.0,0.0,0.0,0.0,0.0,0.0,0.0,0.0,0.0,0.0,0.0,0.0,0.0,0.0,0.0,0.0,0.0,0.0,0.0,0.0,0.0,0.0,0.0,0.0,0.0,0.0,0.0,0.0,0.0
8352000000,162,8352000000,world,bluerov2/base_link,-12.54823501897224,-1.7006555571281379,-95.2895186717991,-0.10009540212734348,0.1046345520346141,0.2763244679662566,0.9500933161519695,0.0,0.0,0.0,0.0,0.0,0.0,0.0,0.0,0.0,0.0,0.0,0.0,0.0,0.0,0.0,0.0,0.0,0.0,0.0,0.0,0.0,0.0,0.0,0.0,0.0,0.0,0.0,0.0,0.0,0.0,0.0,0.0,0.0,0.0,0.0,0.0,-1.442677327793897,-1.9410397014866974,-0.6019536314820672,0.003837500363995116,0.13545239463705605,0.4255916891357021,0.0,0.0,0.0,0.0,0.0,0.0,0.0,0.0,0.0,0.0,0.0,0.0,0.0,0.0,0.0,0.0,0.0,0.0,0.0,0.0,0.0,0.0,0.0,0.0,0.0,0.0,0.0,0.0,0.0,0.0,0.0,0.0,0.0,0.0,0.0,0.0
8402000000,163,8402000000,world,bluerov2/base_link,-12.616779771013572,-1.7973556048797048,-95.31823738064728,-0.10010896596075333,0.10631280418030158,0.28567552745686986,0.9471352995289684,0.0,0.0,0.0,0.0,0.0,0.0,0.0,0.0,0.0,0.0,0.0,0.0,0.0,0.0,0.0,0.0,0.0,0.0,0.0,0.0,0.0,0.0,0.0,0.0,0.0,0.0,0.0,0.0,0.0,0.0,0.0,0.0,0.0,0.0,0.0,0.0,-1.3048895954301796,-1.9274421075852095,-0.5482809926892914,0.010812746145791401,0.09195820442214604,0.34168228848128174,0.0,0.0,0.0,0.0,0.0,0.0,0.0,0.0,0.0,0.0,0.0,0.0,0.0,0.0,0.0,0.0,0.0,0.0,0.0,0.0,0.0,0.0,0.0,0.0,0.0,0.0,0.0,0.0,0.0,0.0,0.0,0.0,0.0,0.0,0.0,0.0
8452000000,164,8452000000,world,bluerov2/base_link,-12.678411687021354,-1.8932725650104152,-95.34393509987841,-0.1001401198006574,0.10711779338589357,0.2930044258445467,0.9447995243341069,0.0,0.0,0.0,0.0,0.0,0.0,0.0,0.0,0.0,0.0,0.0,0.0,0.0,0.0,0.0,0.0,0.0,0.0,0.0,0.0,0.0,0.0,0.0,0.0,0.0,0.0,0.0,0.0,0.0,0.0,0.0,0.0,0.0,0.0,0.0,0.0,-1.165279700084764,-1.9081090017932247,-0.47832770893554144,0.01121083057997809,0.04960871311669537,0.26579736288194705,0.0,0.0,0.0,0.0,0.0,0.0,0.0,0.0,0.0,0.0,0.0,0.0,0.0,0.0,0.0,0.0,0.0,0.0,0.0,0.0,0.0,0.0,0.0,0.0,0.0,0.0,0.0,0.0,0.0,0.0,0.0,0.0,0.0,0.0,0.0,0.0
8502000000,165,8502000000,world,bluerov2/base_link,-12.733071176968652,-1.987945523689286,-95.36575068741574,-0.10035146786364356,0.1071113207460506,0.2985824351064069,0.9430298390356356,0.0,0.0,0.0,0.0,0.0,0.0,0.0,0.0,0.0,0.0,0.0,0.0,0.0,0.0,0.0,0.0,0.0,0.0,0.0,0.0,0.0,0.0,0.0,0.0,0.0,0.0,0.0,0.0,0.0,0.0,0.0,0.0,0.0,0.0,0.0,0.0,-1.0272746295009048,-1.8792783586875024,-0.3975952899322145,0.00696065448174257,0.006028500602728471,0.20302342808180596,0.0,0.0,0.0,0.0,0.0,0.0,0.0,0.0,0.0,0.0,0.0,0.0,0.0,0.0,0.0,0.0,0.0,0.0,0.0,0.0,0.0,0.0,0.0,0.0,0.0,0.0,0.0,0.0,0.0,0.0,0.0,0.0,0.0,0.0,0.0,0.0
8552000000,166,8552000000,world,bluerov2/base_link,-12.780942231346263,-2.0810510004362035,-95.38348879826276,-0.10079704113188116,0.10624212705721202,0.3026625283854742,0.9417791465352846,0.0,0.0,0.0,0.0,0.0,0.0,0.0,0.0,0.0,0.0,0.0,0.0,0.0,0.0,0.0,0.0,0.0,0.0,0.0,0.0,0.0,0.0,0.0,0.0,0.0,0.0,0.0,0.0,0.0,0.0,0.0,0.0,0.0,0.0,0.0,0.0,-0.8931361408380444,-1.8455838169284413,-0.31424761896419606,0.0064881999506946255,-0.035611142236022866,0.14871266542292697,0.0,0.0,0.0,0.0,0.0,0.0,0.0,0.0,0.0,0.0,0.0,0.0,0.0,0.0,0.0,0.0,0.0,0.0,0.0,0.0,0.0,0.0,0.0,0.0,0.0,0.0,0.0,0.0,0.0,0.0,0.0,0.0,0.0,0.0,0.0,0.0
8602000000,167,8602000000,world,bluerov2/base_link,-12.822177346698902,-2.1724765729323923,-95.39700681611403,-0.10129893165837754,0.10457092803765976,0.3054112278291225,0.9410246699051634,0.0,0.0,0.0,0.0,0.0,0.0,0.0,0.0,0.0,0.0,0.0,0.0,0.0,0.0,0.0,0.0,0.0,0.0,0.0,0.0,0.0,0.0,0.0,0.0,0.0,0.0,0.0,0.0,0.0,0.0,0.0,0.0,0.0,0.0,0.0,0.0,-0.7617383570839555,-1.813308795011882,-0.22980281941543743,0.013084722391984415,-0.07103722618208813,0.09641595242528288,0.0,0.0,0.0,0.0,0.0,0.0,0.0,0.0,0.0,0.0,0.0,0.0,0.0,0.0,0.0,0.0,0.0,0.0,0.0,0.0,0.0,0.0,0.0,0.0,0.0,0.0,0.0,0.0,0.0,0.0,0.0,0.0,0.0,0.0,0.0,0.0
8652000000,168,8652000000,world,bluerov2/base_link,-12.856915432706536,-2.262346388952894,-95.4063589050151,-0.10171178485140796,0.10221900138419338,0.3069002247012245,0.9407540808610384,0.0,0.0,0.0,0.0,0.0,0.0,0.0,0.0,0.0,0.0,0.0,0.0,0.0,0.0,0.0,0.0,0.0,0.0,0.0,0.0,0.0,0.0,0.0,0.0,0.0,0.0,0.0,0.0,0.0,0.0,0.0,0.0,0.0,0.0,0.0,0.0,-0.633522095789784,-1.7829414321950017,-0.14730264524073147,0.02392259282706071,-0.09921247695524621,0.04757178349132288,0.0,0.0,0.0,0.0,0.0,0.0,0.0,0.0,0.0,0.0,0.0,0.0,0.0,0.0,0.0,0.0,0.0,0.0,0.0,0.0,0.0,0.0,0.0,0.0,0.0,0.0,0.0,0.0,0.0,0.0,0.0,0.0,0.0,0.0,0.0,0.0
8702000000,169,8702000000,world,bluerov2/base_link,-12.885374757521634,-2.350725954840851,-95.41160451540733,-0.10193210378921537,0.09930843374290786,0.30726794019822395,0.9409219383832942,0.0,0.0,0.0,0.0,0.0,0.0,0.0,0.0,0.0,0.0,0.0,0.0,0.0,0.0,0.0,0.0,0.0,0.0,0.0,0.0,0.0,0.0,0.0,0.0,0.0,0.0,0.0,0.0,0.0,0.0,0.0,0.0,0.0,0.0,0.0,0.0,-0.5113762886158092,-1.7540205390879824,-0.06718390525163413,0.03554578620410456,-0.12277334326665873,0.0037293352076483554,0.0,0.0,0.0,0.0,0.0,0.0,0.0,0.0,0.0,0.0,0.0,0.0,0.0,0.0,0.0,0.0,0.0,0.0,0.0,0.0,0.0,0.0,0.0,0.0,0.0,0.0,0.0,0.0,0.0,0.0,0.0,0.0,0.0,0.0,0.0,0.0
8752000000,170,8752000000,world,bluerov2/base_link,-12.907863662024596,-2.437772304367841,-95.41304163562364,-0.10187578964449692,0.0959107422524064,0.30661659014891135,0.9414928144443573,0.0,0.0,0.0,0.0,0.0,0.0,0.0,0.0,0.0,0.0,0.0,0.0,0.0,0.0,0.0,0.0,0.0,0.0,0.0,0.0,0.0,0.0,0.0,0.0,0.0,0.0,0.0,0.0,0.0,0.0,0.0,0.0,0.0,0.0,0.0,0.0,-0.39396492999293414,-1.728928625247213,0.005540766925599351,0.051891992445565346,-0.1396147524731738,-0.03636237756917216,0.0,0.0,0.0,0.0,0.0,0.0,0.0,0.0,0.0,0.0,0.0,0.0,0.0,0.0,0.0,0.0,0.0,0.0,0.0,0.0,0.0,0.0,0.0,0.0,0.0,0.0,0.0,0.0,0.0,0.0,0.0,0.0,0.0,0.0,0.0,0.0
8802000000,171,8802000000,world,bluerov2/base_link,-12.924679794470544,-2.523571007476141,-95.41112897081587,-0.10141296317164622,0.09213289157454699,0.30512972789204246,0.9424026688986971,0.0,0.0,0.0,0.0,0.0,0.0,0.0,0.0,0.0,0.0,0.0,0.0,0.0,0.0,0.0,0.0,0.0,0.0,0.0,0.0,0.0,0.0,0.0,0.0,0.0,0.0,0.0,0.0,0.0,0.0,0.0,0.0,0.0,0.0,0.0,0.0,-0.2837511801986071,-1.704066950362256,0.0672081360738908,0.06988509123658682,-0.15117917225252822,-0.0685633513516941,0.0,0.0,0.0,0.0,0.0,0.0,0.0,0.0,0.0,0.0,0.0,0.0,0.0,0.0,0.0,0.0,0.0,0.0,0.0,0.0,0.0,0.0,0.0,0.0,0.0,0.0,0.0,0.0,0.0,0.0,0.0,0.0,0.0,0.0,0.0,0.0
8852000000,172,8852000000,world,bluerov2/base_link,-12.936170759965709,-2.6081841879291177,-95.40639651417845,-0.10053013758116175,0.08807681813987256,0.30295013674692634,0.9435875053164317,0.0,0.0,0.0,0.0,0.0,0.0,0.0,0.0,0.0,0.0,0.0,0.0,0.0,0.0,0.0,0.0,0.0,0.0,0.0,0.0,0.0,0.0,0.0,0.0,0.0,0.0,0.0,0.0,0.0,0.0,0.0,0.0,0.0,0.0,0.0,0.0,-0.18085470632959222,-1.6810232171246358,0.11833622585056851,0.08827413306711507,-0.15766568058127392,-0.09528127890293413,0.0,0.0,0.0,0.0,0.0,0.0,0.0,0.0,0.0,0.0,0.0,0.0,0.0,0.0,0.0,0.0,0.0,0.0,0.0,0.0,0.0,0.0,0.0,0.0,0.0,0.0,0.0,0.0,0.0,0.0,0.0,0.0,0.0,0.0,0.0,0.0
8902000000,173,8902000000,world,bluerov2/base_link,-12.942678010101965,-2.6916010388103966,-95.39932304216292,-0.09923195798126161,0.08387267146198896,0.30027284378790564,0.9449627573510813,0.0,0.0,0.0,0.0,0.0,0.0,0.0,0.0,0.0,0.0,0.0,0.0,0.0,0.0,0.0,0.0,0.0,0.0,0.0,0.0,0.0,0.0,0.0,0.0,0.0,0.0,0.0,0.0,0.0,0.0,0.0,0.0,0.0,0.0,0.0,0.0,-0.08453635753162514,-1.6565938361402373,0.16174457793661545,0.10251995511741249,-0.15911375955078264,-0.11408974205472415,0.0,0.0,0.0,0.0,0.0,0.0,0.0,0.0,0.0,0.0,0.0,0.0,0.0,0.0,0.0,0.0,0.0,0.0,0.0,0.0,0.0,0.0,0.0,0.0,0.0,0.0,0.0,0.0,0.0,0.0,0.0,0.0,0.0,0.0,0.0,0.0
8952000000,174,8952000000,world,bluerov2/base_link,-12.94454397094015,-2.7738063321398916,-95.39031314733205,-0.09756205921221392,0.07960722507875294,0.29722830933351024,0.9464669389092661,0.0,0.0,0.0,0.0,0.0,0.0,0.0,0.0,0.0,0.0,0.0,0.0,0.0,0.0,0.0,0.0,0.0,0.0,0.0,0.0,0.0,0.0,0.0,0.0,0.0,0.0,0.0,0.0,0.0,0.0,0.0,0.0,0.0,0.0,0.0,0.0,0.0045973016872094905,-1.6316721391240643,0.19606939080190244,0.11672987553180975,-0.15689963708772245,-0.12716846169683207,0.0,0.0,0.0,0.0,0.0,0.0,0.0,0.0,0.0,0.0,0.0,0.0,0.0,0.0,0.0,0.0,0.0,0.0,0.0,0.0,0.0,0.0,0.0,0.0,0.0,0.0,0.0,0.0,0.0,0.0,0.0,0.0,0.0,0.0,0.0,0.0
9002000000,175,9002000000,world,bluerov2/base_link,-12.942167942787405,-2.8547290020548344,-95.3798337081146,-0.09548925823734863,0.07535220374858828,0.29398348179999056,0.948038796347632,0.0,0.0,0.0,0.0,0.0,0.0,0.0,0.0,0.0,0.0,0.0,0.0,0.0,0.0,0.0,0.0,0.0,0.0,0.0,0.0,0.0,0.0,0.0,0.0,0.0,0.0,0.0,0.0,0.0,0.0,0.0,0.0,0.0,0.0,0.0,0.0,0.08679575940156833,-1.6067052760671439,0.22089852413515432,0.1319254177093992,-0.15111865938591268,-0.13525587760784008,0.0,0.0,0.0,0.0,0.0,0.0,0.0,0.0,0.0,0.0,0.0,0.0,0.0,0.0,0.0,0.0,0.0,0.0,0.0,0.0,0.0,0.0,0.0,0.0,0.0,0.0,0.0,0.0,0.0,0.0,0.0,0.0,0.0,0.0,0.0,0.0
9052000000,176,9052000000,world,bluerov2/base_link,-12.93575655593535,-2.9343815009157845,-95.3682690149174,-0.0930362810577898,0.07118184345368121,0.2906454596700902,0.9496328829303636,0.0,0.0,0.0,0.0,0.0,0.0,0.0,0.0,0.0,0.0,0.0,0.0,0.0,0.0,0.0,0.0,0.0,0.0,0.0,0.0,0.0,0.0,0.0,0.0,0.0,0.0,0.0,0.0,0.0,0.0,0.0,0.0,0.0,0.0,0.0,0.0,0.16570654219960182,-1.5795356525668902,0.24019967999856467,0.14340174363387395,-0.1423896002755551,-0.13634616784189746,0.0,0.0,0.0,0.0,0.0,0.0,0.0,0.0,0.0,0.0,0.0,0.0,0.0,0.0,0.0,0.0,0.0,0.0,0.0,0.0,0.0,0.0,0.0,0.0,0.0,0.0,0.0,0.0,0.0,0.0,0.0,0.0,0.0,0.0,0.0,0.0
9102000000,177,9102000000,world,bluerov2/base_link,-12.925424273728556,-3.0125283335939708,-95.35583823332162,-0.0902875100121366,0.06717220369811908,0.28744669995282396,0.9511626860176854,0.0,0.0,0.0,0.0,0.0,0.0,0.0,0.0,0.0,0.0,0.0,0.0,0.0,0.0,0.0,0.0,0.0,0.0,0.0,0.0,0.0,0.0,0.0,0.0,0.0,0.0,0.0,0.0,0.0,0.0,0.0,0.0,0.0,0.0,0.0,0.0,0.2447232995637358,-1.5472236140043916,0.25618835006634505,0.15051297813414527,-0.1313683736405209,-0.12756119860566967,0.0,0.0,0.0,0.0,0.0,0.0,0.0,0.0,0.0,0.0,0.0,0.0,0.0,0.0,0.0,0.0,0.0,0.0,0.0,0.0,0.0,0.0,0.0,0.0,0.0,0.0,0.0,0.0,0.0,0.0,0.0,0.0,0.0,0.0,0.0,0.0
9152000000,178,9152000000,world,bluerov2/base_link,-12.911127238526612,-3.0889945533797736,-95.34261803211625,-0.0873762028727976,0.063361576540594,0.2845460281864311,0.952567198486883,0.0,0.0,0.0,0.0,0.0,0.0,0.0,0.0,0.0,0.0,0.0,0.0,0.0,0.0,0.0,0.0,0.0,0.0,0.0,0.0,0.0,0.0,0.0,0.0,0.0,0.0,0.0,0.0,0.0,0.0,0.0,0.0,0.0,0.0,0.0,0.0,0.323482983187478,-1.51253324645094,0.272118927792473,0.15253225460635939,-0.12068574261849391,-0.11328446795213784,0.0,0.0,0.0,0.0,0.0,0.0,0.0,0.0,0.0,0.0,0.0,0.0,0.0,0.0,0.0,0.0,0.0,0.0,0.0,0.0,0.0,0.0,0.0,0.0,0.0,0.0,0.0,0.0,0.0,0.0,0.0,0.0,0.0,0.0,0.0,0.0
9202000000,179,9202000000,world,bluerov2/base_link,-12.892986649246776,-3.1637358697629065,-95.32866418894642,-0.08436347584622263,0.059746357497377715,0.2820249155102332,0.9538213269477598,0.0,0.0,0.0,0.0,0.0,0.0,0.0,0.0,0.0,0.0,0.0,0.0,0.0,0.0,0.0,0.0,0.0,0.0,0.0,0.0,0.0,0.0,0.0,0.0,0.0,0.0,0.0,0.0,0.0,0.0,0.0,0.0,0.0,0.0,0.0,0.0,0.39817577874270144,-1.4785679413217796,0.28423508532430153,0.1557196808512309,-0.11078083197344007,-0.09830620679758433,0.0,0.0,0.0,0.0,0.0,0.0,0.0,0.0,0.0,0.0,0.0,0.0,0.0,0.0,0.0,0.0,0.0,0.0,0.0,0.0,0.0,0.0,0.0,0.0,0.0,0.0,0.0,0.0,0.0,0.0,0.0,0.0,0.0,0.0,0.0,0.0
9252000000,180,9252000000,world,bluerov2/base_link,-12.87127146942341,-3.236838277022995,-95.31430064448661,-0.08118965799233646,0.056299480022581026,0.2798475985261802,0.9549470820853919,0.0,0.0,0.0,0.0,0.0,0.0,0.0,0.0,0.0,0.0,0.0,0.0,0.0,0.0,0.0,0.0,0.0,0.0,0.0,0.0,0.0,0.0,0.0,0.0,0.0,0.0,0.0,0.0,0.0,0.0,0.0,0.0,0.0,0.0,0.0,0.0,0.46768996350592235,-1.447267855195407,0.28995596318614025,0.16025443320883392,-0.10116466581441019,-0.08524425860619507,0.0,0.0,0.0,0.0,0.0,0.0,0.0,0.0,0.0,0.0,0.0,0.0,0.0,0.0,0.0,0.0,0.0,0.0,0.0,0.0,0.0,0.0,0.0,0.0,0.0,0.0,0.0,0.0,0.0,0.0,0.0,0.0,0.0,0.0,0.0,0.0
9302000000,181,9302000000,world,bluerov2/base_link,-12.846024082019376,-3.3084574948407894,-95.2996688373201,-0.07792396628092903,0.05303038023170879,0.2780240496270488,0.9559384196068831,0.0,0.0,0.0,0.0,0.0,0.0,0.0,0.0,0.0,0.0,0.0,0.0,0.0,0.0,0.0,0.0,0.0,0.0,0.0,0.0,0.0,0.0,0.0,0.0,0.0,0.0,0.0,0.0,0.0,0.0,0.0,0.0,0.0,0.0,0.0,0.0,0.538875063785105,-1.4189828226177705,0.2944425882384089,0.16047251572662802,-0.09239826232384386,-0.07064139438144275,0.0,0.0,0.0,0.0,0.0,0.0,0.0,0.0,0.0,0.0,0.0,0.0,0.0,0.0,0.0,0.0,0.0,0.0,0.0,0.0,0.0,0.0,0.0,0.0,0.0,0.0,0.0,0.0,0.0,0.0,0.0,0.0,0.0,0.0,0.0,0.0
9352000000,182,9352000000,world,bluerov2/base_link,-12.81729930318925,-3.3786871818281043,-95.28485826449598,-0.07465051480966386,0.0499288651924628,0.27655357743212483,0.9567928343527342,0.0,0.0,0.0,0.0,0.0,0.0,0.0,0.0,0.0,0.0,0.0,0.0,0.0,0.0,0.0,0.0,0.0,0.0,0.0,0.0,0.0,0.0,0.0,0.0,0.0,0.0,0.0,0.0,0.0,0.0,0.0,0.0,0.0,0.0,0.0,0.0,0.6066801683647554,-1.3909610078113623,0.2971509213905239,0.15822858027877335,-0.08505544682327461,-0.05550176157626763,0.0,0.0,0.0,0.0,0.0,0.0,0.0,0.0,0.0,0.0,0.0,0.0,0.0,0.0,0.0,0.0,0.0,0.0,0.0,0.0,0.0,0.0,0.0,0.0,0.0,0.0,0.0,0.0,0.0,0.0,0.0,0.0,0.0,0.0,0.0,0.0
9402000000,183,9402000000,world,bluerov2/base_link,-12.785295118820175,-3.447442470318912,-95.27009289712484,-0.07135439283534041,0.046986779718694416,0.27547123189709777,0.9575052968792718,0.0,0.0,0.0,0.0,0.0,0.0,0.0,0.0,0.0,0.0,0.0,0.0,0.0,0.0,0.0,0.0,0.0,0.0,0.0,0.0,0.0,0.0,0.0,0.0,0.0,0.0,0.0,0.0,0.0,0.0,0.0,0.0,0.0,0.0,0.0,0.0,0.6700705659372552,-1.3603868926767837,0.29249399334329373,0.15925078315019314,-0.07693918374177382,-0.03998741201756276,0.0,0.0,0.0,0.0,0.0,0.0,0.0,0.0,0.0,0.0,0.0,0.0,0.0,0.0,0.0,0.0,0.0,0.0,0.0,0.0,0.0,0.0,0.0,0.0,0.0,0.0,0.0,0.0,0.0,0.0,0.0,0.0,0.0,0.0,0.0,0.0
9452000000,184,9452000000,world,bluerov2/base_link,-12.750149539084804,-3.514639751843568,-95.25554694329367,-0.06807580102832154,0.04419397694799387,0.27477388388544655,0.9580771839733893,0.0,0.0,0.0,0.0,0.0,0.0,0.0,0.0,0.0,0.0,0.0,0.0,0.0,0.0,0.0,0.0,0.0,0.0,0.0,0.0,0.0,0.0,0.0,0.0,0.0,0.0,0.0,0.0,0.0,0.0,0.0,0.0,0.0,0.0,0.0,0.0,0.7334524928963638,-1.3287375995720547,0.2901053266475497,0.15345495696888656,-0.07143869580460119,-0.02248038222193471,0.0,0.0,0.0,0.0,0.0,0.0,0.0,0.0,0.0,0.0,0.0,0.0,0.0,0.0,0.0,0.0,0.0,0.0,0.0,0.0,0.0,0.0,0.0,0.0,0.0,0.0,0.0,0.0,0.0,0.0,0.0,0.0,0.0,0.0,0.0,0.0
9502000000,185,9502000000,world,bluerov2/base_link,-12.711875714175461,-3.5803235110669185,-95.24114331034986,-0.06491034161791075,0.04153475753140793,0.27446794603008356,0.958503447082941,0.0,0.0,0.0,0.0,0.0,0.0,0.0,0.0,0.0,0.0,0.0,0.0,0.0,0.0,0.0,0.0,0.0,0.0,0.0,0.0,0.0,0.0,0.0,0.0,0.0,0.0,0.0,0.0,0.0,0.0,0.0,0.0,0.0,0.0,0.0,0.0,0.7938688824812115,-1.2993584946793781,0.2851747327629249,0.14963286989816363,-0.06612406474851247,-0.008622893748536958,0.0,0.0,0.0,0.0,0.0,0.0,0.0,0.0,0.0,0.0,0.0,0.0,0.0,0.0,0.0,0.0,0.0,0.0,0.0,0.0,0.0,0.0,0.0,0.0,0.0,0.0,0.0,0.0,0.0,0.0,0.0,0.0,0.0,0.0,0.0,0.0
9552000000,186,9552000000,world,bluerov2/base_link,-12.670663766453712,-3.6445501069341137,-95.22709748875651,-0.06178893775842263,0.03900719226464773,0.27444348934290247,0.9588228915079189,0.0,0.0,0.0,0.0,0.0,0.0,0.0,0.0,0.0,0.0,0.0,0.0,0.0,0.0,0.0,0.0,0.0,0.0,0.0,0.0,0.0,0.0,0.0,0.0,0.0,0.0,0.0,0.0,0.0,0.0,0.0,0.0,0.0,0.0,0.0,0.0,0.8511834312417758,-1.2717937604746652,0.2753930346073788,0.14812515469021337,-0.059973823934064016,0.0007220293445325848,0.0,0.0,0.0,0.0,0.0,0.0,0.0,0.0,0.0,0.0,0.0,0.0,0.0,0.0,0.0,0.0,0.0,0.0,0.0,0.0,0.0,0.0,0.0,0.0,0.0,0.0,0.0,0.0,0.0,0.0,0.0,0.0,0.0,0.0,0.0,0.0
9602000000,187,9602000000,world,bluerov2/base_link,-12.626724021957632,-3.7074938829905397,-95.21363353877769,-0.05866973230133993,0.03662525806057725,0.27457296552076976,0.959075669375892,0.0,0.0,0.0,0.0,0.0,0.0,0.0,0.0,0.0,0.0,0.0,0.0,0.0,0.0,0.0,0.0,0.0,0.0,0.0,0.0,0.0,0.0,0.0,0.0,0.0,0.0,0.0,0.0,0.0,0.0,0.0,0.0,0.0,0.0,0.0,0.0,0.9052500629782718,-1.2480921407763335,0.26463147937662634,0.1436702490646574,-0.05548084181930066,0.005588877509058737,0.0,0.0,0.0,0.0,0.0,0.0,0.0,0.0,0.0,0.0,0.0,0.0,0.0,0.0,0.0,0.0,0.0,0.0,0.0,0.0,0.0,0.0,0.0,0.0,0.0,0.0,0.0,0.0,0.0,0.0,0.0,0.0,0.0,0.0,0.0,0.0
9652000000,188,9652000000,world,bluerov2/base_link,-12.580107196915396,-3.7692784424454024,-95.20069687091963,-0.055665156348124606,0.034367140632315836,0.2747993635421073,0.9592734749852881,0.0,0.0,0.0,0.0,0.0,0.0,0.0,0.0,0.0,0.0,0.0,0.0,0.0,0.0,0.0,0.0,0.0,0.0,0.0,0.0,0.0,0.0,0.0,0.0,0.0,0.0,0.0,0.0,0.0,0.0,0.0,0.0,0.0,0.0,0.0,0.0,0.9556621998821941,-1.2239659384010284,0.252584173083701,0.13871207119364873,-0.051175173431985486,0.008102530387108599,0.0,0.0,0.0,0.0,0.0,0.0,0.0,0.0,0.0,0.0,0.0,0.0,0.0,0.0,0.0,0.0,0.0,0.0,0.0,0.0,0.0,0.0,0.0,0.0,0.0,0.0,0.0,0.0,0.0,0.0,0.0,0.0,0.0,0.0,0.0,0.0
9702000000,189,9702000000,world,bluerov2/base_link,-12.5311859311439,-3.829813070947876,-95.18847323372522,-0.05271811506766717,0.032252992410318315,0.275028616874591,0.9594476560627689,0.0,0.0,0.0,0.0,0.0,0.0,0.0,0.0,0.0,0.0,0.0,0.0,0.0,0.0,0.0,0.0,0.0,0.0,0.0,0.0,0.0,0.0,0.0,0.0,0.0,0.0,0.0,0.0,0.0,0.0,0.0,0.0,0.0,0.0,0.0,0.0,0.9987730875296348,-1.1986022732775912,0.23707188280583943,0.13487855542225216,-0.04635180118739288,0.006598787975196894,0.0,0.0,0.0,0.0,0.0,0.0,0.0,0.0,0.0,0.0,0.0,0.0,0.0,0.0,0.0,0.0,0.0,0.0,0.0,0.0,0.0,0.0,0.0,0.0,0.0,0.0,0.0,0.0,0.0,0.0,0.0,0.0,0.0,0.0,0.0,0.0
9752000000,190,9752000000,world,bluerov2/base_link,-12.48020442801056,-3.8891213325766225,-95.17695679330267,-0.04989864594874054,0.030261201695094726,0.27518891563399395,0.9596173432762861,0.0,0.0,0.0,0.0,0.0,0.0,0.0,0.0,0.0,0.0,0.0,0.0,0.0,0.0,0.0,0.0,0.0,0.0,0.0,0.0,0.0,0.0,0.0,0.0,0.0,0.0,0.0,0.0,0.0,0.0,0.0,0.0,0.0,0.0,0.0,0.0,1.0395298877445045,-1.1754356497947307,0.2252832592079037,0.1256452205709734,-0.045089698286707905,0.0036904909474254465,0.0,0.0,0.0,0.0,0.0,0.0,0.0,0.0,0.0,0.0,0.0,0.0,0.0,0.0,0.0,0.0,0.0,0.0,0.0,0.0,0.0,0.0,0.0,0.0,0.0,0.0,0.0,0.0,0.0,0.0,0.0,0.0,0.0,0.0,0.0,0.0
9802000000,191,9802000000,world,bluerov2/base_link,-12.427120476778807,-3.9473473074268153,-95.16588825588691,-0.04735540615405331,0.02834400380870299,0.2752937328386098,0.9597746837752396,0.0,0.0,0.0,0.0,0.0,0.0,0.0,0.0,0.0,0.0,0.0,0.0,0.0,0.0,0.0,0.0,0.0,0.0,0.0,0.0,0.0,0.0,0.0,0.0,0.0,0.0,0.0,0.0,0.0,0.0,0.0,0.0,0.0,0.0,0.0,0.0,1.0816827208373425,-1.1538384396989272,0.21810446028539274,0.1130995875111385,-0.046136851356183936,0.0025720946886065897,0.0,0.0,0.0,0.0,0.0,0.0,0.0,0.0,0.0,0.0,0.0,0.0,0.0,0.0,0.0,0.0,0.0,0.0,0.0,0.0,0.0,0.0,0.0,0.0,0.0,0.0,0.0,0.0,0.0,0.0,0.0,0.0,0.0,0.0,0.0,0.0
9852000000,192,9852000000,world,bluerov2/base_link,-12.372035851013953,-4.004395573323662,-95.15514449024083,-0.04510799970710981,0.026489872480212177,0.27536018877711843,0.9599168304884728,0.0,0.0,0.0,0.0,0.0,0.0,0.0,0.0,0.0,0.0,0.0,0.0,0.0,0.0,0.0,0.0,0.0,0.0,0.0,0.0,0.0,0.0,0.0,0.0,0.0,0.0,0.0,0.0,0.0,0.0,0.0,0.0,0.0,0.0,0.0,0.0,1.1189904371498205,-1.1294297872082628,0.21125902064806118,0.10254347095198664,-0.046127682691434975,0.0005871352018231564,0.0,0.0,0.0,0.0,0.0,0.0,0.0,0.0,0.0,0.0,0.0,0.0,0.0,0.0,0.0,0.0,0.0,0.0,0.0,0.0,0.0,0.0,0.0,0.0,0.0,0.0,0.0,0.0,0.0,0.0,0.0,0.0,0.0,0.0,0.0,0.0
9902000000,193,9902000000,world,bluerov2/base_link,-12.315232254549622,-4.060304749317752,-95.14484036143847,-0.043033019172986624,0.024731430514859966,0.27532640584297463,0.9600686880901468,0.0,0.0,0.0,0.0,0.0,0.0,0.0,0.0,0.0,0.0,0.0,0.0,0.0,0.0,0.0,0.0,0.0,0.0,0.0,0.0,0.0,0.0,0.0,0.0,0.0,0.0,0.0,0.0,0.0,0.0,0.0,0.0,0.0,0.0,0.0,0.0,1.1516211593111885,-1.1077832946198798,0.2008764882382194,0.09664610744422372,-0.04355574297798404,-0.00410725479619833,0.0,0.0,0.0,0.0,0.0,0.0,0.0,0.0,0.0,0.0,0.0,0.0,0.0,0.0,0.0,0.0,0.0,0.0,0.0,0.0,0.0,0.0,0.0,0.0,0.0,0.0,0.0,0.0,0.0,0.0,0.0,0.0,0.0,0.0,0.0,0.0
9952000000,194,9952000000,world,bluerov2/base_link,-12.256914958442179,-4.115175775572278,-95.13509637878185,-0.04106300949167237,0.023084077018748757,0.27515617790372293,0.9602447773360157,0.0,0.0,0.0,0.0,0.0,0.0,0.0,0.0,0.0,0.0,0.0,0.0,0.0,0.0,0.0,0.0,0.0,0.0,0.0,0.0,0.0,0.0,0.0,0.0,0.0,0.0,0.0,0.0,0.0,0.0,0.0,0.0,0.0,0.0,0.0,0.0,1.1787865609496375,-1.0891505245877486,0.188798479871088,0.09185086866211442,-0.04034307536443986,-0.01189366967058004,0.0,0.0,0.0,0.0,0.0,0.0,0.0,0.0,0.0,0.0,0.0,0.0,0.0,0.0,0.0,0.0,0.0,0.0,0.0,0.0,0.0,0.0,0.0,0.0,0.0,0.0,0.0,0.0,0.0,0.0,0.0,0.0,0.0,0.0,0.0,0.0
10002000000,195,10002000000,world,bluerov2/base_link,-12.197379449173145,-4.169236118839886,-95.1259924237916,-0.03917568046640637,0.021555498806193982,0.27475986769203753,0.9604726136840468,0.0,0.0,0.0,0.0,0.0,0.0,0.0,0.0,0.0,0.0,0.0,0.0,0.0,0.0,0.0,0.0,0.0,0.0,0.0,0.0,0.0,0.0,0.0,0.0,0.0,0.0,0.0,0.0,0.0,0.0,0.0,0.0,0.0,0.0,0.0,0.0,1.200848252297881,-1.0736099605011582,0.175749220362926,0.08703226140423478,-0.037407233593947174,-0.021532775574636294,0.0,0.0,0.0,0.0,0.0,0.0,0.0,0.0,0.0,0.0,0.0,0.0,0.0,0.0,0.0,0.0,0.0,0.0,0.0,0.0,0.0,0.0,0.0,0.0,0.0,0.0,0.0,0.0,0.0,0.0,0.0,0.0,0.0,0.0,0.0,0.0
10052000000,196,10052000000,world,bluerov2/base_link,-12.136939562111639,-4.222497251444071,-95.11760485662442,-0.03735721737817037,0.020144717615455734,0.27411046742440986,0.9607611983788299,0.0,0.0,0.0,0.0,0.0,0.0,0.0,0.0,0.0,0.0,0.0,0.0,0.0,0.0,0.0,0.0,0.0,0.0,0.0,0.0,0.0,0.0,0.0,0.0,0.0,0.0,0.0,0.0,0.0,0.0,0.0,0.0,0.0,0.0,0.0,0.0,1.2152254310518658,-1.0577420882056572,0.16018886791789472,0.08356716833482859,-0.033768496369678457,-0.03317014876044653,0.0,0.0,0.0,0.0,0.0,0.0,0.0,0.0,0.0,0.0,0.0,0.0,0.0,0.0,0.0,0.0,0.0,0.0,0.0,0.0,0.0,0.0,0.0,0.0,0.0,0.0,0.0,0.0,0.0,0.0,0.0,0.0,0.0,0.0,0.0,0.0
10102000000,197,10102000000,world,bluerov2/base_link,-12.075852549130449,-4.27502887620339,-95.1099846696695,-0.035619899198280076,0.018842083825055228,0.2731957585284975,0.9611140807314567,0.0,0.0,0.0,0.0,0.0,0.0,0.0,0.0,0.0,0.0,0.0,0.0,0.0,0.0,0.0,0.0,0.0,0.0,0.0,0.0,0.0,0.0,0.0,0.0,0.0,0.0,0.0,0.0,0.0,0.0,0.0,0.0,0.0,0.0,0.0,0.0,1.2276470349227313,-1.045049505648517,0.14538802128392425,0.07804093461544266,-0.031855307645134785,-0.04310170779707402,0.0,0.0,0.0,0.0,0.0,0.0,0.0,0.0,0.0,0.0,0.0,0.0,0.0,0.0,0.0,0.0,0.0,0.0,0.0,0.0,0.0,0.0,0.0,0.0,0.0,0.0,0.0,0.0,0.0,0.0,0.0,0.0,0.0,0.0,0.0,0.0
10152000000,198,10152000000,world,bluerov2/base_link,-12.014253494875767,-4.326983904470802,-95.10313537814588,-0.03398810216926735,0.017633263405253535,0.2720445797856271,0.9615225548794338,0.0,0.0,0.0,0.0,0.0,0.0,0.0,0.0,0.0,0.0,0.0,0.0,0.0,0.0,0.0,0.0,0.0,0.0,0.0,0.0,0.0,0.0,0.0,0.0,0.0,0.0,0.0,0.0,0.0,0.0,0.0,0.0,0.0,0.0,0.0,0.0,1.2347088965238395,-1.0341016202024207,0.12911994944682975,0.07345069817118002,-0.02939882426872092,-0.053489245333866564,0.0,0.0,0.0,0.0,0.0,0.0,0.0,0.0,0.0,0.0,0.0,0.0,0.0,0.0,0.0,0.0,0.0,0.0,0.0,0.0,0.0,0.0,0.0,0.0,0.0,0.0,0.0,0.0,0.0,0.0,0.0,0.0,0.0,0.0,0.0,0.0
10202000000,199,10202000000,world,bluerov2/base_link,-11.952558813648414,-4.378469827217834,-95.09702854608057,-0.032490348582704394,0.016508569312245303,0.27058760348275884,0.9620052979218433,0.0,0.0,0.0,0.0,0.0,0.0,0.0,0.0,0.0,0.0,0.0,0.0,0.0,0.0,0.0,0.0,0.0,0.0,0.0,0.0,0.0,0.0,0.0,0.0,0.0,0.0,0.0,0.0,0.0,0.0,0.0,0.0,0.0,0.0,0.0,0.0,1.2325148670073776,-1.0256119884960926,0.11650959510629721,0.06517269872274886,-0.029719308699661134,-0.0670648847499455,0.0,0.0,0.0,0.0,0.0,0.0,0.0,0.0,0.0,0.0,0.0,0.0,0.0,0.0,0.0,0.0,0.0,0.0,0.0,0.0,0.0,0.0,0.0,0.0,0.0,0.0,0.0,0.0,0.0,0.0,0.0,0.0,0.0,0.0,0.0,0.0
10252000000,200,10252000000,world,bluerov2/base_link,-11.890956392621069,-4.429498072812356,-95.09142312352087,-0.031236252877609574,0.015419217259849627,0.2688831328442859,0.9625426770367649,0.0,0.0,0.0,0.0,0.0,0.0,0.0,0.0,0.0,0.0,0.0,0.0,0.0,0.0,0.0,0.0,0.0,0.0,0.0,0.0,0.0,0.0,0.0,0.0,0.0,0.0,0.0,0.0,0.0,0.0,0.0,0.0,0.0,0.0,0.0,0.0,1.2303976406465007,-1.0154974975036488,0.10822587438689008,0.05477080482837576,-0.03181704631433807,-0.07440964889701583,0.0,0.0,0.0,0.0,0.0,0.0,0.0,0.0,0.0,0.0,0.0,0.0,0.0,0.0,0.0,0.0,0.0,0.0,0.0,0.0,0.0,0.0,0.0,0.0,0.0,0.0,0.0,0.0,0.0,0.0,0.0,0.0,0.0,0.0,0.0,0.0
10302000000,201,10302000000,world,bluerov2/base_link,-11.829544226035601,-4.480127821474612,-95.08617163111563,-0.030235809875209792,0.014356717776557556,0.26700179657927386,0.9631145939499176,0.0,0.0,0.0,0.0,0.0,0.0,0.0,0.0,0.0,0.0,0.0,0.0,0.0,0.0,0.0,0.0,0.0,0.0,0.0,0.0,0.0,0.0,0.0,0.0,0.0,0.0,0.0,0.0,0.0,0.0,0.0,0.0,0.0,0.0,0.0,0.0,1.2252963603417037,-1.01053688742376,0.10297933003555976,0.04423572132467822,-0.03413511172195757,-0.08119030090359186,0.0,0.0,0.0,0.0,0.0,0.0,0.0,0.0,0.0,0.0,0.0,0.0,0.0,0.0,0.0,0.0,0.0,0.0,0.0,0.0,0.0,0.0,0.0,0.0,0.0,0.0,0.0,0.0,0.0,0.0,0.0,0.0,0.0,0.0,0.0,0.0
10352000000,202,10352000000,world,bluerov2/base_link,-11.768467435159767,-4.530568621881204,-95.08110910186153,-0.029494695698080886,0.013314026423179966,0.26497443719001257,0.9637122741056671,0.0,0.0,0.0,0.0,0.0,0.0,0.0,0.0,0.0,0.0,0.0,0.0,0.0,0.0,0.0,0.0,0.0,0.0,0.0,0.0,0.0,0.0,0.0,0.0,0.0,0.0,0.0,0.0,0.0,0.0,0.0,0.0,0.0,0.0,0.0,0.0,1.2180620231982335,-1.0073995053384233,0.10013367691412776,0.034732509563271584,-0.03581492702119075,-0.08525617593190622,0.0,0.0,0.0,0.0,0.0,0.0,0.0,0.0,0.0,0.0,0.0,0.0,0.0,0.0,0.0,0.0,0.0,0.0,0.0,0.0,0.0,0.0,0.0,0.0,0.0,0.0,0.0,0.0,0.0,0.0,0.0,0.0,0.0,0.0,0.0,0.0
10402000000,203,10402000000,world,bluerov2/base_link,-11.707838273027283,-4.580873637557008,-95.0761896706244,-0.02894970787200998,0.012307884117200945,0.2628675636840759,0.9643189692033861,0.0,0.0,0.0,0.0,0.0,0.0,0.0,0.0,0.0,0.0,0.0,0.0,0.0,0.0,0.0,0.0,0.0,0.0,0.0,0.0,0.0,0.0,0.0,0.0,0.0,0.0,0.0,0.0,0.0,0.0,0.0,0.0,0.0,0.0,0.0,0.0,1.2063431828290307,-1.0057548001090508,0.09699381120690233,0.028207568294713013,-0.03584155627969192,-0.08851787443177397,0.0,0.0,0.0,0.0,0.0,0.0,0.0,0.0,0.0,0.0,0.0,0.0,0.0,0.0,0.0,0.0,0.0,0.0,0.0,0.0,0.0,0.0,0.0,0.0,0.0,0.0,0.0,0.0,0.0,0.0,0.0,0.0,0.0,0.0,0.0,0.0
10452000000,204,10452000000,world,bluerov2/base_link,-11.647936137382926,-4.631199311776776,-95.07142285213195,-0.028538609646328636,0.011350485103276653,0.2606677314281408,0.9649399193936798,0.0,0.0,0.0,0.0,0.0,0.0,0.0,0.0,0.0,0.0,0.0,0.0,0.0,0.0,0.0,0.0,0.0,0.0,0.0,0.0,0.0,0.0,0.0,0.0,0.0,0.0,0.0,0.0,0.0,0.0,0.0,0.0,0.0,0.0,0.0,0.0,1.1897742988094102,-1.0069381570673286,0.09412977028474284,0.022996635081708156,-0.03516978915068937,-0.09203698522307384,0.0,0.0,0.0,0.0,0.0,0.0,0.0,0.0,0.0,0.0,0.0,0.0,0.0,0.0,0.0,0.0,0.0,0.0,0.0,0.0,0.0,0.0,0.0,0.0,0.0,0.0,0.0,0.0,0.0,0.0,0.0,0.0,0.0,0.0,0.0,0.0
10502000000,205,10502000000,world,bluerov2/base_link,-11.588923549095423,-4.681607285601141,-95.06674962558718,-0.028256231583121516,0.010442754674729788,0.2584131114356477,0.9655647042480748,0.0,0.0,0.0,0.0,0.0,0.0,0.0,0.0,0.0,0.0,0.0,0.0,0.0,0.0,0.0,0.0,0.0,0.0,0.0,0.0,0.0,0.0,0.0,0.0,0.0,0.0,0.0,0.0,0.0,0.0,0.0,0.0,0.0,0.0,0.0,0.0,1.171768384460553,-1.009815265345258,0.09374628787189952,0.016814907960592824,-0.035071491668753424,-0.09213935351057734,0.0,0.0,0.0,0.0,0.0,0.0,0.0,0.0,0.0,0.0,0.0,0.0,0.0,0.0,0.0,0.0,0.0,0.0,0.0,0.0,0.0,0.0,0.0,0.0,0.0,0.0,0.0,0.0,0.0,0.0,0.0,0.0,0.0,0.0,0.0,0.0
10552000000,206,10552000000,world,bluerov2/base_link,-11.530850076745592,-4.73222731038261,-95.06212477278089,-0.02808229259938787,0.009589988485128546,0.25619186847781317,0.9661703491046826,0.0,0.0,0.0,0.0,0.0,0.0,0.0,0.0,0.0,0.0,0.0,0.0,0.0,0.0,0.0,0.0,0.0,0.0,0.0,0.0,0.0,0.0,0.0,0.0,0.0,0.0,0.0,0.0,0.0,0.0,0.0,0.0,0.0,0.0,0.0,0.0,1.1520430414329559,-1.0143809524099647,0.09116372706327926,0.01403133096261517,-0.03268017258952746,-0.08941038176571381,0.0,0.0,0.0,0.0,0.0,0.0,0.0,0.0,0.0,0.0,0.0,0.0,0.0,0.0,0.0,0.0,0.0,0.0,0.0,0.0,0.0,0.0,0.0,0.0,0.0,0.0,0.0,0.0,0.0,0.0,0.0,0.0,0.0,0.0,0.0,0.0
10602000000,207,10602000000,world,bluerov2/base_link,-11.473822340208855,-4.7830796171517385,-95.05772561802512,-0.02791668980840992,0.00882258015004804,0.25406790014009434,0.9667431523564262,0.0,0.0,0.0,0.0,0.0,0.0,0.0,0.0,0.0,0.0,0.0,0.0,0.0,0.0,0.0,0.0,0.0,0.0,0.0,0.0,0.0,0.0,0.0,0.0,0.0,0.0,0.0,0.0,0.0,0.0,0.0,0.0,0.0,0.0,0.0,0.0,1.1286663800357024,-1.019906718662294,0.08521948140965119,0.013746764666102694,-0.028999413630585703,-0.08536670491933607,0.0,0.0,0.0,0.0,0.0,0.0,0.0,0.0,0.0,0.0,0.0,0.0,0.0,0.0,0.0,0.0,0.0,0.0,0.0,0.0,0.0,0.0,0.0,0.0,0.0,0.0,0.0,0.0,0.0,0.0,0.0,0.0,0.0,0.0,0.0,0.0
10652000000,208,10652000000,world,bluerov2/base_link,-11.418068398880711,-4.834294548389293,-95.05362212366767,-0.027753109515953847,0.008132525151702973,0.25204661083300767,0.9672828608604862,0.0,0.0,0.0,0.0,0.0,0.0,0.0,0.0,0.0,0.0,0.0,0.0,0.0,0.0,0.0,0.0,0.0,0.0,0.0,0.0,0.0,0.0,0.0,0.0,0.0,0.0,0.0,0.0,0.0,0.0,0.0,0.0,0.0,0.0,0.0,0.0,1.1017469801037416,-1.0288400436467908,0.07890186643556495,0.012873670828858078,-0.026033770356665355,-0.08099272492624478,0.0,0.0,0.0,0.0,0.0,0.0,0.0,0.0,0.0,0.0,0.0,0.0,0.0,0.0,0.0,0.0,0.0,0.0,0.0,0.0,0.0,0.0,0.0,0.0,0.0,0.0,0.0,0.0,0.0,0.0,0.0,0.0,0.0,0.0,0.0,0.0
10702000000,209,10702000000,world,bluerov2/base_link,-11.36372843698173,-4.88600755835128,-95.04982838117103,-0.02761069253206793,0.007507696331348967,0.2501454070427595,0.9677853891690597,0.0,0.0,0.0,0.0,0.0,0.0,0.0,0.0,0.0,0.0,0.0,0.0,0.0,0.0,0.0,0.0,0.0,0.0,0.0,0.0,0.0,0.0,0.0,0.0,0.0,0.0,0.0,0.0,0.0,0.0,0.0,0.0,0.0,0.0,0.0,0.0,1.0728418351355864,-1.0397963406445592,0.07336869433242917,0.01034147302799259,-0.024326922903928763,-0.07463338831925725,0.0,0.0,0.0,0.0,0.0,0.0,0.0,0.0,0.0,0.0,0.0,0.0,0.0,0.0,0.0,0.0,0.0,0.0,0.0,0.0,0.0,0.0,0.0,0.0,0.0,0.0,0.0,0.0,0.0,0.0,0.0,0.0,0.0,0.0,0.0,0.0
10752000000,210,10752000000,world,bluerov2/base_link,-11.310790641954034,-4.938273634862054,-95.0462701207073,-0.027544735947163296,0.006927243424110468,0.24847323968339113,0.9682222626966314,0.0,0.0,0.0,0.0,0.0,0.0,0.0,0.0,0.0,0.0,0.0,0.0,0.0,0.0,0.0,0.0,0.0,0.0,0.0,0.0,0.0,0.0,0.0,0.0,0.0,0.0,0.0,0.0,0.0,0.0,0.0,0.0,0.0,0.0,0.0,0.0,1.0470469420454398,-1.0499338233814532,0.0701063887668369,0.005686875555664224,-0.023672138707866764,-0.06108506902280026,0.0,0.0,0.0,0.0,0.0,0.0,0.0,0.0,0.0,0.0,0.0,0.0,0.0,0.0,0.0,0.0,0.0,0.0,0.0,0.0,0.0,0.0,0.0,0.0,0.0,0.0,0.0,0.0,0.0,0.0,0.0,0.0,0.0,0.0,0.0,0.0
10802000000,211,10802000000,world,bluerov2/base_link,-11.259053268162273,-4.991047129353074,-95.04278347942113,-0.027615100414406124,0.0063722286187599,0.24720017787387702,0.9685498815190967,0.0,0.0,0.0,0.0,0.0,0.0,0.0,0.0,0.0,0.0,0.0,0.0,0.0,0.0,0.0,0.0,0.0,0.0,0.0,0.0,0.0,0.0,0.0,0.0,0.0,0.0,0.0,0.0,0.0,0.0,0.0,0.0,0.0,0.0,0.0,0.0,1.0232190359225977,-1.0606593700524252,0.06867822988723278,0.0010031093132686943,-0.023232617909577265,-0.043107049070898136,0.0,0.0,0.0,0.0,0.0,0.0,0.0,0.0,0.0,0.0,0.0,0.0,0.0,0.0,0.0,0.0,0.0,0.0,0.0,0.0,0.0,0.0,0.0,0.0,0.0,0.0,0.0,0.0,0.0,0.0,0.0,0.0,0.0,0.0,0.0,0.0
10852000000,212,10852000000,world,bluerov2/base_link,-11.208530111590088,-5.044391290757563,-95.03950151634493,-0.027721814072485914,0.005862269708165504,0.24638095417865985,0.9687587729855212,0.0,0.0,0.0,0.0,0.0,0.0,0.0,0.0,0.0,0.0,0.0,0.0,0.0,0.0,0.0,0.0,0.0,0.0,0.0,0.0,0.0,0.0,0.0,0.0,0.0,0.0,0.0,0.0,0.0,0.0,0.0,0.0,0.0,0.0,0.0,0.0,0.9987282186390469,-1.072741733206377,0.06291198780464431,0.0006245532953180043,-0.020610625355353348,-0.023867927335560438,0.0,0.0,0.0,0.0,0.0,0.0,0.0,0.0,0.0,0.0,0.0,0.0,0.0,0.0,0.0,0.0,0.0,0.0,0.0,0.0,0.0,0.0,0.0,0.0,0.0,0.0,0.0,0.0,0.0,0.0,0.0,0.0,0.0,0.0,0.0,0.0
10902000000,213,10902000000,world,bluerov2/base_link,-11.159146987756184,-5.098387043718442,-95.03649962080071,-0.027840946785511102,0.005398932719383668,0.2460748414735029,0.9688358506998842,0.0,0.0,0.0,0.0,0.0,0.0,0.0,0.0,0.0,0.0,0.0,0.0,0.0,0.0,0.0,0.0,0.0,0.0,0.0,0.0,0.0,0.0,0.0,0.0,0.0,0.0,0.0,0.0,0.0,0.0,0.0,0.0,0.0,0.0,0.0,0.0,0.9789659664555915,-1.0867936235299624,0.057353576602858516,-0.0007722365732956461,-0.018396507586180562,0.00027674448428938495,0.0,0.0,0.0,0.0,0.0,0.0,0.0,0.0,0.0,0.0,0.0,0.0,0.0,0.0,0.0,0.0,0.0,0.0,0.0,0.0,0.0,0.0,0.0,0.0,0.0,0.0,0.0,0.0,0.0,0.0,0.0,0.0,0.0,0.0,0.0,0.0
10952000000,214,10952000000,world,bluerov2/base_link,-11.110584761391028,-5.153089666863982,-95.03375019566326,-0.02800653943335838,0.004977721117799762,0.2464321334685894,0.9687425146216927,0.0,0.0,0.0,0.0,0.0,0.0,0.0,0.0,0.0,0.0,0.0,0.0,0.0,0.0,0.0,0.0,0.0,0.0,0.0,0.0,0.0,0.0,0.0,0.0,0.0,0.0,0.0,0.0,0.0,0.0,0.0,0.0,0.0,0.0,0.0,0.0,0.9638963332297288,-1.0998607198549486,0.05389033507592724,-0.004819563621462297,-0.017364841157430234,0.029168356075691824,0.0,0.0,0.0,0.0,0.0,0.0,0.0,0.0,0.0,0.0,0.0,0.0,0.0,0.0,0.0,0.0,0.0,0.0,0.0,0.0,0.0,0.0,0.0,0.0,0.0,0.0,0.0,0.0,0.0,0.0,0.0,0.0,0.0,0.0,0.0,0.0
11002000000,215,11002000000,world,bluerov2/base_link,-11.062780014667586,-5.208363057263113,-95.0310802147468,-0.028308271181299097,0.004573662160946955,0.2475014208784993,0.9684630969016257,0.0,0.0,0.0,0.0,0.0,0.0,0.0,0.0,0.0,0.0,0.0,0.0,0.0,0.0,0.0,0.0,0.0,0.0,0.0,0.0,0.0,0.0,0.0,0.0,0.0,0.0,0.0,0.0,0.0,0.0,0.0,0.0,0.0,0.0,0.0,0.0,0.9491173203896185,-1.1111572314873783,0.05340501723024185,-0.010750934419579318,-0.017547521638960235,0.05913256691812591,0.0,0.0,0.0,0.0,0.0,0.0,0.0,0.0,0.0,0.0,0.0,0.0,0.0,0.0,0.0,0.0,0.0,0.0,0.0,0.0,0.0,0.0,0.0,0.0,0.0,0.0,0.0,0.0,0.0,0.0,0.0,0.0,0.0,0.0,0.0,0.0
11052000000,216,11052000000,world,bluerov2/base_link,-11.015689716430309,-5.264264021774008,-95.02840777051333,-0.02874021531616307,0.004179316712415558,0.24928661939505747,0.9679941708119848,0.0,0.0,0.0,0.0,0.0,0.0,0.0,0.0,0.0,0.0,0.0,0.0,0.0,0.0,0.0,0.0,0.0,0.0,0.0,0.0,0.0,0.0,0.0,0.0,0.0,0.0,0.0,0.0,0.0,0.0,0.0,0.0,0.0,0.0,0.0,0.0,0.9355088642533821,-1.1243236927489204,0.05393548267682286,-0.015150068490400369,-0.017349266032066442,0.08828450880014073,0.0,0.0,0.0,0.0,0.0,0.0,0.0,0.0,0.0,0.0,0.0,0.0,0.0,0.0,0.0,0.0,0.0,0.0,0.0,0.0,0.0,0.0,0.0,0.0,0.0,0.0,0.0,0.0,0.0,0.0,0.0,0.0,0.0,0.0,0.0,0.0
11102000000,217,11102000000,world,bluerov2/base_link,-10.96927744441174,-5.320764679823161,-95.02576985538994,-0.029226680683128697,0.0038059063239740563,0.2517665555139075,0.9673390913934794,0.0,0.0,0.0,0.0,0.0,0.0,0.0,0.0,0.0,0.0,0.0,0.0,0.0,0.0,0.0,0.0,0.0,0.0,0.0,0.0,0.0,0.0,0.0,0.0,0.0,0.0,0.0,0.0,0.0,0.0,0.0,0.0,0.0,0.0,0.0,0.0,0.922355491435182,-1.1350409156098176,0.05109600963193889,-0.015328780310380192,-0.015088058853207572,0.11738191083493338,0.0,0.0,0.0,0.0,0.0,0.0,0.0,0.0,0.0,0.0,0.0,0.0,0.0,0.0,0.0,0.0,0.0,0.0,0.0,0.0,0.0,0.0,0.0,0.0,0.0,0.0,0.0,0.0,0.0,0.0,0.0,0.0,0.0,0.0,0.0,0.0
11152000000,218,11152000000,world,bluerov2/base_link,-10.923443601745044,-5.3777664041617195,-95.02331788854882,-0.029694989564572814,0.003472745052970601,0.25496419021412925,0.9664881837586066,0.0,0.0,0.0,0.0,0.0,0.0,0.0,0.0,0.0,0.0,0.0,0.0,0.0,0.0,0.0,0.0,0.0,0.0,0.0,0.0,0.0,0.0,0.0,0.0,0.0,0.0,0.0,0.0,0.0,0.0,0.0,0.0,0.0,0.0,0.0,0.0,0.9113194637905658,-1.144791716740352,0.04703183000831413,-0.01517041564251767,-0.012555259617308339,0.14607955073428294,0.0,0.0,0.0,0.0,0.0,0.0,0.0,0.0,0.0,0.0,0.0,0.0,0.0,0.0,0.0,0.0,0.0,0.0,0.0,0.0,0.0,0.0,0.0,0.0,0.0,0.0,0.0,0.0,0.0,0.0,0.0,0.0,0.0,0.0,0.0,0.0
11202000000,219,11202000000,world,bluerov2/base_link,-10.878187862866058,-5.435342453050227,-95.02112260808606,-0.030125464372800632,0.0031767506712046603,0.25878683128555807,0.9654593417667447,0.0,0.0,0.0,0.0,0.0,0.0,0.0,0.0,0.0,0.0,0.0,0.0,0.0,0.0,0.0,0.0,0.0,0.0,0.0,0.0,0.0,0.0,0.0,0.0,0.0,0.0,0.0,0.0,0.0,0.0,0.0,0.0,0.0,0.0,0.0,0.0,0.8992887703726588,-1.157472179756799,0.040938443713908805,-0.013909057323949824,-0.010017234793195051,0.17028542009755496,0.0,0.0,0.0,0.0,0.0,0.0,0.0,0.0,0.0,0.0,0.0,0.0,0.0,0.0,0.0,0.0,0.0,0.0,0.0,0.0,0.0,0.0,0.0,0.0,0.0,0.0,0.0,0.0,0.0,0.0,0.0,0.0,0.0,0.0,0.0,0.0
11252000000,220,11252000000,world,bluerov2/base_link,-10.833440993524523,-5.493573445187217,-95.0191767984346,-0.03055693279804669,0.0029121212938950382,0.26319107779728995,0.964255282575857,0.0,0.0,0.0,0.0,0.0,0.0,0.0,0.0,0.0,0.0,0.0,0.0,0.0,0.0,0.0,0.0,0.0,0.0,0.0,0.0,0.0,0.0,0.0,0.0,0.0,0.0,0.0,0.0,0.0,0.0,0.0,0.0,0.0,0.0,0.0,0.0,0.8910056231099626,-1.1706309516358882,0.037438471124410004,-0.016073698714283997,-0.00868357004786155,0.1940846469278627,0.0,0.0,0.0,0.0,0.0,0.0,0.0,0.0,0.0,0.0,0.0,0.0,0.0,0.0,0.0,0.0,0.0,0.0,0.0,0.0,0.0,0.0,0.0,0.0,0.0,0.0,0.0,0.0,0.0,0.0,0.0,0.0,0.0,0.0,0.0,0.0
11302000000,221,11302000000,world,bluerov2/base_link,-10.789168878259643,-5.552374322637392,-95.01739748863866,-0.031044174934729524,0.00266931934550058,0.26811706749492853,0.9628823251336445,0.0,0.0,0.0,0.0,0.0,0.0,0.0,0.0,0.0,0.0,0.0,0.0,0.0,0.0,0.0,0.0,0.0,0.0,0.0,0.0,0.0,0.0,0.0,0.0,0.0,0.0,0.0,0.0,0.0,0.0,0.0,0.0,0.0,0.0,0.0,0.0,0.8804697550976991,-1.1817237446082893,0.032953385193128536,-0.01755905583238785,-0.0075357629053162435,0.21430873644117635,0.0,0.0,0.0,0.0,0.0,0.0,0.0,0.0,0.0,0.0,0.0,0.0,0.0,0.0,0.0,0.0,0.0,0.0,0.0,0.0,0.0,0.0,0.0,0.0,0.0,0.0,0.0,0.0,0.0,0.0,0.0,0.0,0.0,0.0,0.0,0.0
11352000000,222,11352000000,world,bluerov2/base_link,-10.745328730935805,-5.611820900399824,-95.01589758253431,-0.03153055107365541,0.002457764404697559,0.2734999561099189,0.961351942709326,0.0,0.0,0.0,0.0,0.0,0.0,0.0,0.0,0.0,0.0,0.0,0.0,0.0,0.0,0.0,0.0,0.0,0.0,0.0,0.0,0.0,0.0,0.0,0.0,0.0,0.0,0.0,0.0,0.0,0.0,0.0,0.0,0.0,0.0,0.0,0.0,0.8736323331163708,-1.1952305769534048,0.028140642168156798,-0.018922773088749956,-0.0060273400193783045,0.23247123357097013,0.0,0.0,0.0,0.0,0.0,0.0,0.0,0.0,0.0,0.0,0.0,0.0,0.0,0.0,0.0,0.0,0.0,0.0,0.0,0.0,0.0,0.0,0.0,0.0,0.0,0.0,0.0,0.0,0.0,0.0,0.0,0.0,0.0,0.0,0.0,0.0
11402000000,223,11402000000,world,bluerov2/base_link,-10.701805458285031,-5.6718997623572225,-95.01473790394097,-0.03199444123521679,0.002284686964816826,0.27928043990502893,0.9596736798630942,0.0,0.0,0.0,0.0,0.0,0.0,0.0,0.0,0.0,0.0,0.0,0.0,0.0,0.0,0.0,0.0,0.0,0.0,0.0,0.0,0.0,0.0,0.0,0.0,0.0,0.0,0.0,0.0,0.0,0.0,0.0,0.0,0.0,0.0,0.0,0.0,0.8676519385702469,-1.207581518800571,0.017624744025228137,-0.015771457477808226,-0.002469693760410365,0.24853272565702658,0.0,0.0,0.0,0.0,0.0,0.0,0.0,0.0,0.0,0.0,0.0,0.0,0.0,0.0,0.0,0.0,0.0,0.0,0.0,0.0,0.0,0.0,0.0,0.0,0.0,0.0,0.0,0.0,0.0,0.0,0.0,0.0,0.0,0.0,0.0,0.0
11452000000,224,11452000000,world,bluerov2/base_link,-10.65865013531131,-5.7325986743903075,-95.01412707928401,-0.032391946680320784,0.002148972256335478,0.2853828137934298,0.9578636611229416,0.0,0.0,0.0,0.0,0.0,0.0,0.0,0.0,0.0,0.0,0.0,0.0,0.0,0.0,0.0,0.0,0.0,0.0,0.0,0.0,0.0,0.0,0.0,0.0,0.0,0.0,0.0,0.0,0.0,0.0,0.0,0.0,0.0,0.0,0.0,0.0,0.8586464703848457,-1.2194255629493052,0.007060972463130869,-0.015339886057892058,-0.0010342701317374008,0.25962025115618054,0.0,0.0,0.0,0.0,0.0,0.0,0.0,0.0,0.0,0.0,0.0,0.0,0.0,0.0,0.0,0.0,0.0,0.0,0.0,0.0,0.0,0.0,0.0,0.0,0.0,0.0,0.0,0.0,0.0,0.0,0.0,0.0,0.0,0.0,0.0,0.0
11502000000,225,11502000000,world,bluerov2/base_link,-10.615959963402226,-5.793814659526899,-95.01404664886633,-0.03279495838150227,0.002031467826984985,0.29170987303472684,0.9559423172018733,0.0,0.0,0.0,0.0,0.0,0.0,0.0,0.0,0.0,0.0,0.0,0.0,0.0,0.0,0.0,0.0,0.0,0.0,0.0,0.0,0.0,0.0,0.0,0.0,0.0,0.0,0.0,0.0,0.0,0.0,0.0,0.0,0.0,0.0,0.0,0.0,0.8498104155753052,-1.2291738906491327,-0.00308232841960901,-0.017195200035490462,-0.0007144826536133837,0.26906321408849354,0.0,0.0,0.0,0.0,0.0,0.0,0.0,0.0,0.0,0.0,0.0,0.0,0.0,0.0,0.0,0.0,0.0,0.0,0.0,0.0,0.0,0.0,0.0,0.0,0.0,0.0,0.0,0.0,0.0,0.0,0.0,0.0,0.0,0.0,0.0,0.0
11552000000,226,11552000000,world,bluerov2/base_link,-10.573612042544909,-5.855563542532963,-95.01443331602377,-0.03325508399458774,0.001924173698956473,0.2982381927141322,0.9539100467815073,0.0,0.0,0.0,0.0,0.0,0.0,0.0,0.0,0.0,0.0,0.0,0.0,0.0,0.0,0.0,0.0,0.0,0.0,0.0,0.0,0.0,0.0,0.0,0.0,0.0,0.0,0.0,0.0,0.0,0.0,0.0,0.0,0.0,0.0,0.0,0.0,0.8449611465592879,-1.240711943991461,-0.012069635027861866,-0.01918772051665253,-0.0006547707463733779,0.27705156763806577,0.0,0.0,0.0,0.0,0.0,0.0,0.0,0.0,0.0,0.0,0.0,0.0,0.0,0.0,0.0,0.0,0.0,0.0,0.0,0.0,0.0,0.0,0.0,0.0,0.0,0.0,0.0,0.0,0.0,0.0,0.0,0.0,0.0,0.0,0.0,0.0
11602000000,227,11602000000,world,bluerov2/base_link,-10.531441747575105,-5.917985993194578,-95.01525983282363,-0.03374240261071531,0.0018204313572846933,0.30488833620984446,0.9517884422175563,0.0,0.0,0.0,0.0,0.0,0.0,0.0,0.0,0.0,0.0,0.0,0.0,0.0,0.0,0.0,0.0,0.0,0.0,0.0,0.0,0.0,0.0,0.0,0.0,0.0,0.0,0.0,0.0,0.0,0.0,0.0,0.0,0.0,0.0,0.0,0.0,0.8422659077121564,-1.2557487562622018,-0.02132313714105067,-0.019613831868913464,-0.0006130002166367205,0.28107460744548374,0.0,0.0,0.0,0.0,0.0,0.0,0.0,0.0,0.0,0.0,0.0,0.0,0.0,0.0,0.0,0.0,0.0,0.0,0.0,0.0,0.0,0.0,0.0,0.0,0.0,0.0,0.0,0.0,0.0,0.0,0.0,0.0,0.0,0.0,0.0,0.0
11650000000,228,11652000000,world,bluerov2/base_link,-10.48939115623556,-5.981096022448656,-95.0166171127148,-0.034222220259249425,0.0017227537059760695,0.31160536151756335,0.9495935817146747,0.0,0.0,0.0,0.0,0.0,0.0,0.0,0.0,0.0,0.0,0.0,0.0,0.0,0.0,0.0,0.0,0.0,0.0,0.0,0.0,0.0,0.0,0.0,0.0,0.0,0.0,0.0,0.0,0.0,0.0,0.0,0.0,0.0,0.0,0.0,0.0,0.8396351304702029,-1.2663424571935218,-0.03344772503853676,-0.01904301256606559,0.00028813815924867096,0.2842468365012962,0.0,0.0,0.0,0.0,0.0,0.0,0.0,0.0,0.0,0.0,0.0,0.0,0.0,0.0,0.0,0.0,0.0,0.0,0.0,0.0,0.0,0.0,0.0,0.0,0.0,0.0,0.0,0.0,0.0,0.0,0.0,0.0,0.0,0.0,0.0,0.0
11702000000,229,11702000000,world,bluerov2/base_link,-10.44754914924692,-6.044564465377533,-95.01862804477284,-0.03468994156696249,0.0016384187226464798,0.318360650291357,0.9473333203705201,0.0,0.0,0.0,0.0,0.0,0.0,0.0,0.0,0.0,0.0,0.0,0.0,0.0,0.0,0.0,0.0,0.0,0.0,0.0,0.0,0.0,0.0,0.0,0.0,0.0,0.0,0.0,0.0,0.0,0.0,0.0,0.0,0.0,0.0,0.0,0.0,0.8339973881631905,-1.2727264827658806,-0.04692994497763883,-0.019263096902599412,0.00048509368714915943,0.2848735091064548,0.0,0.0,0.0,0.0,0.0,0.0,0.0,0.0,0.0,0.0,0.0,0.0,0.0,0.0,0.0,0.0,0.0,0.0,0.0,0.0,0.0,0.0,0.0,0.0,0.0,0.0,0.0,0.0,0.0,0.0,0.0,0.0,0.0,0.0,0.0,0.0
11750000000,230,11752000000,world,bluerov2/base_link,-10.406017109270289,-6.1084572706686995,-95.02134902599035,-0.03514157573671184,0.0015568603652480076,0.3250478514317693,0.9450431419359302,0.0,0.0,0.0,0.0,0.0,0.0,0.0,0.0,0.0,0.0,0.0,0.0,0.0,0.0,0.0,0.0,0.0,0.0,0.0,0.0,0.0,0.0,0.0,0.0,0.0,0.0,0.0,0.0,0.0,0.0,0.0,0.0,0.0,0.0,0.0,0.0,0.8269354764119593,-1.28258532526945,-0.06108883736342279,-0.018588297550049135,0.00047373479329340315,0.27960048501807044,0.0,0.0,0.0,0.0,0.0,0.0,0.0,0.0,0.0,0.0,0.0,0.0,0.0,0.0,0.0,0.0,0.0,0.0,0.0,0.0,0.0,0.0,0.0,0.0,0.0,0.0,0.0,0.0,0.0,0.0,0.0,0.0,0.0,0.0,0.0,0.0
11802000000,231,11802000000,world,bluerov2/base_link,-10.364939966230818,-6.172874581625503,-95.02477669277658,-0.03557918912408998,0.0014679381618212864,0.3315201677014594,0.9427758720215647,0.0,0.0,0.0,0.0,0.0,0.0,0.0,0.0,0.0,0.0,0.0,0.0,0.0,0.0,0.0,0.0,0.0,0.0,0.0,0.0,0.0,0.0,0.0,0.0,0.0,0.0,0.0,0.0,0.0,0.0,0.0,0.0,0.0,0.0,0.0,0.0,0.8162400765027651,-1.293648616373353,-0.07496835180523195,-0.01857690809174277,-0.000457828909362642,0.2692978297892902,0.0,0.0,0.0,0.0,0.0,0.0,0.0,0.0,0.0,0.0,0.0,0.0,0.0,0.0,0.0,0.0,0.0,0.0,0.0,0.0,0.0,0.0,0.0,0.0,0.0,0.0,0.0,0.0,0.0,0.0,0.0,0.0,0.0,0.0,0.0,0.0
11850000000,232,11852000000,world,bluerov2/base_link,-10.324364005479117,-6.237840624783136,-95.02883660075057,-0.036053255949481416,0.001370265994825302,0.33773286950835746,0.9405502612620953,0.0,0.0,0.0,0.0,0.0,0.0,0.0,0.0,0.0,0.0,0.0,0.0,0.0,0.0,0.0,0.0,0.0,0.0,0.0,0.0,0.0,0.0,0.0,0.0,0.0,0.0,0.0,0.0,0.0,0.0,0.0,0.0,0.0,0.0,0.0,0.0,0.806652400781003,-1.304542901202269,-0.08644130215345347,-0.02019480112983598,-0.001728831364302942,0.2581654212284839,0.0,0.0,0.0,0.0,0.0,0.0,0.0,0.0,0.0,0.0,0.0,0.0,0.0,0.0,0.0,0.0,0.0,0.0,0.0,0.0,0.0,0.0,0.0,0.0,0.0,0.0,0.0,0.0,0.0,0.0,0.0,0.0,0.0,0.0,0.0,0.0
11902000000,233,11902000000,world,bluerov2/base_link,-10.284315091072639,-6.303314043097599,-95.03343072704244,-0.03657544838752484,0.0012644616230984213,0.343641878851107,0.9383873916521558,0.0,0.0,0.0,0.0,0.0,0.0,0.0,0.0,0.0,0.0,0.0,0.0,0.0,0.0,0.0,0.0,0.0,0.0,0.0,0.0,0.0,0.0,0.0,0.0,0.0,0.0,0.0,0.0,0.0,0.0,0.0,0.0,0.0,0.0,0.0,0.0,0.7955470770238293,-1.3139426198334816,-0.09684349795261842,-0.02182209061508498,-0.0030568927226553994,0.24583106130368773,0.0,0.0,0.0,0.0,0.0,0.0,0.0,0.0,0.0,0.0,0.0,0.0,0.0,0.0,0.0,0.0,0.0,0.0,0.0,0.0,0.0,0.0,0.0,0.0,0.0,0.0,0.0,0.0,0.0,0.0,0.0,0.0,0.0,0.0,0.0,0.0
11952000000,234,11952000000,world,bluerov2/base_link,-10.244811727614298,-6.369203739427016,-95.03851149860375,-0.03715033181385232,0.0011551224800271822,0.3492683158288003,0.9362852995194841,0.0,0.0,0.0,0.0,0.0,0.0,0.0,0.0,0.0,0.0,0.0,0.0,0.0,0.0,0.0,0.0,0.0,0.0,0.0,0.0,0.0,0.0,0.0,0.0,0.0,0.0,0.0,0.0,0.0,0.0,0.0,0.0,0.0,0.0,0.0,0.0,0.7860474945111866,-1.3207947710447394,-0.10551489970648052,-0.023814049998561224,-0.004001025565593568,0.23585682434458916,0.0,0.0,0.0,0.0,0.0,0.0,0.0,0.0,0.0,0.0,0.0,0.0,0.0,0.0,0.0,0.0,0.0,0.0,0.0,0.0,0.0,0.0,0.0,0.0,0.0,0.0,0.0,0.0,0.0,0.0,0.0,0.0,0.0,0.0,0.0,0.0
12002000000,235,12002000000,world,bluerov2/base_link,-10.205668593895693,-6.435354367198685,-95.04396024652011,-0.03777869021163005,0.0010572426325899365,0.35469211121458366,0.9342190102144418,0.0,0.0,0.0,0.0,0.0,0.0,0.0,0.0,0.0,0.0,0.0,0.0,0.0,0.0,0.0,0.0,0.0,0.0,0.0,0.0,0.0,0.0,0.0,0.0,0.0,0.0,0.0,0.0,0.0,0.0,0.0,0.0,0.0,0.0,0.0,0.0,0.7809565556319241,-1.3249873703884516,-0.11159977072981618,-0.026342615606739173,-0.004536498641982137,0.22933171486734014,0.0,0.0,0.0,0.0,0.0,0.0,0.0,0.0,0.0,0.0,0.0,0.0,0.0,0.0,0.0,0.0,0.0,0.0,0.0,0.0,0.0,0.0,0.0,0.0,0.0,0.0,0.0,0.0,0.0,0.0,0.0,0.0,0.0,0.0,0.0,0.0
12052000000,236,12052000000,world,bluerov2/base_link,-10.166697318812746,-6.501641688635415,-95.04963110487007,-0.03848136270260613,0.0009768124346512808,0.35998295993997037,0.9321644163530786,0.0,0.0,0.0,0.0,0.0,0.0,0.0,0.0,0.0,0.0,0.0,0.0,0.0,0.0,0.0,0.0,0.0,0.0,0.0,0.0,0.0,0.0,0.0,0.0,0.0,0.0,0.0,0.0,0.0,0.0,0.0,0.0,0.0,0.0,0.0,0.0,0.7777858862713622,-1.3257185729698366,-0.11511825777344245,-0.028864865425541907,-0.005004177150994772,0.224850308651284,0.0,0.0,0.0,0.0,0.0,0.0,0.0,0.0,0.0,0.0,0.0,0.0,0.0,0.0,0.0,0.0,0.0,0.0,0.0,0.0,0.0,0.0,0.0,0.0,0.0,0.0,0.0,0.0,0.0,0.0,0.0,0.0,0.0,0.0,0.0,0.0
12102000000,237,12102000000,world,bluerov2/base_link,-10.127902653532919,-6.567911388599949,-95.05548193595881,-0.03920248671114998,0.000910007630355622,0.36515202978535594,0.9301216759464371,0.0,0.0,0.0,0.0,0.0,0.0,0.0,0.0,0.0,0.0,0.0,0.0,0.0,0.0,0.0,0.0,0.0,0.0,0.0,0.0,0.0,0.0,0.0,0.0,0.0,0.0,0.0,0.0,0.0,0.0,0.0,0.0,0.0,0.0,0.0,0.0,0.7739551076257485,-1.3254446275657292,-0.11862416100220977,-0.028712086195879914,-0.004789279426810443,0.21964058988079468,0.0,0.0,0.0,0.0,0.0,0.0,0.0,0.0,0.0,0.0,0.0,0.0,0.0,0.0,0.0,0.0,0.0,0.0,0.0,0.0,0.0,0.0,0.0,0.0,0.0,0.0,0.0,0.0,0.0,0.0,0.0,0.0,0.0,0.0,0.0,0.0
12152000000,238,12152000000,world,bluerov2/base_link,-10.08940567656757,-6.63424468728704,-95.06150969699247,-0.03988703661958851,0.0008348982282005244,0.37013486481236363,0.9281209560746861,0.0,0.0,0.0,0.0,0.0,0.0,0.0,0.0,0.0,0.0,0.0,0.0,0.0,0.0,0.0,0.0,0.0,0.0,0.0,0.0,0.0,0.0,0.0,0.0,0.0,0.0,0.0,0.0,0.0,0.0,0.0,0.0,0.0,0.0,0.0,0.0,0.7659960762485812,-1.3281050058365884,-0.12180474171826615,-0.02609610290297893,-0.005039331919553066,0.20957799464387322,0.0,0.0,0.0,0.0,0.0,0.0,0.0,0.0,0.0,0.0,0.0,0.0,0.0,0.0,0.0,0.0,0.0,0.0,0.0,0.0,0.0,0.0,0.0,0.0,0.0,0.0,0.0,0.0,0.0,0.0,0.0,0.0,0.0,0.0,0.0,0.0
12202000000,239,12202000000,world,bluerov2/base_link,-10.0512915521295,-6.700815108420868,-95.06757236049408,-0.04053231874922975,0.000740849870917747,0.37483055893993394,0.9262065829840858,0.0,0.0,0.0,0.0,0.0,0.0,0.0,0.0,0.0,0.0,0.0,0.0,0.0,0.0,0.0,0.0,0.0,0.0,0.0,0.0,0.0,0.0,0.0,0.0,0.0,0.0,0.0,0.0,0.0,0.0,0.0,0.0,0.0,0.0,0.0,0.0,0.759524163503427,-1.3353444574396207,-0.12020648286359896,-0.024936402880906802,-0.005773260466662702,0.1964953108617974,0.0,0.0,0.0,0.0,0.0,0.0,0.0,0.0,0.0,0.0,0.0,0.0,0.0,0.0,0.0,0.0,0.0,0.0,0.0,0.0,0.0,0.0,0.0,0.0,0.0,0.0,0.0,0.0,0.0,0.0,0.0,0.0,0.0,0.0,0.0,0.0
12252000000,240,12252000000,world,bluerov2/base_link,-10.013379038724278,-6.767848734041358,-95.07347263033166,-0.04115514781821996,0.0006455960001523482,0.37921348962195844,0.9243932963314924,0.0,0.0,0.0,0.0,0.0,0.0,0.0,0.0,0.0,0.0,0.0,0.0,0.0,0.0,0.0,0.0,0.0,0.0,0.0,0.0,0.0,0.0,0.0,0.0,0.0,0.0,0.0,0.0,0.0,0.0,0.0,0.0,0.0,0.0,0.0,0.0,0.7562323530362979,-1.3451560377927767,-0.11567137102721475,-0.02415918385471332,-0.0060377201868867985,0.18342902720377818,0.0,0.0,0.0,0.0,0.0,0.0,0.0,0.0,0.0,0.0,0.0,0.0,0.0,0.0,0.0,0.0,0.0,0.0,0.0,0.0,0.0,0.0,0.0,0.0,0.0,0.0,0.0,0.0,0.0,0.0,0.0,0.0,0.0,0.0,0.0,0.0
12302000000,241,12302000000,world,bluerov2/base_link,-9.97576200233503,-6.835331222828283,-95.0790979151796,-0.04178873649056462,0.0005303944862703012,0.38327973372116286,0.9226863312647725,0.0,0.0,0.0,0.0,0.0,0.0,0.0,0.0,0.0,0.0,0.0,0.0,0.0,0.0,0.0,0.0,0.0,0.0,0.0,0.0,0.0,0.0,0.0,0.0,0.0,0.0,0.0,0.0,0.0,0.0,0.0,0.0,0.0,0.0,0.0,0.0,0.7501770240727821,-1.3545180776754338,-0.10893223718142563,-0.02489302825181103,-0.007816216697382385,0.17036734591745475,0.0,0.0,0.0,0.0,0.0,0.0,0.0,0.0,0.0,0.0,0.0,0.0,0.0,0.0,0.0,0.0,0.0,0.0,0.0,0.0,0.0,0.0,0.0,0.0,0.0,0.0,0.0,0.0,0.0,0.0,0.0,0.0,0.0,0.0,0.0,0.0
12352000000,242,12352000000,world,bluerov2/base_link,-9.938264501314322,-6.903319569520295,-95.08433175363892,-0.04243774405844687,0.00042023588405500626,0.3870747759482409,0.9210711042615822,0.0,0.0,0.0,0.0,0.0,0.0,0.0,0.0,0.0,0.0,0.0,0.0,0.0,0.0,0.0,0.0,0.0,0.0,0.0,0.0,0.0,0.0,0.0,0.0,0.0,0.0,0.0,0.0,0.0,0.0,0.0,0.0,0.0,0.0,0.0,0.0,0.7505209357564042,-1.3644937382575502,-0.10005307764397078,-0.024743226526131486,-0.0073346029742478135,0.16047328928880764,0.0,0.0,0.0,0.0,0.0,0.0,0.0,0.0,0.0,0.0,0.0,0.0,0.0,0.0,0.0,0.0,0.0,0.0,0.0,0.0,0.0,0.0,0.0,0.0,0.0,0.0,0.0,0.0,0.0,0.0,0.0,0.0,0.0,0.0,0.0,0.0
12402000000,243,12402000000,world,bluerov2/base_link,-9.900731695083591,-6.9717683844070795,-95.08909254783462,-0.04305558383794747,0.0003214492209699284,0.3906567830085723,0.9195288963703995,0.0,0.0,0.0,0.0,0.0,0.0,0.0,0.0,0.0,0.0,0.0,0.0,0.0,0.0,0.0,0.0,0.0,0.0,0.0,0.0,0.0,0.0,0.0,0.0,0.0,0.0,0.0,0.0,0.0,0.0,0.0,0.0,0.0,0.0,0.0,0.0,0.7496573982407794,-1.3724805597780052,-0.0910671458856151,-0.022949226861950063,-0.007248795923851218,0.15213720503329728,0.0,0.0,0.0,0.0,0.0,0.0,0.0,0.0,0.0,0.0,0.0,0.0,0.0,0.0,0.0,0.0,0.0,0.0,0.0,0.0,0.0,0.0,0.0,0.0,0.0,0.0,0.0,0.0,0.0,0.0,0.0,0.0,0.0,0.0,0.0,0.0
12452000000,244,12452000000,world,bluerov2/base_link,-9.86325009500329,-7.040573272055671,-95.09337825693751,-0.04364020769024176,0.00021532167910109974,0.3940595506644807,0.9180482320877452,0.0,0.0,0.0,0.0,0.0,0.0,0.0,0.0,0.0,0.0,0.0,0.0,0.0,0.0,0.0,0.0,0.0,0.0,0.0,0.0,0.0,0.0,0.0,0.0,0.0,0.0,0.0,0.0,0.0,0.0,0.0,0.0,0.0,0.0,0.0,0.0,0.7502915151655867,-1.379014444132359,-0.08031498528506839,-0.02191906880819687,-0.006866043578118663,0.14559678218374192,0.0,0.0,0.0,0.0,0.0,0.0,0.0,0.0,0.0,0.0,0.0,0.0,0.0,0.0,0.0,0.0,0.0,0.0,0.0,0.0,0.0,0.0,0.0,0.0,0.0,0.0,0.0,0.0,0.0,0.0,0.0,0.0,0.0,0.0,0.0,0.0
12502000000,245,12502000000,world,bluerov2/base_link,-9.825796489815833,-7.109612145213221,-95.09719762096469,-0.04416388306350821,0.00011169843547452207,0.3973335715246191,0.9166109163083879,0.0,0.0,0.0,0.0,0.0,0.0,0.0,0.0,0.0,0.0,0.0,0.0,0.0,0.0,0.0,0.0,0.0,0.0,0.0,0.0,0.0,0.0,0.0,0.0,0.0,0.0,0.0,0.0,0.0,0.0,0.0,0.0,0.0,0.0,0.0,0.0,0.7473150854210017,-1.3821627862945767,-0.07358111459008186,-0.01805261886383917,-0.00573216074319848,0.14090555688195544,0.0,0.0,0.0,0.0,0.0,0.0,0.0,0.0,0.0,0.0,0.0,0.0,0.0,0.0,0.0,0.0,0.0,0.0,0.0,0.0,0.0,0.0,0.0,0.0,0.0,0.0,0.0,0.0,0.0,0.0,0.0,0.0,0.0,0.0,0.0,0.0
12552000000,246,12552000000,world,bluerov2/base_link,-9.788539481080582,-7.178758080812061,-95.10077008404342,-0.04456302003196623,6.142298043318767e-06,0.40051628693935076,0.9152053546085811,0.0,0.0,0.0,0.0,0.0,0.0,0.0,0.0,0.0,0.0,0.0,0.0,0.0,0.0,0.0,0.0,0.0,0.0,0.0,0.0,0.0,0.0,0.0,0.0,0.0,0.0,0.0,0.0,0.0,0.0,0.0,0.0,0.0,0.0,0.0,0.0,0.7427630407822859,-1.3826641074937547,-0.06919518271327327,-0.013391071550826326,-0.003640604014150674,0.13820474526111878,0.0,0.0,0.0,0.0,0.0,0.0,0.0,0.0,0.0,0.0,0.0,0.0,0.0,0.0,0.0,0.0,0.0,0.0,0.0,0.0,0.0,0.0,0.0,0.0,0.0,0.0,0.0,0.0,0.0,0.0,0.0,0.0,0.0,0.0,0.0,0.0
