%time,field.header.seq,field.header.stamp,field.header.frame_id,field.child_frame_id,field.pose.pose.position.x,field.pose.pose.position.y,field.pose.pose.position.z,field.pose.pose.orientation.x,field.pose.pose.orientation.y,field.pose.pose.orientation.z,field.pose.pose.orientation.w,field.pose.covariance0,field.pose.covariance1,field.pose.covariance2,field.pose.covariance3,field.pose.covariance4,field.pose.covariance5,field.pose.covariance6,field.pose.covariance7,field.pose.covariance8,field.pose.covariance9,field.pose.covariance10,field.pose.covariance11,field.pose.covariance12,field.pose.covariance13,field.pose.covariance14,field.pose.covariance15,field.pose.covariance16,field.pose.covariance17,field.pose.covariance18,field.pose.covariance19,field.pose.covariance20,field.pose.covariance21,field.pose.covariance22,field.pose.covariance23,field.pose.covariance24,field.pose.covariance25,field.pose.covariance26,field.pose.covariance27,field.pose.covariance28,field.pose.covariance29,field.pose.covariance30,field.pose.covariance31,field.pose.covariance32,field.pose.covariance33,field.pose.covariance34,field.pose.covariance35,field.twist.twist.linear.x,field.twist.twist.linear.y,field.twist.twist.linear.z,field.twist.twist.angular.x,field.twist.twist.angular.y,field.twist.twist.angular.z,field.twist.covariance0,field.twist.covariance1,field.twist.covariance2,field.twist.covariance3,field.twist.covariance4,field.twist.covariance5,field.twist.covariance6,field.twist.covariance7,field.twist.covariance8,field.twist.covariance9,field.twist.covariance10,field.twist.covariance11,field.twist.covariance12,field.twist.covariance13,field.twist.covariance14,field.twist.covariance15,field.twist.covariance16,field.twist.covariance17,field.twist.covariance18,field.twist.covariance19,field.twist.covariance20,field.twist.covariance21,field.twist.covariance22,field.twist.covariance23,field.twist.covariance24,field.twist.covariance25,field.twist.covariance26,field.twist.covariance27,field.twist.covariance28,field.twist.covariance29,field.twist.covariance30,field.twist.covariance31,field.twist.covariance32,field.twist.covariance33,field.twist.covariance34,field.twist.covariance35
11118000000,218,11118000000,world,bluerov2/base_link,0.8862399692767235,20.367472201263574,-94.78931352377067,-4.0708329068783626e-05,-0.00019060858967795755,-0.9999739907089994,-0.007209709891217868,0.0,0.0,0.0,0.0,0.0,0.0,0.0,0.0,0.0,0.0,0.0,0.0,0.0,0.0,0.0,0.0,0.0,0.0,0.0,0.0,0.0,0.0,0.0,0.0,0.0,0.0,0.0,0.0,0.0,0.0,0.0,0.0,0.0,0.0,0.0,0.0,-1.0236207949810607,-0.011898347883260772,-0.002942656544971859,0.0029809799400273983,-0.0012089667386111487,0.0032988348065144603,0.0,0.0,0.0,0.0,0.0,0.0,0.0,0.0,0.0,0.0,0.0,0.0,0.0,0.0,0.0,0.0,0.0,0.0,0.0,0.0,0.0,0.0,0.0,0.0,0.0,0.0,0.0,0.0,0.0,0.0,0.0,0.0,0.0,0.0,0.0,0.0
11168000000,219,11168000000,world,bluerov2/base_link,0.835125440189179,20.367096788999344,-94.789296907161,8.358861644400648e-05,-0.0002115770329954104,-0.9999761627753169,-0.006900878875579712,0.0,0.0,0.0,0.0,0.0,0.0,0.0,0.0,0.0,0.0,0.0,0.0,0.0,0.0,0.0,0.0,0.0,0.0,0.0,0.0,0.0,0.0,0.0,0.0,0.0,0.0,0.0,0.0,0.0,0.0,0.0,0.0,0.0,0.0,0.0,0.0,-1.0294855591483802,-0.009913478439333089,-0.005456830652091123,-0.0045446183603008354,0.008473478922950523,0.005759262433485928,0.0,0.0,0.0,0.0,0.0,0.0,0.0,0.0,0.0,0.0,0.0,0.0,0.0,0.0,0.0,0.0,0.0,0.0,0.0,0.0,0.0,0.0,0.0,0.0,0.0,0.0,0.0,0.0,0.0,0.0,0.0,0.0,0.0,0.0,0.0,0.0
11218000000,220,11218000000,world,bluerov2/base_link,0.7838427117274904,20.36675172897207,-94.78930806805376,0.00010369869972189667,-0.00030294903663322326,-0.9999776359889483,-0.00668019389055382,0.0,0.0,0.0,0.0,0.0,0.0,0.0,0.0,0.0,0.0,0.0,0.0,0.0,0.0,0.0,0.0,0.0,0.0,0.0,0.0,0.0,0.0,0.0,0.0,0.0,0.0,0.0,0.0,0.0,0.0,0.0,0.0,0.0,0.0,0.0,0.0,-1.020887768602701,-0.00490851606367517,0.005999932900597911,0.0035837628191414555,-0.01165505167904234,0.010339420819348761,0.0,0.0,0.0,0.0,0.0,0.0,0.0,0.0,0.0,0.0,0.0,0.0,0.0,0.0,0.0,0.0,0.0,0.0,0.0,0.0,0.0,0.0,0.0,0.0,0.0,0.0,0.0,0.0,0.0,0.0,0.0,0.0,0.0,0.0,0.0,0.0
11268000000,221,11268000000,world,bluerov2/base_link,0.7323320554591551,20.366284229979268,-94.78938893591439,-1.8502525495844332e-05,-0.0003369509501177104,-0.9999778898484627,-0.006641230001255522,0.0,0.0,0.0,0.0,0.0,0.0,0.0,0.0,0.0,0.0,0.0,0.0,0.0,0.0,0.0,0.0,0.0,0.0,0.0,0.0,0.0,0.0,0.0,0.0,0.0,0.0,0.0,0.0,0.0,0.0,0.0,0.0,0.0,0.0,0.0,0.0,-1.0418695901830042,-0.015965576089558165,-0.011590982192776194,-0.005733362786303928,0.017154646554472963,-0.006280819921210127,0.0,0.0,0.0,0.0,0.0,0.0,0.0,0.0,0.0,0.0,0.0,0.0,0.0,0.0,0.0,0.0,0.0,0.0,0.0,0.0,0.0,0.0,0.0,0.0,0.0,0.0,0.0,0.0,0.0,0.0,0.0,0.0,0.0,0.0,0.0,0.0
11318000000,222,11318000000,world,bluerov2/base_link,0.6807705171133972,20.36584086593904,-94.7893467265871,2.927800242862226e-05,-0.0001840972369196271,-0.9999778485255428,-0.006653398322105969,0.0,0.0,0.0,0.0,0.0,0.0,0.0,0.0,0.0,0.0,0.0,0.0,0.0,0.0,0.0,0.0,0.0,0.0,0.0,0.0,0.0,0.0,0.0,0.0,0.0,0.0,0.0,0.0,0.0,0.0,0.0,0.0,0.0,0.0,0.0,0.0,-1.0410306279340975,-0.014889829105266901,-0.0070504736838677634,-0.0007407364123522957,-0.005599223466713761,0.010641885600884013,0.0,0.0,0.0,0.0,0.0,0.0,0.0,0.0,0.0,0.0,0.0,0.0,0.0,0.0,0.0,0.0,0.0,0.0,0.0,0.0,0.0,0.0,0.0,0.0,0.0,0.0,0.0,0.0,0.0,0.0,0.0,0.0,0.0,0.0,0.0,0.0
11368000000,223,11368000000,world,bluerov2/base_link,0.6289678970353845,20.36547620757924,-94.78935464761076,-9.357900209751366e-06,-0.0002464867677431668,-0.9999789436957176,-0.006484699060105173,0.0,0.0,0.0,0.0,0.0,0.0,0.0,0.0,0.0,0.0,0.0,0.0,0.0,0.0,0.0,0.0,0.0,0.0,0.0,0.0,0.0,0.0,0.0,0.0,0.0,0.0,0.0,0.0,0.0,0.0,0.0,0.0,0.0,0.0,0.0,0.0,-1.0393787107789456,-0.006927571140971728,-0.00178226584083399,-0.005221943107494996,-0.010913348334342265,0.02162478816369215,0.0,0.0,0.0,0.0,0.0,0.0,0.0,0.0,0.0,0.0,0.0,0.0,0.0,0.0,0.0,0.0,0.0,0.0,0.0,0.0,0.0,0.0,0.0,0.0,0.0,0.0,0.0,0.0,0.0,0.0,0.0,0.0,0.0,0.0,0.0,0.0
11418000000,224,11418000000,world,bluerov2/base_link,0.5769649367136084,20.365251551392344,-94.78939317287922,-2.690802588853605e-05,-0.0003220195167297385,-0.9999804592350923,-0.0062431344181332355,0.0,0.0,0.0,0.0,0.0,0.0,0.0,0.0,0.0,0.0,0.0,0.0,0.0,0.0,0.0,0.0,0.0,0.0,0.0,0.0,0.0,0.0,0.0,0.0,0.0,0.0,0.0,0.0,0.0,0.0,0.0,0.0,0.0,0.0,0.0,0.0,-1.0493915876806874,-0.01391279655425957,-0.008250609860736616,0.00011791501153401591,0.002491752458217135,9.389928207528232e-05,0.0,0.0,0.0,0.0,0.0,0.0,0.0,0.0,0.0,0.0,0.0,0.0,0.0,0.0,0.0,0.0,0.0,0.0,0.0,0.0,0.0,0.0,0.0,0.0,0.0,0.0,0.0,0.0,0.0,0.0,0.0,0.0,0.0,0.0,0.0,0.0
11468000000,225,11468000000,world,bluerov2/base_link,0.5249025904162312,20.364823591078768,-94.78930785235829,3.9482735103825534e-05,-0.0002202502942633096,-0.9999806413446738,-0.006218268795768233,0.0,0.0,0.0,0.0,0.0,0.0,0.0,0.0,0.0,0.0,0.0,0.0,0.0,0.0,0.0,0.0,0.0,0.0,0.0,0.0,0.0,0.0,0.0,0.0,0.0,0.0,0.0,0.0,0.0,0.0,0.0,0.0,0.0,0.0,0.0,0.0,-1.0429257118214608,-0.01198912277990103,0.0014380365637970027,0.008516032646409922,0.01101047598913078,-0.016860584874375865,0.0,0.0,0.0,0.0,0.0,0.0,0.0,0.0,0.0,0.0,0.0,0.0,0.0,0.0,0.0,0.0,0.0,0.0,0.0,0.0,0.0,0.0,0.0,0.0,0.0,0.0,0.0,0.0,0.0,0.0,0.0,0.0,0.0,0.0,0.0,0.0
11517000000,226,11518000000,world,bluerov2/base_link,0.47262798230300446,20.364315613942654,-94.7892970751014,-1.2314478766713153e-05,-0.00011246563327485581,-0.9999800347896941,-0.006318007742724911,0.0,0.0,0.0,0.0,0.0,0.0,0.0,0.0,0.0,0.0,0.0,0.0,0.0,0.0,0.0,0.0,0.0,0.0,0.0,0.0,0.0,0.0,0.0,0.0,0.0,0.0,0.0,0.0,0.0,0.0,0.0,0.0,0.0,0.0,0.0,0.0,-1.0487336705430914,-0.010598242678698114,-0.0017520587880757318,-0.00035724088414019377,0.010521323896867541,-0.007556055801768905,0.0,0.0,0.0,0.0,0.0,0.0,0.0,0.0,0.0,0.0,0.0,0.0,0.0,0.0,0.0,0.0,0.0,0.0,0.0,0.0,0.0,0.0,0.0,0.0,0.0,0.0,0.0,0.0,0.0,0.0,0.0,0.0,0.0,0.0,0.0,0.0
11568000000,227,11568000000,world,bluerov2/base_link,0.4201697460247593,20.36387440288091,-94.78933991816336,3.9622201780470074e-05,-0.0002021927593356663,-0.9999810705344261,-0.006149481359627633,0.0,0.0,0.0,0.0,0.0,0.0,0.0,0.0,0.0,0.0,0.0,0.0,0.0,0.0,0.0,0.0,0.0,0.0,0.0,0.0,0.0,0.0,0.0,0.0,0.0,0.0,0.0,0.0,0.0,0.0,0.0,0.0,0.0,0.0,0.0,0.0,-1.0537847775079627,-0.011363441380828803,-0.004406219121159204,-0.007301998917917559,-0.009292619088881538,0.017558692775940524,0.0,0.0,0.0,0.0,0.0,0.0,0.0,0.0,0.0,0.0,0.0,0.0,0.0,0.0,0.0,0.0,0.0,0.0,0.0,0.0,0.0,0.0,0.0,0.0,0.0,0.0,0.0,0.0,0.0,0.0,0.0,0.0,0.0,0.0,0.0,0.0
11618000000,228,11618000000,world,bluerov2/base_link,0.36762455977921543,20.363532181910585,-94.78937422136036,4.21603553615211e-05,-0.0003457930077629636,-0.9999823256454516,-0.0059352376880835896,0.0,0.0,0.0,0.0,0.0,0.0,0.0,0.0,0.0,0.0,0.0,0.0,0.0,0.0,0.0,0.0,0.0,0.0,0.0,0.0,0.0,0.0,0.0,0.0,0.0,0.0,0.0,0.0,0.0,0.0,0.0,0.0,0.0,0.0,0.0,0.0,-1.0548749761554685,-0.011192117401640903,-0.0037740476097075652,-0.0037901415153239193,-0.008479189341859983,0.011308519582416245,0.0,0.0,0.0,0.0,0.0,0.0,0.0,0.0,0.0,0.0,0.0,0.0,0.0,0.0,0.0,0.0,0.0,0.0,0.0,0.0,0.0,0.0,0.0,0.0,0.0,0.0,0.0,0.0,0.0,0.0,0.0,0.0,0.0,0.0,0.0,0.0
11668000000,229,11668000000,world,bluerov2/base_link,0.31509586134219103,20.36305953114073,-94.78931764053183,-2.110285943752925e-05,-0.0001707663264500731,-0.9999809161494169,-0.006175575317668521,0.0,0.0,0.0,0.0,0.0,0.0,0.0,0.0,0.0,0.0,0.0,0.0,0.0,0.0,0.0,0.0,0.0,0.0,0.0,0.0,0.0,0.0,0.0,0.0,0.0,0.0,0.0,0.0,0.0,0.0,0.0,0.0,0.0,0.0,0.0,0.0,-1.051345504338818,-0.007130599690944664,0.0007726663515644716,0.003483693471925403,-0.0034361876398514846,-0.0015924816916686746,0.0,0.0,0.0,0.0,0.0,0.0,0.0,0.0,0.0,0.0,0.0,0.0,0.0,0.0,0.0,0.0,0.0,0.0,0.0,0.0,0.0,0.0,0.0,0.0,0.0,0.0,0.0,0.0,0.0,0.0,0.0,0.0,0.0,0.0,0.0,0.0
11718000000,230,11718000000,world,bluerov2/base_link,0.2624988519911813,20.362686660112214,-94.78929466257428,0.00010219536233472873,-0.00021109567210004233,-0.9999817393551422,-0.006038704413164661,0.0,0.0,0.0,0.0,0.0,0.0,0.0,0.0,0.0,0.0,0.0,0.0,0.0,0.0,0.0,0.0,0.0,0.0,0.0,0.0,0.0,0.0,0.0,0.0,0.0,0.0,0.0,0.0,0.0,0.0,0.0,0.0,0.0,0.0,0.0,0.0,-1.0582149616090453,-0.011154249099014898,-0.005523305733801553,-0.005358335847661089,0.007668098444408088,-0.0009655581077174714,0.0,0.0,0.0,0.0,0.0,0.0,0.0,0.0,0.0,0.0,0.0,0.0,0.0,0.0,0.0,0.0,0.0,0.0,0.0,0.0,0.0,0.0,0.0,0.0,0.0,0.0,0.0,0.0,0.0,0.0,0.0,0.0,0.0,0.0,0.0,0.0
11768000000,231,11768000000,world,bluerov2/base_link,0.20975290470252675,20.362245134293016,-94.7893936648329,3.1696143068315764e-06,-0.0002956933810646999,-0.9999814566609242,-0.006082671261399726,0.0,0.0,0.0,0.0,0.0,0.0,0.0,0.0,0.0,0.0,0.0,0.0,0.0,0.0,0.0,0.0,0.0,0.0,0.0,0.0,0.0,0.0,0.0,0.0,0.0,0.0,0.0,0.0,0.0,0.0,0.0,0.0,0.0,0.0,0.0,0.0,-1.0605904186698611,-0.015019821626995005,-0.007746812895328359,0.0053636877598245486,0.004937173230011163,-0.011127520878184265,0.0,0.0,0.0,0.0,0.0,0.0,0.0,0.0,0.0,0.0,0.0,0.0,0.0,0.0,0.0,0.0,0.0,0.0,0.0,0.0,0.0,0.0,0.0,0.0,0.0,0.0,0.0,0.0,0.0,0.0,0.0,0.0,0.0,0.0,0.0,0.0
11818000000,232,11818000000,world,bluerov2/base_link,0.15719041857496546,20.361852062072746,-94.7893396736928,3.4431402632380625e-05,-0.00027679238202585007,-0.9999814994468265,-0.006076426954450033,0.0,0.0,0.0,0.0,0.0,0.0,0.0,0.0,0.0,0.0,0.0,0.0,0.0,0.0,0.0,0.0,0.0,0.0,0.0,0.0,0.0,0.0,0.0,0.0,0.0,0.0,0.0,0.0,0.0,0.0,0.0,0.0,0.0,0.0,0.0,0.0,-1.0463743576151587,-0.0027993078920611385,0.005561802209887741,-0.0021196200894764284,0.005048748877200532,-0.0010046069673908921,0.0,0.0,0.0,0.0,0.0,0.0,0.0,0.0,0.0,0.0,0.0,0.0,0.0,0.0,0.0,0.0,0.0,0.0,0.0,0.0,0.0,0.0,0.0,0.0,0.0,0.0,0.0,0.0,0.0,0.0,0.0,0.0,0.0,0.0,0.0,0.0
11868000000,233,11868000000,world,bluerov2/base_link,0.10462681703027284,20.36155115771343,-94.78931826238173,9.993850147274681e-05,-0.00031942880268799145,-0.9999825319622749,-0.00590116495736974,0.0,0.0,0.0,0.0,0.0,0.0,0.0,0.0,0.0,0.0,0.0,0.0,0.0,0.0,0.0,0.0,0.0,0.0,0.0,0.0,0.0,0.0,0.0,0.0,0.0,0.0,0.0,0.0,0.0,0.0,0.0,0.0,0.0,0.0,0.0,0.0,-1.0560606804208679,-0.011848988790151845,-0.004617070132123112,-0.0027106378671775165,0.002933150737935238,0.0046392120473995125,0.0,0.0,0.0,0.0,0.0,0.0,0.0,0.0,0.0,0.0,0.0,0.0,0.0,0.0,0.0,0.0,0.0,0.0,0.0,0.0,0.0,0.0,0.0,0.0,0.0,0.0,0.0,0.0,0.0,0.0,0.0,0.0,0.0,0.0,0.0,0.0
11918000000,234,11918000000,world,bluerov2/base_link,0.05203208991362178,20.361031032031136,-94.78934051042627,-2.0982711403687763e-05,-0.00018441960869282,-0.9999818232780125,-0.0060264967199567905,0.0,0.0,0.0,0.0,0.0,0.0,0.0,0.0,0.0,0.0,0.0,0.0,0.0,0.0,0.0,0.0,0.0,0.0,0.0,0.0,0.0,0.0,0.0,0.0,0.0,0.0,0.0,0.0,0.0,0.0,0.0,0.0,0.0,0.0,0.0,0.0,-1.0573182265658359,-0.017648192432406035,-0.005821466572851897,0.00715103756239285,0.0067291998247040645,-0.009648264587632243,0.0,0.0,0.0,0.0,0.0,0.0,0.0,0.0,0.0,0.0,0.0,0.0,0.0,0.0,0.0,0.0,0.0,0.0,0.0,0.0,0.0,0.0,0.0,0.0,0.0,0.0,0.0,0.0,0.0,0.0,0.0,0.0,0.0,0.0,0.0,0.0
11968000000,235,11968000000,world,bluerov2/base_link,-0.0005035594193836482,20.360615215211396,-94.78930837120076,1.184227953881166e-06,-5.908832332688652e-05,-0.9999820519809072,-0.005991011869622539,0.0,0.0,0.0,0.0,0.0,0.0,0.0,0.0,0.0,0.0,0.0,0.0,0.0,0.0,0.0,0.0,0.0,0.0,0.0,0.0,0.0,0.0,0.0,0.0,0.0,0.0,0.0,0.0,0.0,0.0,0.0,0.0,0.0,0.0,0.0,0.0,-1.0551418528631658,-0.009739082955243164,-0.004271361203421639,0.0010680575605041013,0.01181046912394839,-0.007826252458774247,0.0,0.0,0.0,0.0,0.0,0.0,0.0,0.0,0.0,0.0,0.0,0.0,0.0,0.0,0.0,0.0,0.0,0.0,0.0,0.0,0.0,0.0,0.0,0.0,0.0,0.0,0.0,0.0,0.0,0.0,0.0,0.0,0.0,0.0,0.0,0.0
12018000000,236,12018000000,world,bluerov2/base_link,-0.05303195686971426,20.360246896928462,-94.78933598987783,2.565955040064738e-06,-0.0001492113039987819,-0.9999824928679177,-0.005915377170342891,0.0,0.0,0.0,0.0,0.0,0.0,0.0,0.0,0.0,0.0,0.0,0.0,0.0,0.0,0.0,0.0,0.0,0.0,0.0,0.0,0.0,0.0,0.0,0.0,0.0,0.0,0.0,0.0,0.0,0.0,0.0,0.0,0.0,0.0,0.0,0.0,-1.0425724148668718,-0.001096593270520393,0.006617449019766755,-0.0060141038959543825,-0.00800555106377506,0.00714850982815322,0.0,0.0,0.0,0.0,0.0,0.0,0.0,0.0,0.0,0.0,0.0,0.0,0.0,0.0,0.0,0.0,0.0,0.0,0.0,0.0,0.0,0.0,0.0,0.0,0.0,0.0,0.0,0.0,0.0,0.0,0.0,0.0,0.0,0.0,0.0,0.0
12068000000,237,12068000000,world,bluerov2/base_link,-0.10544432514242315,20.359969558127,-94.78935360147133,3.7608590864757576e-05,-0.00036646998449836387,-0.9999832887143703,-0.005769452082885842,0.0,0.0,0.0,0.0,0.0,0.0,0.0,0.0,0.0,0.0,0.0,0.0,0.0,0.0,0.0,0.0,0.0,0.0,0.0,0.0,0.0,0.0,0.0,0.0,0.0,0.0,0.0,0.0,0.0,0.0,0.0,0.0,0.0,0.0,0.0,0.0,-1.0485185061077307,-0.005496910752414883,-0.0022102802847266713,-0.010091913551574612,5.551000432765054e-05,0.008570816816328451,0.0,0.0,0.0,0.0,0.0,0.0,0.0,0.0,0.0,0.0,0.0,0.0,0.0,0.0,0.0,0.0,0.0,0.0,0.0,0.0,0.0,0.0,0.0,0.0,0.0,0.0,0.0,0.0,0.0,0.0,0.0,0.0,0.0,0.0,0.0,0.0
12118000000,238,12118000000,world,bluerov2/base_link,-0.15761589647338559,20.359449902340483,-94.78931026659544,5.509233297957371e-05,-0.00015996616255567855,-0.9999821877249034,-0.005966205542694395,0.0,0.0,0.0,0.0,0.0,0.0,0.0,0.0,0.0,0.0,0.0,0.0,0.0,0.0,0.0,0.0,0.0,0.0,0.0,0.0,0.0,0.0,0.0,0.0,0.0,0.0,0.0,0.0,0.0,0.0,0.0,0.0,0.0,0.0,0.0,0.0,-1.03404376116524,-0.006140089718725951,0.008411572731989567,0.009606612111759612,0.0032897183564876563,-0.013276927841369471,0.0,0.0,0.0,0.0,0.0,0.0,0.0,0.0,0.0,0.0,0.0,0.0,0.0,0.0,0.0,0.0,0.0,0.0,0.0,0.0,0.0,0.0,0.0,0.0,0.0,0.0,0.0,0.0,0.0,0.0,0.0,0.0,0.0,0.0,0.0,0.0
12168000000,239,12168000000,world,bluerov2/base_link,-0.20958633629659523,20.3589846912162,-94.78925486909213,7.397746189797286e-05,-6.157453185872058e-05,-0.9999815614090727,-0.006071867734488904,0.0,0.0,0.0,0.0,0.0,0.0,0.0,0.0,0.0,0.0,0.0,0.0,0.0,0.0,0.0,0.0,0.0,0.0,0.0,0.0,0.0,0.0,0.0,0.0,0.0,0.0,0.0,0.0,0.0,0.0,0.0,0.0,0.0,0.0,0.0,0.0,-1.0377653533656646,-0.00788550774765516,0.0006882477057888482,-0.000814873300388514,-0.003419524030117718,0.005558300502063568,0.0,0.0,0.0,0.0,0.0,0.0,0.0,0.0,0.0,0.0,0.0,0.0,0.0,0.0,0.0,0.0,0.0,0.0,0.0,0.0,0.0,0.0,0.0,0.0,0.0,0.0,0.0,0.0,0.0,0.0,0.0,0.0,0.0,0.0,0.0,0.0
12218000000,240,12218000000,world,bluerov2/base_link,-0.26147573617494585,20.358695673526576,-94.7893228311652,-5.080993477776406e-05,-0.000126124332213712,-0.9999814433763029,-0.006090518372804485,0.0,0.0,0.0,0.0,0.0,0.0,0.0,0.0,0.0,0.0,0.0,0.0,0.0,0.0,0.0,0.0,0.0,0.0,0.0,0.0,0.0,0.0,0.0,0.0,0.0,0.0,0.0,0.0,0.0,0.0,0.0,0.0,0.0,0.0,0.0,0.0,-1.0378469226118798,-0.0047913200261435135,-0.003171586301835564,-0.004938952454543821,-0.0022410451107596923,0.008683997898616676,0.0,0.0,0.0,0.0,0.0,0.0,0.0,0.0,0.0,0.0,0.0,0.0,0.0,0.0,0.0,0.0,0.0,0.0,0.0,0.0,0.0,0.0,0.0,0.0,0.0,0.0,0.0,0.0,0.0,0.0,0.0,0.0,0.0,0.0,0.0,0.0
12268000000,241,12268000000,world,bluerov2/base_link,-0.31309768329369136,20.35853971293701,-94.7892921894758,0.0001765070215629484,-0.0003458912946055166,-0.9999838676587218,-0.005666888633798164,0.0,0.0,0.0,0.0,0.0,0.0,0.0,0.0,0.0,0.0,0.0,0.0,0.0,0.0,0.0,0.0,0.0,0.0,0.0,0.0,0.0,0.0,0.0,0.0,0.0,0.0,0.0,0.0,0.0,0.0,0.0,0.0,0.0,0.0,0.0,0.0,-1.0332991660832576,-0.004906221052119341,-0.0019624624945865183,-0.011212170848995583,0.0038529564818329995,0.010522143607963552,0.0,0.0,0.0,0.0,0.0,0.0,0.0,0.0,0.0,0.0,0.0,0.0,0.0,0.0,0.0,0.0,0.0,0.0,0.0,0.0,0.0,0.0,0.0,0.0,0.0,0.0,0.0,0.0,0.0,0.0,0.0,0.0,0.0,0.0,0.0,0.0
12318000000,242,12318000000,world,bluerov2/base_link,-0.36464294052138935,20.358056777914296,-94.78935224269436,1.2184753547760344e-05,-0.00017910509466680268,-0.9999822120329125,-0.0059618277952424945,0.0,0.0,0.0,0.0,0.0,0.0,0.0,0.0,0.0,0.0,0.0,0.0,0.0,0.0,0.0,0.0,0.0,0.0,0.0,0.0,0.0,0.0,0.0,0.0,0.0,0.0,0.0,0.0,0.0,0.0,0.0,0.0,0.0,0.0,0.0,0.0,-1.0350171055561002,-0.01495348283710362,-0.006778559831221132,0.007763286548232857,0.0017905884226394532,-0.012427505995323449,0.0,0.0,0.0,0.0,0.0,0.0,0.0,0.0,0.0,0.0,0.0,0.0,0.0,0.0,0.0,0.0,0.0,0.0,0.0,0.0,0.0,0.0,0.0,0.0,0.0,0.0,0.0,0.0,0.0,0.0,0.0,0.0,0.0,0.0,0.0,0.0
12368000000,243,12368000000,world,bluerov2/base_link,-0.41596163481793696,20.357684298488067,-94.78933325335012,-9.524152716825545e-06,-9.005753315579723e-05,-0.9999811550046536,-0.0061385205457209465,0.0,0.0,0.0,0.0,0.0,0.0,0.0,0.0,0.0,0.0,0.0,0.0,0.0,0.0,0.0,0.0,0.0,0.0,0.0,0.0,0.0,0.0,0.0,0.0,0.0,0.0,0.0,0.0,0.0,0.0,0.0,0.0,0.0,0.0,0.0,0.0,-1.0291679354819916,-0.009141062100965111,-0.0038664019985022212,-0.0007386806646684745,0.009995899671566054,-0.011560517337150295,0.0,0.0,0.0,0.0,0.0,0.0,0.0,0.0,0.0,0.0,0.0,0.0,0.0,0.0,0.0,0.0,0.0,0.0,0.0,0.0,0.0,0.0,0.0,0.0,0.0,0.0,0.0,0.0,0.0,0.0,0.0,0.0,0.0,0.0,0.0,0.0
12418000000,244,12418000000,world,bluerov2/base_link,-0.46715201766372605,20.35733420504413,-94.78933332804347,4.971118704760839e-05,-0.00022142227742814714,-0.9999813762169654,-0.006098829412036951,0.0,0.0,0.0,0.0,0.0,0.0,0.0,0.0,0.0,0.0,0.0,0.0,0.0,0.0,0.0,0.0,0.0,0.0,0.0,0.0,0.0,0.0,0.0,0.0,0.0,0.0,0.0,0.0,0.0,0.0,0.0,0.0,0.0,0.0,0.0,0.0,-1.0175527437692855,-0.0003001440737154511,0.00492414676935756,-0.005299854152224322,-0.003521952072938241,0.004140899009121088,0.0,0.0,0.0,0.0,0.0,0.0,0.0,0.0,0.0,0.0,0.0,0.0,0.0,0.0,0.0,0.0,0.0,0.0,0.0,0.0,0.0,0.0,0.0,0.0,0.0,0.0,0.0,0.0,0.0,0.0,0.0,0.0,0.0,0.0,0.0,0.0
12468000000,245,12468000000,world,bluerov2/base_link,-0.5181778208861447,20.357010045622495,-94.78931531164723,6.181292034979376e-05,-0.00027765022713954594,-0.9999810419938778,-0.006150995232704759,0.0,0.0,0.0,0.0,0.0,0.0,0.0,0.0,0.0,0.0,0.0,0.0,0.0,0.0,0.0,0.0,0.0,0.0,0.0,0.0,0.0,0.0,0.0,0.0,0.0,0.0,0.0,0.0,0.0,0.0,0.0,0.0,0.0,0.0,0.0,0.0,-1.0204818492366046,-0.012357164791097096,-0.0014738684878277935,0.001296774899165266,-0.0009894930586980591,-0.006033952271620881,0.0,0.0,0.0,0.0,0.0,0.0,0.0,0.0,0.0,0.0,0.0,0.0,0.0,0.0,0.0,0.0,0.0,0.0,0.0,0.0,0.0,0.0,0.0,0.0,0.0,0.0,0.0,0.0,0.0,0.0,0.0,0.0,0.0,0.0,0.0,0.0
12518000000,246,12518000000,world,bluerov2/base_link,-0.5690602935043622,20.356552817468778,-94.7893500529609,5.6371825291013046e-05,-0.0003102621927003976,-0.9999805593481929,-0.006227478242811108,0.0,0.0,0.0,0.0,0.0,0.0,0.0,0.0,0.0,0.0,0.0,0.0,0.0,0.0,0.0,0.0,0.0,0.0,0.0,0.0,0.0,0.0,0.0,0.0,0.0,0.0,0.0,0.0,0.0,0.0,0.0,0.0,0.0,0.0,0.0,0.0,-1.0219670655268442,-0.012614478796303641,-0.00692589826900877,-0.005159702585978847,0.0018944289611182161,0.0019608110812317846,0.0,0.0,0.0,0.0,0.0,0.0,0.0,0.0,0.0,0.0,0.0,0.0,0.0,0.0,0.0,0.0,0.0,0.0,0.0,0.0,0.0,0.0,0.0,0.0,0.0,0.0,0.0,0.0,0.0,0.0,0.0,0.0,0.0,0.0,0.0,0.0
12568000000,247,12568000000,world,bluerov2/base_link,-0.6196860952077854,20.356134573741514,-94.78932502966438,6.222415760998605e-05,-0.00021122464381116433,-0.9999798720667789,-0.0063408969091691345,0.0,0.0,0.0,0.0,0.0,0.0,0.0,0.0,0.0,0.0,0.0,0.0,0.0,0.0,0.0,0.0,0.0,0.0,0.0,0.0,0.0,0.0,0.0,0.0,0.0,0.0,0.0,0.0,0.0,0.0,0.0,0.0,0.0,0.0,0.0,0.0,-1.0087397778205456,-0.006904734081263021,0.00206122833437619,0.007094291256371763,-0.004699204211026493,-0.0026278106410524255,0.0,0.0,0.0,0.0,0.0,0.0,0.0,0.0,0.0,0.0,0.0,0.0,0.0,0.0,0.0,0.0,0.0,0.0,0.0,0.0,0.0,0.0,0.0,0.0,0.0,0.0,0.0,0.0,0.0,0.0,0.0,0.0,0.0,0.0,0.0,0.0
12618000000,248,12618000000,world,bluerov2/base_link,-0.6701093716843001,20.355733780955592,-94.78932639971741,-5.236785385798251e-05,-0.00018140786348830863,-0.9999788001561931,-0.006508731594975067,0.0,0.0,0.0,0.0,0.0,0.0,0.0,0.0,0.0,0.0,0.0,0.0,0.0,0.0,0.0,0.0,0.0,0.0,0.0,0.0,0.0,0.0,0.0,0.0,0.0,0.0,0.0,0.0,0.0,0.0,0.0,0.0,0.0,0.0,0.0,0.0,-1.005726555196832,-0.004376716563781843,0.0007013284384711748,-0.0010330214699059942,-0.006409013272269821,0.006532903004735334,0.0,0.0,0.0,0.0,0.0,0.0,0.0,0.0,0.0,0.0,0.0,0.0,0.0,0.0,0.0,0.0,0.0,0.0,0.0,0.0,0.0,0.0,0.0,0.0,0.0,0.0,0.0,0.0,0.0,0.0,0.0,0.0,0.0,0.0,0.0,0.0
12668000000,249,12668000000,world,bluerov2/base_link,-0.7203623356227685,20.355488149030723,-94.78934434199469,0.00010261760878437226,-0.0003007828050236908,-0.9999803506824381,-0.006260770588240347,0.0,0.0,0.0,0.0,0.0,0.0,0.0,0.0,0.0,0.0,0.0,0.0,0.0,0.0,0.0,0.0,0.0,0.0,0.0,0.0,0.0,0.0,0.0,0.0,0.0,0.0,0.0,0.0,0.0,0.0,0.0,0.0,0.0,0.0,0.0,0.0,-1.005889485744347,-0.003350918025108985,-0.002813180331782751,-0.005039581257422789,0.006385622286562145,0.001000266430177931,0.0,0.0,0.0,0.0,0.0,0.0,0.0,0.0,0.0,0.0,0.0,0.0,0.0,0.0,0.0,0.0,0.0,0.0,0.0,0.0,0.0,0.0,0.0,0.0,0.0,0.0,0.0,0.0,0.0,0.0,0.0,0.0,0.0,0.0,0.0,0.0
12718000000,250,12718000000,world,bluerov2/base_link,-0.7704582927849002,20.355134927154296,-94.78935812395011,2.5001031503635848e-05,-0.0002966512517271478,-0.999979837247181,-0.006343222531544276,0.0,0.0,0.0,0.0,0.0,0.0,0.0,0.0,0.0,0.0,0.0,0.0,0.0,0.0,0.0,0.0,0.0,0.0,0.0,0.0,0.0,0.0,0.0,0.0,0.0,0.0,0.0,0.0,0.0,0.0,0.0,0.0,0.0,0.0,0.0,0.0,-1.0010149387038147,-0.008684345291288132,-0.0005322529804101602,0.00020080692688173604,-0.015959612217716326,0.012750128490211168,0.0,0.0,0.0,0.0,0.0,0.0,0.0,0.0,0.0,0.0,0.0,0.0,0.0,0.0,0.0,0.0,0.0,0.0,0.0,0.0,0.0,0.0,0.0,0.0,0.0,0.0,0.0,0.0,0.0,0.0,0.0,0.0,0.0,0.0,0.0,0.0
12768000000,251,12768000000,world,bluerov2/base_link,-0.8204115393508471,20.354760798788675,-94.78934567789412,1.383752851938315e-05,-0.0003394103759166466,-0.9999801483760694,-0.006291856871693337,0.0,0.0,0.0,0.0,0.0,0.0,0.0,0.0,0.0,0.0,0.0,0.0,0.0,0.0,0.0,0.0,0.0,0.0,0.0,0.0,0.0,0.0,0.0,0.0,0.0,0.0,0.0,0.0,0.0,0.0,0.0,0.0,0.0,0.0,0.0,0.0,-1.0005067994363503,-0.010175343989281549,-0.002403382855446522,-0.002393225110278919,0.01240694405534231,-0.008922012762672734,0.0,0.0,0.0,0.0,0.0,0.0,0.0,0.0,0.0,0.0,0.0,0.0,0.0,0.0,0.0,0.0,0.0,0.0,0.0,0.0,0.0,0.0,0.0,0.0,0.0,0.0,0.0,0.0,0.0,0.0,0.0,0.0,0.0,0.0,0.0,0.0
12818000000,252,12818000000,world,bluerov2/base_link,-0.8702359527627971,20.354346873121457,-94.78932717513274,2.3807842597104454e-06,-0.00014161914141457683,-0.9999788002115811,-0.006509920564602453,0.0,0.0,0.0,0.0,0.0,0.0,0.0,0.0,0.0,0.0,0.0,0.0,0.0,0.0,0.0,0.0,0.0,0.0,0.0,0.0,0.0,0.0,0.0,0.0,0.0,0.0,0.0,0.0,0.0,0.0,0.0,0.0,0.0,0.0,0.0,0.0,-0.9883741176827253,-0.0029258955079651612,0.007305852414638636,0.0039396710329758465,-0.0036404899687970758,-0.0010386230715061849,0.0,0.0,0.0,0.0,0.0,0.0,0.0,0.0,0.0,0.0,0.0,0.0,0.0,0.0,0.0,0.0,0.0,0.0,0.0,0.0,0.0,0.0,0.0,0.0,0.0,0.0,0.0,0.0,0.0,0.0,0.0,0.0,0.0,0.0,0.0,0.0
12868000000,253,12868000000,world,bluerov2/base_link,-0.9199253111461495,20.354061776424274,-94.78930409170289,3.518883583273044e-05,-0.00014455826945522434,-0.9999792953201275,-0.006433257006681792,0.0,0.0,0.0,0.0,0.0,0.0,0.0,0.0,0.0,0.0,0.0,0.0,0.0,0.0,0.0,0.0,0.0,0.0,0.0,0.0,0.0,0.0,0.0,0.0,0.0,0.0,0.0,0.0,0.0,0.0,0.0,0.0,0.0,0.0,0.0,0.0,-0.9940169665476017,-0.006183392145547804,-0.001442599477091094,-0.004248815875861261,0.007786157061303704,-0.0006056122906449733,0.0,0.0,0.0,0.0,0.0,0.0,0.0,0.0,0.0,0.0,0.0,0.0,0.0,0.0,0.0,0.0,0.0,0.0,0.0,0.0,0.0,0.0,0.0,0.0,0.0,0.0,0.0,0.0,0.0,0.0,0.0,0.0,0.0,0.0,0.0,0.0
12918000000,254,12918000000,world,bluerov2/base_link,-0.9695214952920178,20.353760629662002,-94.78936469665683,6.119320167552231e-06,-0.00034019486871503664,-0.9999801251526145,-0.006295516640193885,0.0,0.0,0.0,0.0,0.0,0.0,0.0,0.0,0.0,0.0,0.0,0.0,0.0,0.0,0.0,0.0,0.0,0.0,0.0,0.0,0.0,0.0,0.0,0.0,0.0,0.0,0.0,0.0,0.0,0.0,0.0,0.0,0.0,0.0,0.0,0.0,-0.9964474604379812,-0.010289231916684025,-0.007446494205309129,-0.01077411161084663,0.004481849617347234,0.007167919948634368,0.0,0.0,0.0,0.0,0.0,0.0,0.0,0.0,0.0,0.0,0.0,0.0,0.0,0.0,0.0,0.0,0.0,0.0,0.0,0.0,0.0,0.0,0.0,0.0,0.0,0.0,0.0,0.0,0.0,0.0,0.0,0.0,0.0,0.0,0.0,0.0
12968000000,255,12968000000,world,bluerov2/base_link,-1.018845103517328,20.353345743289115,-94.78932475281364,5.867772084712587e-05,-0.000247047839051207,-0.9999799987356858,-0.006319624424625933,0.0,0.0,0.0,0.0,0.0,0.0,0.0,0.0,0.0,0.0,0.0,0.0,0.0,0.0,0.0,0.0,0.0,0.0,0.0,0.0,0.0,0.0,0.0,0.0,0.0,0.0,0.0,0.0,0.0,0.0,0.0,0.0,0.0,0.0,0.0,0.0,-0.979432866271989,-0.003574928661967219,0.006069324160752988,0.00035894062567721347,0.0038358981052456823,-0.0031450867794497917,0.0,0.0,0.0,0.0,0.0,0.0,0.0,0.0,0.0,0.0,0.0,0.0,0.0,0.0,0.0,0.0,0.0,0.0,0.0,0.0,0.0,0.0,0.0,0.0,0.0,0.0,0.0,0.0,0.0,0.0,0.0,0.0,0.0,0.0,0.0,0.0
13018000000,256,13018000000,world,bluerov2/base_link,-1.0680636004596933,20.35301021165846,-94.78935402715699,-3.4803761199186e-07,-0.0003282683738679454,-0.9999802608766711,-0.006274559488803853,0.0,0.0,0.0,0.0,0.0,0.0,0.0,0.0,0.0,0.0,0.0,0.0,0.0,0.0,0.0,0.0,0.0,0.0,0.0,0.0,0.0,0.0,0.0,0.0,0.0,0.0,0.0,0.0,0.0,0.0,0.0,0.0,0.0,0.0,0.0,0.0,-0.9869668416332089,-0.009316098755042499,-0.004727782597406858,-0.007176657098760412,0.004215498815047863,0.005424719326913148,0.0,0.0,0.0,0.0,0.0,0.0,0.0,0.0,0.0,0.0,0.0,0.0,0.0,0.0,0.0,0.0,0.0,0.0,0.0,0.0,0.0,0.0,0.0,0.0,0.0,0.0,0.0,0.0,0.0,0.0,0.0,0.0,0.0,0.0,0.0,0.0
13068000000,257,13068000000,world,bluerov2/base_link,-1.1170990696765002,20.35260524706811,-94.78934316519599,6.197187773020856e-05,-0.00024019131183671916,-0.9999800280590947,-0.006315215796193888,0.0,0.0,0.0,0.0,0.0,0.0,0.0,0.0,0.0,0.0,0.0,0.0,0.0,0.0,0.0,0.0,0.0,0.0,0.0,0.0,0.0,0.0,0.0,0.0,0.0,0.0,0.0,0.0,0.0,0.0,0.0,0.0,0.0,0.0,0.0,0.0,-0.9890788882389105,-0.015729870047951896,-0.009296665587849933,-0.0017000276166062977,0.009542220718221198,-0.0088016823582781,0.0,0.0,0.0,0.0,0.0,0.0,0.0,0.0,0.0,0.0,0.0,0.0,0.0,0.0,0.0,0.0,0.0,0.0,0.0,0.0,0.0,0.0,0.0,0.0,0.0,0.0,0.0,0.0,0.0,0.0,0.0,0.0,0.0,0.0,0.0,0.0
13118000000,258,13118000000,world,bluerov2/base_link,-1.1661029851403872,20.352289654948716,-94.78939068792708,-1.874013058651712e-05,-0.00031864196179751976,-0.9999792052943547,-0.006441047661577444,0.0,0.0,0.0,0.0,0.0,0.0,0.0,0.0,0.0,0.0,0.0,0.0,0.0,0.0,0.0,0.0,0.0,0.0,0.0,0.0,0.0,0.0,0.0,0.0,0.0,0.0,0.0,0.0,0.0,0.0,0.0,0.0,0.0,0.0,0.0,0.0,-0.9873537241360647,-0.01151208791976222,-0.00856525319930119,-0.007333092306483764,0.010234874369744353,-0.008267240789409018,0.0,0.0,0.0,0.0,0.0,0.0,0.0,0.0,0.0,0.0,0.0,0.0,0.0,0.0,0.0,0.0,0.0,0.0,0.0,0.0,0.0,0.0,0.0,0.0,0.0,0.0,0.0,0.0,0.0,0.0,0.0,0.0,0.0,0.0,0.0,0.0
13168000000,259,13168000000,world,bluerov2/base_link,-1.2150104357493585,20.351916364273475,-94.7893720820534,-5.6777967133174735e-05,-0.0003270417354960405,-0.9999778593285826,-0.006646102059942517,0.0,0.0,0.0,0.0,0.0,0.0,0.0,0.0,0.0,0.0,0.0,0.0,0.0,0.0,0.0,0.0,0.0,0.0,0.0,0.0,0.0,0.0,0.0,0.0,0.0,0.0,0.0,0.0,0.0,0.0,0.0,0.0,0.0,0.0,0.0,0.0,-0.9698210736746198,-0.00044067483524586477,0.008241736236133397,5.6031520901772026e-05,-0.011073267296133206,0.002715210868227206,0.0,0.0,0.0,0.0,0.0,0.0,0.0,0.0,0.0,0.0,0.0,0.0,0.0,0.0,0.0,0.0,0.0,0.0,0.0,0.0,0.0,0.0,0.0,0.0,0.0,0.0,0.0,0.0,0.0,0.0,0.0,0.0,0.0,0.0,0.0,0.0
13218000000,260,13218000000,world,bluerov2/base_link,-1.2638071215914737,20.351518585986696,-94.78929874088256,9.968885486655935e-05,-0.0002616541993824743,-0.9999778244818484,-0.006653731566711669,0.0,0.0,0.0,0.0,0.0,0.0,0.0,0.0,0.0,0.0,0.0,0.0,0.0,0.0,0.0,0.0,0.0,0.0,0.0,0.0,0.0,0.0,0.0,0.0,0.0,0.0,0.0,0.0,0.0,0.0,0.0,0.0,0.0,0.0,0.0,0.0,-0.9786666197786722,-0.011048073770261317,-0.0017883403970872967,0.00014443833384515631,0.004560234998189346,-0.00603329496996491,0.0,0.0,0.0,0.0,0.0,0.0,0.0,0.0,0.0,0.0,0.0,0.0,0.0,0.0,0.0,0.0,0.0,0.0,0.0,0.0,0.0,0.0,0.0,0.0,0.0,0.0,0.0,0.0,0.0,0.0,0.0,0.0,0.0,0.0,0.0,0.0
13268000000,261,13268000000,world,bluerov2/base_link,-1.3127030690964079,20.351130895297736,-94.78936752375873,3.884981604222735e-05,-0.0003134401194941289,-0.9999772397651967,-0.006739450835329061,0.0,0.0,0.0,0.0,0.0,0.0,0.0,0.0,0.0,0.0,0.0,0.0,0.0,0.0,0.0,0.0,0.0,0.0,0.0,0.0,0.0,0.0,0.0,0.0,0.0,0.0,0.0,0.0,0.0,0.0,0.0,0.0,0.0,0.0,0.0,0.0,-0.9767345135881121,-0.0031282548507788983,-0.0007143118170116044,-0.00257244627159241,0.0039046691327998977,-0.003404976060504397,0.0,0.0,0.0,0.0,0.0,0.0,0.0,0.0,0.0,0.0,0.0,0.0,0.0,0.0,0.0,0.0,0.0,0.0,0.0,0.0,0.0,0.0,0.0,0.0,0.0,0.0,0.0,0.0,0.0,0.0,0.0,0.0,0.0,0.0,0.0,0.0
13318000000,262,13318000000,world,bluerov2/base_link,-1.3614481760850528,20.35084039746391,-94.78934143989882,2.9482450513502504e-05,-0.0002738008318707265,-0.999976595187379,-0.006836171541598526,0.0,0.0,0.0,0.0,0.0,0.0,0.0,0.0,0.0,0.0,0.0,0.0,0.0,0.0,0.0,0.0,0.0,0.0,0.0,0.0,0.0,0.0,0.0,0.0,0.0,0.0,0.0,0.0,0.0,0.0,0.0,0.0,0.0,0.0,0.0,0.0,-0.9667112781634475,-0.004197184698007866,0.008289299124921046,0.004986140461100223,-0.005481294346374613,-0.0008495171675563743,0.0,0.0,0.0,0.0,0.0,0.0,0.0,0.0,0.0,0.0,0.0,0.0,0.0,0.0,0.0,0.0,0.0,0.0,0.0,0.0,0.0,0.0,0.0,0.0,0.0,0.0,0.0,0.0,0.0,0.0,0.0,0.0,0.0,0.0,0.0,0.0
13368000000,263,13368000000,world,bluerov2/base_link,-1.4102064320551944,20.350428976267573,-94.78936118011565,-2.9953643667253675e-06,-0.00025083458106702546,-0.9999761863426375,-0.0068966528603028555,0.0,0.0,0.0,0.0,0.0,0.0,0.0,0.0,0.0,0.0,0.0,0.0,0.0,0.0,0.0,0.0,0.0,0.0,0.0,0.0,0.0,0.0,0.0,0.0,0.0,0.0,0.0,0.0,0.0,0.0,0.0,0.0,0.0,0.0,0.0,0.0,-0.9688837061192317,-0.0028649001647532792,0.005722608233538737,-0.0029736624015195743,-0.016105300830912855,0.014756270824954985,0.0,0.0,0.0,0.0,0.0,0.0,0.0,0.0,0.0,0.0,0.0,0.0,0.0,0.0,0.0,0.0,0.0,0.0,0.0,0.0,0.0,0.0,0.0,0.0,0.0,0.0,0.0,0.0,0.0,0.0,0.0,0.0,0.0,0.0,0.0,0.0
13418000000,264,13418000000,world,bluerov2/base_link,-1.4589483915549866,20.350101433296537,-94.78938274353628,-2.183653905276358e-05,-0.00032938271863294403,-0.9999766147526901,-0.006830884125823165,0.0,0.0,0.0,0.0,0.0,0.0,0.0,0.0,0.0,0.0,0.0,0.0,0.0,0.0,0.0,0.0,0.0,0.0,0.0,0.0,0.0,0.0,0.0,0.0,0.0,0.0,0.0,0.0,0.0,0.0,0.0,0.0,0.0,0.0,0.0,0.0,-0.9789322991993392,-0.01140847089967536,-0.004582216361632592,0.007169843278192667,0.012392041538384775,-0.0181896793882906,0.0,0.0,0.0,0.0,0.0,0.0,0.0,0.0,0.0,0.0,0.0,0.0,0.0,0.0,0.0,0.0,0.0,0.0,0.0,0.0,0.0,0.0,0.0,0.0,0.0,0.0,0.0,0.0,0.0,0.0,0.0,0.0,0.0,0.0,0.0,0.0
13468000000,265,13468000000,world,bluerov2/base_link,-1.5076320534509324,20.34975273475087,-94.78936281030973,1.4979762426346934e-05,-0.0002850776033780475,-0.9999764759666768,-0.006853175879333582,0.0,0.0,0.0,0.0,0.0,0.0,0.0,0.0,0.0,0.0,0.0,0.0,0.0,0.0,0.0,0.0,0.0,0.0,0.0,0.0,0.0,0.0,0.0,0.0,0.0,0.0,0.0,0.0,0.0,0.0,0.0,0.0,0.0,0.0,0.0,0.0,-0.9771638063913313,-0.008005658900959292,-0.003709020841410896,-0.0020551802310348846,0.001056783635278839,0.0026991780183548857,0.0,0.0,0.0,0.0,0.0,0.0,0.0,0.0,0.0,0.0,0.0,0.0,0.0,0.0,0.0,0.0,0.0,0.0,0.0,0.0,0.0,0.0,0.0,0.0,0.0,0.0,0.0,0.0,0.0,0.0,0.0,0.0,0.0,0.0,0.0,0.0
13518000000,266,13518000000,world,bluerov2/base_link,-1.5562838193035362,20.3494224702916,-94.78938441242366,-1.627669695481184e-05,-0.00029101792442654006,-0.9999762652965143,-0.0068835955192123295,0.0,0.0,0.0,0.0,0.0,0.0,0.0,0.0,0.0,0.0,0.0,0.0,0.0,0.0,0.0,0.0,0.0,0.0,0.0,0.0,0.0,0.0,0.0,0.0,0.0,0.0,0.0,0.0,0.0,0.0,0.0,0.0,0.0,0.0,0.0,0.0,-0.9796600861648675,-0.016075696123014124,-0.007713918699652859,0.00445122337592581,0.009110516650242446,-0.01445961199124057,0.0,0.0,0.0,0.0,0.0,0.0,0.0,0.0,0.0,0.0,0.0,0.0,0.0,0.0,0.0,0.0,0.0,0.0,0.0,0.0,0.0,0.0,0.0,0.0,0.0,0.0,0.0,0.0,0.0,0.0,0.0,0.0,0.0,0.0,0.0,0.0
13568000000,267,13568000000,world,bluerov2/base_link,-1.604848536956505,20.349065282228388,-94.78936878083749,-5.383579722026041e-05,-0.00026363599734458487,-0.9999757837779741,-0.006954096303202188,0.0,0.0,0.0,0.0,0.0,0.0,0.0,0.0,0.0,0.0,0.0,0.0,0.0,0.0,0.0,0.0,0.0,0.0,0.0,0.0,0.0,0.0,0.0,0.0,0.0,0.0,0.0,0.0,0.0,0.0,0.0,0.0,0.0,0.0,0.0,0.0,-0.9794008878414411,-0.013406545913967437,-0.007911254523878756,-0.004672911691887682,0.013837322262107907,-0.009840049672086324,0.0,0.0,0.0,0.0,0.0,0.0,0.0,0.0,0.0,0.0,0.0,0.0,0.0,0.0,0.0,0.0,0.0,0.0,0.0,0.0,0.0,0.0,0.0,0.0,0.0,0.0,0.0,0.0,0.0,0.0,0.0,0.0,0.0,0.0,0.0,0.0
13618000000,268,13618000000,world,bluerov2/base_link,-1.6533971698590824,20.348781651375408,-94.78932113730421,0.000156905323226315,-0.0002938930889166475,-0.9999772481508479,-0.006737372501922332,0.0,0.0,0.0,0.0,0.0,0.0,0.0,0.0,0.0,0.0,0.0,0.0,0.0,0.0,0.0,0.0,0.0,0.0,0.0,0.0,0.0,0.0,0.0,0.0,0.0,0.0,0.0,0.0,0.0,0.0,0.0,0.0,0.0,0.0,0.0,0.0,-0.9692513177125159,-0.004887802539695518,0.0033404444203107737,0.009247278090696122,0.0008048952802426816,-0.006584817713536903,0.0,0.0,0.0,0.0,0.0,0.0,0.0,0.0,0.0,0.0,0.0,0.0,0.0,0.0,0.0,0.0,0.0,0.0,0.0,0.0,0.0,0.0,0.0,0.0,0.0,0.0,0.0,0.0,0.0,0.0,0.0,0.0,0.0,0.0,0.0,0.0
13668000000,269,13668000000,world,bluerov2/base_link,-1.702116271033074,20.34843487114157,-94.78936409483181,-5.259172374389841e-06,-0.00021352185166581523,-0.999975908565686,-0.006938059454285736,0.0,0.0,0.0,0.0,0.0,0.0,0.0,0.0,0.0,0.0,0.0,0.0,0.0,0.0,0.0,0.0,0.0,0.0,0.0,0.0,0.0,0.0,0.0,0.0,0.0,0.0,0.0,0.0,0.0,0.0,0.0,0.0,0.0,0.0,0.0,0.0,-0.9797990617208557,-0.008933691567138064,-0.005489743428296488,-0.001310672533991811,0.0046382640808907225,-0.0017470872289455433,0.0,0.0,0.0,0.0,0.0,0.0,0.0,0.0,0.0,0.0,0.0,0.0,0.0,0.0,0.0,0.0,0.0,0.0,0.0,0.0,0.0,0.0,0.0,0.0,0.0,0.0,0.0,0.0,0.0,0.0,0.0,0.0,0.0,0.0,0.0,0.0
13718000000,270,13718000000,world,bluerov2/base_link,-1.7508245308753594,20.348205942484753,-94.78932223838288,9.015103581276372e-05,-0.0003475665117692106,-0.999977456700742,-0.006705010113811975,0.0,0.0,0.0,0.0,0.0,0.0,0.0,0.0,0.0,0.0,0.0,0.0,0.0,0.0,0.0,0.0,0.0,0.0,0.0,0.0,0.0,0.0,0.0,0.0,0.0,0.0,0.0,0.0,0.0,0.0,0.0,0.0,0.0,0.0,0.0,0.0,-0.9756107379641533,-0.00471801013284147,7.686819770163093e-05,-0.00823255590806094,0.0012153200910957154,0.009172614033063969,0.0,0.0,0.0,0.0,0.0,0.0,0.0,0.0,0.0,0.0,0.0,0.0,0.0,0.0,0.0,0.0,0.0,0.0,0.0,0.0,0.0,0.0,0.0,0.0,0.0,0.0,0.0,0.0,0.0,0.0,0.0,0.0,0.0,0.0,0.0,0.0
13768000000,271,13768000000,world,bluerov2/base_link,-1.7996776304752031,20.347726421658393,-94.78935473820053,7.489221483648829e-06,-0.00030219681181935097,-0.9999769447277986,-0.006783703550125003,0.0,0.0,0.0,0.0,0.0,0.0,0.0,0.0,0.0,0.0,0.0,0.0,0.0,0.0,0.0,0.0,0.0,0.0,0.0,0.0,0.0,0.0,0.0,0.0,0.0,0.0,0.0,0.0,0.0,0.0,0.0,0.0,0.0,0.0,0.0,0.0,-0.9767338947612304,-0.008266199016336684,0.00019828679296481566,8.12394325991919e-05,-0.011227264008193273,0.011608722796216268,0.0,0.0,0.0,0.0,0.0,0.0,0.0,0.0,0.0,0.0,0.0,0.0,0.0,0.0,0.0,0.0,0.0,0.0,0.0,0.0,0.0,0.0,0.0,0.0,0.0,0.0,0.0,0.0,0.0,0.0,0.0,0.0,0.0,0.0,0.0,0.0
13818000000,272,13818000000,world,bluerov2/base_link,-1.848581395126692,20.34745511179963,-94.7893850673915,6.689330545852318e-07,-0.0003356451043454054,-0.9999774752235934,-0.0067034608497573535,0.0,0.0,0.0,0.0,0.0,0.0,0.0,0.0,0.0,0.0,0.0,0.0,0.0,0.0,0.0,0.0,0.0,0.0,0.0,0.0,0.0,0.0,0.0,0.0,0.0,0.0,0.0,0.0,0.0,0.0,0.0,0.0,0.0,0.0,0.0,0.0,-0.976490081104392,-0.003166896019042534,0.0017267526841732036,0.006228609475757941,0.00017372618921108018,-0.0062712771753519365,0.0,0.0,0.0,0.0,0.0,0.0,0.0,0.0,0.0,0.0,0.0,0.0,0.0,0.0,0.0,0.0,0.0,0.0,0.0,0.0,0.0,0.0,0.0,0.0,0.0,0.0,0.0,0.0,0.0,0.0,0.0,0.0,0.0,0.0,0.0,0.0
13868000000,273,13868000000,world,bluerov2/base_link,-1.8975472798262398,20.347218183797505,-94.7893945478048,-2.171645426656387e-05,-0.0003323544646348342,-0.9999776303871307,-0.006680403748620686,0.0,0.0,0.0,0.0,0.0,0.0,0.0,0.0,0.0,0.0,0.0,0.0,0.0,0.0,0.0,0.0,0.0,0.0,0.0,0.0,0.0,0.0,0.0,0.0,0.0,0.0,0.0,0.0,0.0,0.0,0.0,0.0,0.0,0.0,0.0,0.0,-0.988068472474507,-0.01082088943148594,-0.008126580017689034,-0.005234881992093114,0.010310185773166364,-0.0017131206284360199,0.0,0.0,0.0,0.0,0.0,0.0,0.0,0.0,0.0,0.0,0.0,0.0,0.0,0.0,0.0,0.0,0.0,0.0,0.0,0.0,0.0,0.0,0.0,0.0,0.0,0.0,0.0,0.0,0.0,0.0,0.0,0.0,0.0,0.0,0.0,0.0
13918000000,274,13918000000,world,bluerov2/base_link,-1.9465546767471011,20.34688449654869,-94.78936070008672,-3.863268242082112e-05,-0.00027818745385371513,-0.9999769304202335,-0.0067867331304557795,0.0,0.0,0.0,0.0,0.0,0.0,0.0,0.0,0.0,0.0,0.0,0.0,0.0,0.0,0.0,0.0,0.0,0.0,0.0,0.0,0.0,0.0,0.0,0.0,0.0,0.0,0.0,0.0,0.0,0.0,0.0,0.0,0.0,0.0,0.0,0.0,-0.9766445242614017,-0.0028380858722938337,0.005181839995427957,0.005819382052496453,-0.0043843057003869305,-0.0019806365362482615,0.0,0.0,0.0,0.0,0.0,0.0,0.0,0.0,0.0,0.0,0.0,0.0,0.0,0.0,0.0,0.0,0.0,0.0,0.0,0.0,0.0,0.0,0.0,0.0,0.0,0.0,0.0,0.0,0.0,0.0,0.0,0.0,0.0,0.0,0.0,0.0
13968000000,275,13968000000,world,bluerov2/base_link,-1.995687090982563,20.346546558612634,-94.78934505559229,-1.6123931104390903e-05,-0.000291974798821352,-0.9999773782470779,-0.006719931907111561,0.0,0.0,0.0,0.0,0.0,0.0,0.0,0.0,0.0,0.0,0.0,0.0,0.0,0.0,0.0,0.0,0.0,0.0,0.0,0.0,0.0,0.0,0.0,0.0,0.0,0.0,0.0,0.0,0.0,0.0,0.0,0.0,0.0,0.0,0.0,0.0,-0.9870993916202407,-0.009102433103547518,-0.0031636730541731006,-0.00492969032227032,0.010125564136821981,-0.0020625610178165335,0.0,0.0,0.0,0.0,0.0,0.0,0.0,0.0,0.0,0.0,0.0,0.0,0.0,0.0,0.0,0.0,0.0,0.0,0.0,0.0,0.0,0.0,0.0,0.0,0.0,0.0,0.0,0.0,0.0,0.0,0.0,0.0,0.0,0.0,0.0,0.0
14018000000,276,14018000000,world,bluerov2/base_link,-2.044885364535191,20.346240336494127,-94.78929769646771,0.00011055863271321337,-0.000235690326916789,-0.9999784153995199,-0.0065651322853075645,0.0,0.0,0.0,0.0,0.0,0.0,0.0,0.0,0.0,0.0,0.0,0.0,0.0,0.0,0.0,0.0,0.0,0.0,0.0,0.0,0.0,0.0,0.0,0.0,0.0,0.0,0.0,0.0,0.0,0.0,0.0,0.0,0.0,0.0,0.0,0.0,-0.9820235859411002,-0.005263106446145542,0.0036906670595523083,0.0019117786385069314,0.003041381877873378,0.0005018017325567448,0.0,0.0,0.0,0.0,0.0,0.0,0.0,0.0,0.0,0.0,0.0,0.0,0.0,0.0,0.0,0.0,0.0,0.0,0.0,0.0,0.0,0.0,0.0,0.0,0.0,0.0,0.0,0.0,0.0,0.0,0.0,0.0,0.0,0.0,0.0,0.0
14068000000,277,14068000000,world,bluerov2/base_link,-2.0942676695380293,20.345873779888635,-94.7893449130186,2.6071870157900902e-05,-0.000284468297211515,-0.9999789763099051,-0.006478065779214356,0.0,0.0,0.0,0.0,0.0,0.0,0.0,0.0,0.0,0.0,0.0,0.0,0.0,0.0,0.0,0.0,0.0,0.0,0.0,0.0,0.0,0.0,0.0,0.0,0.0,0.0,0.0,0.0,0.0,0.0,0.0,0.0,0.0,0.0,0.0,0.0,-0.9827005345451646,-0.0005639934421113148,0.004953250935269549,-0.0036012812436377563,-0.00531973577951763,0.015791787317031365,0.0,0.0,0.0,0.0,0.0,0.0,0.0,0.0,0.0,0.0,0.0,0.0,0.0,0.0,0.0,0.0,0.0,0.0,0.0,0.0,0.0,0.0,0.0,0.0,0.0,0.0,0.0,0.0,0.0,0.0,0.0,0.0,0.0,0.0,0.0,0.0
14118000000,278,14118000000,world,bluerov2/base_link,-2.143751525792481,20.34562948375608,-94.78938639006418,-5.743189909149038e-06,-0.0003176204794496925,-0.9999797688346402,-0.006353031218758135,0.0,0.0,0.0,0.0,0.0,0.0,0.0,0.0,0.0,0.0,0.0,0.0,0.0,0.0,0.0,0.0,0.0,0.0,0.0,0.0,0.0,0.0,0.0,0.0,0.0,0.0,0.0,0.0,0.0,0.0,0.0,0.0,0.0,0.0,0.0,0.0,-0.9855799308062638,-0.0007034453593921425,0.004658452112441552,0.001337769797945183,-0.0053824478059504065,0.0028532801017050824,0.0,0.0,0.0,0.0,0.0,0.0,0.0,0.0,0.0,0.0,0.0,0.0,0.0,0.0,0.0,0.0,0.0,0.0,0.0,0.0,0.0,0.0,0.0,0.0,0.0,0.0,0.0,0.0,0.0,0.0,0.0,0.0,0.0,0.0,0.0,0.0
14168000000,279,14168000000,world,bluerov2/base_link,-2.1933469776218195,20.345447576288436,-94.78939142755999,2.95478896415807e-06,-0.00032519861828980153,-0.999979686039802,-0.006365669239509381,0.0,0.0,0.0,0.0,0.0,0.0,0.0,0.0,0.0,0.0,0.0,0.0,0.0,0.0,0.0,0.0,0.0,0.0,0.0,0.0,0.0,0.0,0.0,0.0,0.0,0.0,0.0,0.0,0.0,0.0,0.0,0.0,0.0,0.0,0.0,0.0,-0.9985908067432222,-0.010290361246100188,-0.005385111295854836,0.0031423638619404136,0.0042070784757407675,-0.010381820455059117,0.0,0.0,0.0,0.0,0.0,0.0,0.0,0.0,0.0,0.0,0.0,0.0,0.0,0.0,0.0,0.0,0.0,0.0,0.0,0.0,0.0,0.0,0.0,0.0,0.0,0.0,0.0,0.0,0.0,0.0,0.0,0.0,0.0,0.0,0.0,0.0
14218000000,280,14218000000,world,bluerov2/base_link,-2.2430177319155646,20.345048151558732,-94.78932388429796,0.00012285191888528863,-0.00021961549691939893,-0.9999793822358986,-0.006416523946076263,0.0,0.0,0.0,0.0,0.0,0.0,0.0,0.0,0.0,0.0,0.0,0.0,0.0,0.0,0.0,0.0,0.0,0.0,0.0,0.0,0.0,0.0,0.0,0.0,0.0,0.0,0.0,0.0,0.0,0.0,0.0,0.0,0.0,0.0,0.0,0.0,-1.0004599885797605,-0.014206754570477187,-0.003895141399423408,0.008787988741910155,-0.005702660269866918,-0.0021990537914332656,0.0,0.0,0.0,0.0,0.0,0.0,0.0,0.0,0.0,0.0,0.0,0.0,0.0,0.0,0.0,0.0,0.0,0.0,0.0,0.0,0.0,0.0,0.0,0.0,0.0,0.0,0.0,0.0,0.0,0.0,0.0,0.0,0.0,0.0,0.0,0.0
14268000000,281,14268000000,world,bluerov2/base_link,-2.2929373563727395,20.34452188812868,-94.78930634814758,-1.3446982097534395e-05,-0.00014437999623797946,-0.9999781212931317,-0.006613312986260196,0.0,0.0,0.0,0.0,0.0,0.0,0.0,0.0,0.0,0.0,0.0,0.0,0.0,0.0,0.0,0.0,0.0,0.0,0.0,0.0,0.0,0.0,0.0,0.0,0.0,0.0,0.0,0.0,0.0,0.0,0.0,0.0,0.0,0.0,0.0,0.0,-1.0004392669003326,-0.008578628131027537,0.0004394698743693409,-0.0006762079658584963,0.005182779514287983,-0.004376748048879731,0.0,0.0,0.0,0.0,0.0,0.0,0.0,0.0,0.0,0.0,0.0,0.0,0.0,0.0,0.0,0.0,0.0,0.0,0.0,0.0,0.0,0.0,0.0,0.0,0.0,0.0,0.0,0.0,0.0,0.0,0.0,0.0,0.0,0.0,0.0,0.0
14318000000,282,14318000000,world,bluerov2/base_link,-2.3431514169144734,20.34413138566589,-94.78936120947878,-1.5558985874463784e-05,-0.00023115377820252597,-0.999978812430778,-0.006505460427983758,0.0,0.0,0.0,0.0,0.0,0.0,0.0,0.0,0.0,0.0,0.0,0.0,0.0,0.0,0.0,0.0,0.0,0.0,0.0,0.0,0.0,0.0,0.0,0.0,0.0,0.0,0.0,0.0,0.0,0.0,0.0,0.0,0.0,0.0,0.0,0.0,-1.0051785067280368,-0.002237706299895126,0.0002691163950477189,-0.0028245328684553444,0.007545001664689135,-0.0012324353562588133,0.0,0.0,0.0,0.0,0.0,0.0,0.0,0.0,0.0,0.0,0.0,0.0,0.0,0.0,0.0,0.0,0.0,0.0,0.0,0.0,0.0,0.0,0.0,0.0,0.0,0.0,0.0,0.0,0.0,0.0,0.0,0.0,0.0,0.0,0.0,0.0
14368000000,283,14368000000,world,bluerov2/base_link,-2.3935293098878465,20.343976262555383,-94.7893628432015,5.80228466097735e-07,-0.0003682647729711276,-0.9999802579161386,-0.006272811067875734,0.0,0.0,0.0,0.0,0.0,0.0,0.0,0.0,0.0,0.0,0.0,0.0,0.0,0.0,0.0,0.0,0.0,0.0,0.0,0.0,0.0,0.0,0.0,0.0,0.0,0.0,0.0,0.0,0.0,0.0,0.0,0.0,0.0,0.0,0.0,0.0,-1.0064386174241164,-0.004992258499830194,0.0026933897048734006,0.00464836552108276,-0.010361835266414087,0.004752276989607549,0.0,0.0,0.0,0.0,0.0,0.0,0.0,0.0,0.0,0.0,0.0,0.0,0.0,0.0,0.0,0.0,0.0,0.0,0.0,0.0,0.0,0.0,0.0,0.0,0.0,0.0,0.0,0.0,0.0,0.0,0.0,0.0,0.0,0.0,0.0,0.0
14418000000,284,14418000000,world,bluerov2/base_link,-2.4440136122442304,20.343510345940178,-94.78933010885721,7.091384900959738e-06,-8.92885611442626e-05,-0.9999785820626623,-0.006544264146002109,0.0,0.0,0.0,0.0,0.0,0.0,0.0,0.0,0.0,0.0,0.0,0.0,0.0,0.0,0.0,0.0,0.0,0.0,0.0,0.0,0.0,0.0,0.0,0.0,0.0,0.0,0.0,0.0,0.0,0.0,0.0,0.0,0.0,0.0,0.0,0.0,-1.0180517358120458,-0.014160857715885112,-0.006514965901134496,0.006388574431996409,0.0009279291540570454,-0.00902205904845245,0.0,0.0,0.0,0.0,0.0,0.0,0.0,0.0,0.0,0.0,0.0,0.0,0.0,0.0,0.0,0.0,0.0,0.0,0.0,0.0,0.0,0.0,0.0,0.0,0.0,0.0,0.0,0.0,0.0,0.0,0.0,0.0,0.0,0.0,0.0,0.0
14468000000,285,14468000000,world,bluerov2/base_link,-2.494614831372125,20.343097880393596,-94.78929249621845,2.6898710343617927e-05,-5.0471821620692595e-05,-0.9999783609309686,-0.006578327969026652,0.0,0.0,0.0,0.0,0.0,0.0,0.0,0.0,0.0,0.0,0.0,0.0,0.0,0.0,0.0,0.0,0.0,0.0,0.0,0.0,0.0,0.0,0.0,0.0,0.0,0.0,0.0,0.0,0.0,0.0,0.0,0.0,0.0,0.0,0.0,0.0,-1.018834493014219,-0.011006679379964832,-0.004947252317562819,-0.0023991689561865775,0.005783190292559507,-0.0013265709707633352,0.0,0.0,0.0,0.0,0.0,0.0,0.0,0.0,0.0,0.0,0.0,0.0,0.0,0.0,0.0,0.0,0.0,0.0,0.0,0.0,0.0,0.0,0.0,0.0,0.0,0.0,0.0,0.0,0.0,0.0,0.0,0.0,0.0,0.0,0.0,0.0
14518000000,286,14518000000,world,bluerov2/base_link,-2.545391370996656,20.342819725648848,-94.78931453407831,7.021306998726468e-05,-0.00014936837334407054,-0.9999794451802738,-0.006409522304004023,0.0,0.0,0.0,0.0,0.0,0.0,0.0,0.0,0.0,0.0,0.0,0.0,0.0,0.0,0.0,0.0,0.0,0.0,0.0,0.0,0.0,0.0,0.0,0.0,0.0,0.0,0.0,0.0,0.0,0.0,0.0,0.0,0.0,0.0,0.0,0.0,-1.0105904223447615,0.0013620872704309976,0.0057000694624106925,-0.004484549823624082,-0.0008248236982333892,0.009128840390060696,0.0,0.0,0.0,0.0,0.0,0.0,0.0,0.0,0.0,0.0,0.0,0.0,0.0,0.0,0.0,0.0,0.0,0.0,0.0,0.0,0.0,0.0,0.0,0.0,0.0,0.0,0.0,0.0,0.0,0.0,0.0,0.0,0.0,0.0,0.0,0.0
14568000000,287,14568000000,world,bluerov2/base_link,-2.5963244288849894,20.3425857364947,-94.78937511447715,-2.040550612013541e-05,-0.0003550822363255184,-0.9999805436753721,-0.006227822326299272,0.0,0.0,0.0,0.0,0.0,0.0,0.0,0.0,0.0,0.0,0.0,0.0,0.0,0.0,0.0,0.0,0.0,0.0,0.0,0.0,0.0,0.0,0.0,0.0,0.0,0.0,0.0,0.0,0.0,0.0,0.0,0.0,0.0,0.0,0.0,0.0,-1.0208532956831717,-0.006807945232124863,-0.0023887053902079134,-0.011315359820438565,-0.01001611171194094,0.02165214326390691,0.0,0.0,0.0,0.0,0.0,0.0,0.0,0.0,0.0,0.0,0.0,0.0,0.0,0.0,0.0,0.0,0.0,0.0,0.0,0.0,0.0,0.0,0.0,0.0,0.0,0.0,0.0,0.0,0.0,0.0,0.0,0.0,0.0,0.0,0.0,0.0
14618000000,288,14618000000,world,bluerov2/base_link,-2.6472041123046934,20.34224383029821,-94.78929169601345,6.160856673132396e-05,-0.00015560655929625091,-0.9999804944867716,-0.006243607689077204,0.0,0.0,0.0,0.0,0.0,0.0,0.0,0.0,0.0,0.0,0.0,0.0,0.0,0.0,0.0,0.0,0.0,0.0,0.0,0.0,0.0,0.0,0.0,0.0,0.0,0.0,0.0,0.0,0.0,0.0,0.0,0.0,0.0,0.0,0.0,0.0,-1.016687741668318,-0.007962624659205081,0.0033113839175317556,0.004130360974797302,0.010035552268270713,-0.011244808388119738,0.0,0.0,0.0,0.0,0.0,0.0,0.0,0.0,0.0,0.0,0.0,0.0,0.0,0.0,0.0,0.0,0.0,0.0,0.0,0.0,0.0,0.0,0.0,0.0,0.0,0.0,0.0,0.0,0.0,0.0,0.0,0.0,0.0,0.0,0.0,0.0
14668000000,289,14668000000,world,bluerov2/base_link,-2.6982796083642704,20.34180856492584,-94.78934021998458,-1.0208073019556963e-05,-0.0001408633713762569,-0.9999803758849929,-0.0062632178801437285,0.0,0.0,0.0,0.0,0.0,0.0,0.0,0.0,0.0,0.0,0.0,0.0,0.0,0.0,0.0,0.0,0.0,0.0,0.0,0.0,0.0,0.0,0.0,0.0,0.0,0.0,0.0,0.0,0.0,0.0,0.0,0.0,0.0,0.0,0.0,0.0,-1.0137775277283054,-0.0022057420898407,0.006885740010367998,-0.003123137683086772,-0.016765312741511815,0.0176990953551193,0.0,0.0,0.0,0.0,0.0,0.0,0.0,0.0,0.0,0.0,0.0,0.0,0.0,0.0,0.0,0.0,0.0,0.0,0.0,0.0,0.0,0.0,0.0,0.0,0.0,0.0,0.0,0.0,0.0,0.0,0.0,0.0,0.0,0.0,0.0,0.0
14718000000,290,14718000000,world,bluerov2/base_link,-2.749315234188218,20.341496479210296,-94.7893584817565,-3.969002215584268e-06,-0.0002911748566640451,-0.9999815552168339,-0.0060666652761223495,0.0,0.0,0.0,0.0,0.0,0.0,0.0,0.0,0.0,0.0,0.0,0.0,0.0,0.0,0.0,0.0,0.0,0.0,0.0,0.0,0.0,0.0,0.0,0.0,0.0,0.0,0.0,0.0,0.0,0.0,0.0,0.0,0.0,0.0,0.0,0.0,-1.0150466273968874,-0.001980288847582957,0.0052357899655942125,-0.008437694110600651,0.001826079809158766,0.0026796846594016616,0.0,0.0,0.0,0.0,0.0,0.0,0.0,0.0,0.0,0.0,0.0,0.0,0.0,0.0,0.0,0.0,0.0,0.0,0.0,0.0,0.0,0.0,0.0,0.0,0.0,0.0,0.0,0.0,0.0,0.0,0.0,0.0,0.0,0.0,0.0,0.0
14768000000,291,14768000000,world,bluerov2/base_link,-2.8003268433158484,20.341176230162382,-94.78936072022188,1.100362436613543e-05,-0.0003139517724164434,-0.9999814257898278,-0.006086820890065882,0.0,0.0,0.0,0.0,0.0,0.0,0.0,0.0,0.0,0.0,0.0,0.0,0.0,0.0,0.0,0.0,0.0,0.0,0.0,0.0,0.0,0.0,0.0,0.0,0.0,0.0,0.0,0.0,0.0,0.0,0.0,0.0,0.0,0.0,0.0,0.0,-1.0194349404857388,-0.006632864485381781,0.0004371580769332422,-0.0026287617008094377,-0.006453162108612843,0.003538467656292174,0.0,0.0,0.0,0.0,0.0,0.0,0.0,0.0,0.0,0.0,0.0,0.0,0.0,0.0,0.0,0.0,0.0,0.0,0.0,0.0,0.0,0.0,0.0,0.0,0.0,0.0,0.0,0.0,0.0,0.0,0.0,0.0,0.0,0.0,0.0,0.0
14818000000,292,14818000000,world,bluerov2/base_link,-2.851282952408211,20.340769088000457,-94.78935430272398,5.6160932773035106e-05,-0.00023342572133471607,-0.9999808155425297,-0.0061895803799218805,0.0,0.0,0.0,0.0,0.0,0.0,0.0,0.0,0.0,0.0,0.0,0.0,0.0,0.0,0.0,0.0,0.0,0.0,0.0,0.0,0.0,0.0,0.0,0.0,0.0,0.0,0.0,0.0,0.0,0.0,0.0,0.0,0.0,0.0,0.0,0.0,-1.0199627910294193,-0.007971731435988774,-0.0013977305463379929,0.008540592827755641,-0.006488500179504632,-0.002401952384554007,0.0,0.0,0.0,0.0,0.0,0.0,0.0,0.0,0.0,0.0,0.0,0.0,0.0,0.0,0.0,0.0,0.0,0.0,0.0,0.0,0.0,0.0,0.0,0.0,0.0,0.0,0.0,0.0,0.0,0.0,0.0,0.0,0.0,0.0,0.0,0.0
14868000000,293,14868000000,world,bluerov2/base_link,-2.9021529001345066,20.340326312825212,-94.78934900066332,3.31854811273286e-05,-0.0002112243379137227,-0.9999803067730543,-0.0062721885391888825,0.0,0.0,0.0,0.0,0.0,0.0,0.0,0.0,0.0,0.0,0.0,0.0,0.0,0.0,0.0,0.0,0.0,0.0,0.0,0.0,0.0,0.0,0.0,0.0,0.0,0.0,0.0,0.0,0.0,0.0,0.0,0.0,0.0,0.0,0.0,0.0,-1.0063030884391395,0.0004117719481594112,0.010070375259961425,-0.0015655488349767162,-0.0015715532228373283,0.0006873879674200244,0.0,0.0,0.0,0.0,0.0,0.0,0.0,0.0,0.0,0.0,0.0,0.0,0.0,0.0,0.0,0.0,0.0,0.0,0.0,0.0,0.0,0.0,0.0,0.0,0.0,0.0,0.0,0.0,0.0,0.0,0.0,0.0,0.0,0.0,0.0,0.0
14918000000,294,14918000000,world,bluerov2/base_link,-2.952909425309134,20.340059408054827,-94.78935948126825,8.917796804403803e-05,-0.00032972577535433955,-0.999981179496082,-0.006125682152026442,0.0,0.0,0.0,0.0,0.0,0.0,0.0,0.0,0.0,0.0,0.0,0.0,0.0,0.0,0.0,0.0,0.0,0.0,0.0,0.0,0.0,0.0,0.0,0.0,0.0,0.0,0.0,0.0,0.0,0.0,0.0,0.0,0.0,0.0,0.0,0.0,-1.0206204900452855,-0.008546929458844285,-0.006988722143993735,-0.007161809875456904,0.004299377029054349,0.004532706489006337,0.0,0.0,0.0,0.0,0.0,0.0,0.0,0.0,0.0,0.0,0.0,0.0,0.0,0.0,0.0,0.0,0.0,0.0,0.0,0.0,0.0,0.0,0.0,0.0,0.0,0.0,0.0,0.0,0.0,0.0,0.0,0.0,0.0,0.0,0.0,0.0
14968000000,295,14968000000,world,bluerov2/base_link,-3.0035196030444955,20.33975143442918,-94.78936089859975,2.5810184446111662e-05,-0.0002914433325770244,-0.9999804351675697,-0.006248493954230411,0.0,0.0,0.0,0.0,0.0,0.0,0.0,0.0,0.0,0.0,0.0,0.0,0.0,0.0,0.0,0.0,0.0,0.0,0.0,0.0,0.0,0.0,0.0,0.0,0.0,0.0,0.0,0.0,0.0,0.0,0.0,0.0,0.0,0.0,0.0,0.0,-1.0145667185217622,-0.010078847702446764,-0.003969575750283615,-0.002588659368716139,-0.009922501905474094,0.007225915858022509,0.0,0.0,0.0,0.0,0.0,0.0,0.0,0.0,0.0,0.0,0.0,0.0,0.0,0.0,0.0,0.0,0.0,0.0,0.0,0.0,0.0,0.0,0.0,0.0,0.0,0.0,0.0,0.0,0.0,0.0,0.0,0.0,0.0,0.0,0.0,0.0
15018000000,296,15018000000,world,bluerov2/base_link,-3.0539811134480845,20.339437576197337,-94.78937765446638,-1.22096165384877e-05,-0.0003016079536616256,-0.9999798523003093,-0.006340652728156006,0.0,0.0,0.0,0.0,0.0,0.0,0.0,0.0,0.0,0.0,0.0,0.0,0.0,0.0,0.0,0.0,0.0,0.0,0.0,0.0,0.0,0.0,0.0,0.0,0.0,0.0,0.0,0.0,0.0,0.0,0.0,0.0,0.0,0.0,0.0,0.0,-1.0130405647387872,-0.014478773692395105,-0.005583389007829968,0.00813433859846035,0.004760625177825778,-0.01473736799457775,0.0,0.0,0.0,0.0,0.0,0.0,0.0,0.0,0.0,0.0,0.0,0.0,0.0,0.0,0.0,0.0,0.0,0.0,0.0,0.0,0.0,0.0,0.0,0.0,0.0,0.0,0.0,0.0,0.0,0.0,0.0,0.0,0.0,0.0,0.0,0.0
15068000000,297,15068000000,world,bluerov2/base_link,-3.10424986421179,20.339069620943366,-94.78934520506044,-4.132003519919287e-05,-0.00022128822928771426,-0.9999791103187226,-0.006459740733998628,0.0,0.0,0.0,0.0,0.0,0.0,0.0,0.0,0.0,0.0,0.0,0.0,0.0,0.0,0.0,0.0,0.0,0.0,0.0,0.0,0.0,0.0,0.0,0.0,0.0,0.0,0.0,0.0,0.0,0.0,0.0,0.0,0.0,0.0,0.0,0.0,-1.0020273584705577,-0.0022135118771870552,0.0025070490912352883,0.0005102017199266815,0.0007931351313225794,-0.0017087651255237324,0.0,0.0,0.0,0.0,0.0,0.0,0.0,0.0,0.0,0.0,0.0,0.0,0.0,0.0,0.0,0.0,0.0,0.0,0.0,0.0,0.0,0.0,0.0,0.0,0.0,0.0,0.0,0.0,0.0,0.0,0.0,0.0,0.0,0.0,0.0,0.0
15118000000,298,15118000000,world,bluerov2/base_link,-3.1544425079083376,20.338853343821352,-94.78938465304773,-1.6003298915447227e-05,-0.0003286146371194493,-0.999979215436434,-0.006438979068840098,0.0,0.0,0.0,0.0,0.0,0.0,0.0,0.0,0.0,0.0,0.0,0.0,0.0,0.0,0.0,0.0,0.0,0.0,0.0,0.0,0.0,0.0,0.0,0.0,0.0,0.0,0.0,0.0,0.0,0.0,0.0,0.0,0.0,0.0,0.0,0.0,-1.0015025426803528,-0.0011444581515809365,0.00033374015404362065,0.0006691651660257852,0.000295029877234532,-0.005870945703313564,0.0,0.0,0.0,0.0,0.0,0.0,0.0,0.0,0.0,0.0,0.0,0.0,0.0,0.0,0.0,0.0,0.0,0.0,0.0,0.0,0.0,0.0,0.0,0.0,0.0,0.0,0.0,0.0,0.0,0.0,0.0,0.0,0.0,0.0,0.0,0.0
15168000000,299,15168000000,world,bluerov2/base_link,-3.2044518523517564,20.338545029265163,-94.789359212621,1.3604790876775537e-05,-0.0002971032835144358,-0.9999778748299993,-0.006645404052948355,0.0,0.0,0.0,0.0,0.0,0.0,0.0,0.0,0.0,0.0,0.0,0.0,0.0,0.0,0.0,0.0,0.0,0.0,0.0,0.0,0.0,0.0,0.0,0.0,0.0,0.0,0.0,0.0,0.0,0.0,0.0,0.0,0.0,0.0,0.0,0.0,-1.0046695270017767,-0.011369362798658807,-0.005095925161913022,-0.0021803153199480775,0.01020725384141662,-0.015635830057967502,0.0,0.0,0.0,0.0,0.0,0.0,0.0,0.0,0.0,0.0,0.0,0.0,0.0,0.0,0.0,0.0,0.0,0.0,0.0,0.0,0.0,0.0,0.0,0.0,0.0,0.0,0.0,0.0,0.0,0.0,0.0,0.0,0.0,0.0,0.0,0.0
15218000000,300,15218000000,world,bluerov2/base_link,-3.254397093995277,20.338259328552653,-94.78937347554213,-1.2049863384947316e-05,-0.00031060641694128125,-0.9999766349973048,-0.006828824051168076,0.0,0.0,0.0,0.0,0.0,0.0,0.0,0.0,0.0,0.0,0.0,0.0,0.0,0.0,0.0,0.0,0.0,0.0,0.0,0.0,0.0,0.0,0.0,0.0,0.0,0.0,0.0,0.0,0.0,0.0,0.0,0.0,0.0,0.0,0.0,0.0,-0.993936706082076,-0.0015979465387814256,0.0038630663511814846,0.0016307978170401669,-0.0040262918983070065,-0.004641020929641554,0.0,0.0,0.0,0.0,0.0,0.0,0.0,0.0,0.0,0.0,0.0,0.0,0.0,0.0,0.0,0.0,0.0,0.0,0.0,0.0,0.0,0.0,0.0,0.0,0.0,0.0,0.0,0.0,0.0,0.0,0.0,0.0,0.0,0.0,0.0,0.0
15268000000,301,15268000000,world,bluerov2/base_link,-3.304215717853092,20.338035455140787,-94.78933460851408,7.684475429604041e-05,-0.0003279688025312834,-0.9999761707309753,-0.006895252102986165,0.0,0.0,0.0,0.0,0.0,0.0,0.0,0.0,0.0,0.0,0.0,0.0,0.0,0.0,0.0,0.0,0.0,0.0,0.0,0.0,0.0,0.0,0.0,0.0,0.0,0.0,0.0,0.0,0.0,0.0,0.0,0.0,0.0,0.0,0.0,0.0,-0.9921921394185544,-0.005449515298178503,0.0043518268754534385,-0.0006984558668929184,0.006797991522841173,-0.011048336377487424,0.0,0.0,0.0,0.0,0.0,0.0,0.0,0.0,0.0,0.0,0.0,0.0,0.0,0.0,0.0,0.0,0.0,0.0,0.0,0.0,0.0,0.0,0.0,0.0,0.0,0.0,0.0,0.0,0.0,0.0,0.0,0.0,0.0,0.0,0.0,0.0
15318000000,302,15318000000,world,bluerov2/base_link,-3.3540426509306083,20.33768810932776,-94.7893464376048,3.331017512646667e-05,-0.0001709120213349746,-0.9999739508272206,-0.00721577068044679,0.0,0.0,0.0,0.0,0.0,0.0,0.0,0.0,0.0,0.0,0.0,0.0,0.0,0.0,0.0,0.0,0.0,0.0,0.0,0.0,0.0,0.0,0.0,0.0,0.0,0.0,0.0,0.0,0.0,0.0,0.0,0.0,0.0,0.0,0.0,0.0,-1.001300719667407,-0.010442434614605983,-0.005026282084008495,0.002682762635491354,0.0018632138873027006,-0.009220745339685194,0.0,0.0,0.0,0.0,0.0,0.0,0.0,0.0,0.0,0.0,0.0,0.0,0.0,0.0,0.0,0.0,0.0,0.0,0.0,0.0,0.0,0.0,0.0,0.0,0.0,0.0,0.0,0.0,0.0,0.0,0.0,0.0,0.0,0.0,0.0,0.0
15368000000,303,15368000000,world,bluerov2/base_link,-3.4038437496518044,20.337364441749873,-94.78933601462202,7.423793888881552e-05,-0.00024122625945686518,-0.9999738655835817,-0.007225264593712732,0.0,0.0,0.0,0.0,0.0,0.0,0.0,0.0,0.0,0.0,0.0,0.0,0.0,0.0,0.0,0.0,0.0,0.0,0.0,0.0,0.0,0.0,0.0,0.0,0.0,0.0,0.0,0.0,0.0,0.0,0.0,0.0,0.0,0.0,0.0,0.0,-0.9888908392872495,0.001300542946283103,0.007004780163587384,-0.004887580993048515,-0.005175977701089297,0.007470088402273533,0.0,0.0,0.0,0.0,0.0,0.0,0.0,0.0,0.0,0.0,0.0,0.0,0.0,0.0,0.0,0.0,0.0,0.0,0.0,0.0,0.0,0.0,0.0,0.0,0.0,0.0,0.0,0.0,0.0,0.0,0.0,0.0,0.0,0.0,0.0,0.0
15418000000,304,15418000000,world,bluerov2/base_link,-3.453641363483569,20.337142126401595,-94.78938066348232,2.293403439847188e-05,-0.0003387586455003158,-0.9999738085993296,-0.007229580344782381,0.0,0.0,0.0,0.0,0.0,0.0,0.0,0.0,0.0,0.0,0.0,0.0,0.0,0.0,0.0,0.0,0.0,0.0,0.0,0.0,0.0,0.0,0.0,0.0,0.0,0.0,0.0,0.0,0.0,0.0,0.0,0.0,0.0,0.0,0.0,0.0,-0.9897763963260122,-0.005985857850513052,0.004497436886867429,0.01644115236441638,-0.003262160695696328,-0.018276924428280206,0.0,0.0,0.0,0.0,0.0,0.0,0.0,0.0,0.0,0.0,0.0,0.0,0.0,0.0,0.0,0.0,0.0,0.0,0.0,0.0,0.0,0.0,0.0,0.0,0.0,0.0,0.0,0.0,0.0,0.0,0.0,0.0,0.0,0.0,0.0,0.0
15468000000,305,15468000000,world,bluerov2/base_link,-3.503254492066815,20.33669664337937,-94.78933985991382,1.5005659550587464e-05,-0.00017354783507692368,-0.9999715531058548,-0.0075407317313209874,0.0,0.0,0.0,0.0,0.0,0.0,0.0,0.0,0.0,0.0,0.0,0.0,0.0,0.0,0.0,0.0,0.0,0.0,0.0,0.0,0.0,0.0,0.0,0.0,0.0,0.0,0.0,0.0,0.0,0.0,0.0,0.0,0.0,0.0,0.0,0.0,-0.9902704037284165,-0.0041384265677029694,0.0014949196658100765,0.0024201876184143374,-0.0073708248935682305,0.00010903481821486736,0.0,0.0,0.0,0.0,0.0,0.0,0.0,0.0,0.0,0.0,0.0,0.0,0.0,0.0,0.0,0.0,0.0,0.0,0.0,0.0,0.0,0.0,0.0,0.0,0.0,0.0,0.0,0.0,0.0,0.0,0.0,0.0,0.0,0.0,0.0,0.0
15518000000,306,15518000000,world,bluerov2/base_link,-3.552783165498753,20.336482054364712,-94.78935542150035,-2.2578905833508327e-05,-0.0002516004518067137,-0.9999712971605828,-0.007572386835556945,0.0,0.0,0.0,0.0,0.0,0.0,0.0,0.0,0.0,0.0,0.0,0.0,0.0,0.0,0.0,0.0,0.0,0.0,0.0,0.0,0.0,0.0,0.0,0.0,0.0,0.0,0.0,0.0,0.0,0.0,0.0,0.0,0.0,0.0,0.0,0.0,-0.9909012137749458,-0.0041293365774668685,-0.0018843917837656746,-0.007673560454839067,-0.008499777162116006,0.011679413162579835,0.0,0.0,0.0,0.0,0.0,0.0,0.0,0.0,0.0,0.0,0.0,0.0,0.0,0.0,0.0,0.0,0.0,0.0,0.0,0.0,0.0,0.0,0.0,0.0,0.0,0.0,0.0,0.0,0.0,0.0,0.0,0.0,0.0,0.0,0.0,0.0
15568000000,307,15568000000,world,bluerov2/base_link,-3.602165229872616,20.336303169719997,-94.78934559225732,0.0001265759805137692,-0.0003232377763300345,-0.9999726329993617,-0.0073900438554316186,0.0,0.0,0.0,0.0,0.0,0.0,0.0,0.0,0.0,0.0,0.0,0.0,0.0,0.0,0.0,0.0,0.0,0.0,0.0,0.0,0.0,0.0,0.0,0.0,0.0,0.0,0.0,0.0,0.0,0.0,0.0,0.0,0.0,0.0,0.0,0.0,-0.9832663366988894,-0.004555707859072904,0.0034036006793097067,0.011175113240440845,0.005948843449511398,-0.01431612647050619,0.0,0.0,0.0,0.0,0.0,0.0,0.0,0.0,0.0,0.0,0.0,0.0,0.0,0.0,0.0,0.0,0.0,0.0,0.0,0.0,0.0,0.0,0.0,0.0,0.0,0.0,0.0,0.0,0.0,0.0,0.0,0.0,0.0,0.0,0.0,0.0
15618000000,308,15618000000,world,bluerov2/base_link,-3.6514531316618744,20.336004029373196,-94.78935255099208,-7.706249144305728e-05,-0.00023550524804670156,-0.9999706103244942,-0.007662707479041074,0.0,0.0,0.0,0.0,0.0,0.0,0.0,0.0,0.0,0.0,0.0,0.0,0.0,0.0,0.0,0.0,0.0,0.0,0.0,0.0,0.0,0.0,0.0,0.0,0.0,0.0,0.0,0.0,0.0,0.0,0.0,0.0,0.0,0.0,0.0,0.0,-0.989921983018065,-0.0061773731446639925,-0.005046786671270354,-0.0008026633930118411,-0.0016435880604182976,0.0038091206117681297,0.0,0.0,0.0,0.0,0.0,0.0,0.0,0.0,0.0,0.0,0.0,0.0,0.0,0.0,0.0,0.0,0.0,0.0,0.0,0.0,0.0,0.0,0.0,0.0,0.0,0.0,0.0,0.0,0.0,0.0,0.0,0.0,0.0,0.0,0.0,0.0
15668000000,309,15668000000,world,bluerov2/base_link,-3.700672930535095,20.335676275594135,-94.78936416567277,2.1984224502755833e-06,-0.00026236640616713567,-0.9999712777397469,-0.007574619104225722,0.0,0.0,0.0,0.0,0.0,0.0,0.0,0.0,0.0,0.0,0.0,0.0,0.0,0.0,0.0,0.0,0.0,0.0,0.0,0.0,0.0,0.0,0.0,0.0,0.0,0.0,0.0,0.0,0.0,0.0,0.0,0.0,0.0,0.0,0.0,0.0,-0.9808563712802524,-0.004858411061444765,0.002367488448590325,0.008627202842878205,-0.008526188389699402,0.0019958015067665247,0.0,0.0,0.0,0.0,0.0,0.0,0.0,0.0,0.0,0.0,0.0,0.0,0.0,0.0,0.0,0.0,0.0,0.0,0.0,0.0,0.0,0.0,0.0,0.0,0.0,0.0,0.0,0.0,0.0,0.0,0.0,0.0,0.0,0.0,0.0,0.0
15718000000,310,15718000000,world,bluerov2/base_link,-3.749737686092712,20.335363830277508,-94.78933324101499,3.870785544937061e-05,-0.00024237222128141466,-0.9999717624905451,-0.007510923975209256,0.0,0.0,0.0,0.0,0.0,0.0,0.0,0.0,0.0,0.0,0.0,0.0,0.0,0.0,0.0,0.0,0.0,0.0,0.0,0.0,0.0,0.0,0.0,0.0,0.0,0.0,0.0,0.0,0.0,0.0,0.0,0.0,0.0,0.0,0.0,0.0,-0.9789228863224232,-0.003117919156437182,0.001755451824419429,-0.003179470964532165,0.0004628341091189473,0.004108420909692113,0.0,0.0,0.0,0.0,0.0,0.0,0.0,0.0,0.0,0.0,0.0,0.0,0.0,0.0,0.0,0.0,0.0,0.0,0.0,0.0,0.0,0.0,0.0,0.0,0.0,0.0,0.0,0.0,0.0,0.0,0.0,0.0,0.0,0.0,0.0,0.0
