%time,field.header.seq,field.header.stamp,field.header.frame_id,field.child_frame_id,field.pose.pose.position.x,field.pose.pose.position.y,field.pose.pose.position.z,field.pose.pose.orientation.x,field.pose.pose.orientation.y,field.pose.pose.orientation.z,field.pose.pose.orientation.w,field.pose.covariance0,field.pose.covariance1,field.pose.covariance2,field.pose.covariance3,field.pose.covariance4,field.pose.covariance5,field.pose.covariance6,field.pose.covariance7,field.pose.covariance8,field.pose.covariance9,field.pose.covariance10,field.pose.covariance11,field.pose.covariance12,field.pose.covariance13,field.pose.covariance14,field.pose.covariance15,field.pose.covariance16,field.pose.covariance17,field.pose.covariance18,field.pose.covariance19,field.pose.covariance20,field.pose.covariance21,field.pose.covariance22,field.pose.covariance23,field.pose.covariance24,field.pose.covariance25,field.pose.covariance26,field.pose.covariance27,field.pose.covariance28,field.pose.covariance29,field.pose.covariance30,field.pose.covariance31,field.pose.covariance32,field.pose.covariance33,field.pose.covariance34,field.pose.covariance35,field.twist.twist.linear.x,field.twist.twist.linear.y,field.twist.twist.linear.z,field.twist.twist.angular.x,field.twist.twist.angular.y,field.twist.twist.angular.z,field.twist.covariance0,field.twist.covariance1,field.twist.covariance2,field.twist.covariance3,field.twist.covariance4,field.twist.covariance5,field.twist.covariance6,field.twist.covariance7,field.twist.covariance8,field.twist.covariance9,field.twist.covariance10,field.twist.covariance11,field.twist.covariance12,field.twist.covariance13,field.twist.covariance14,field.twist.covariance15,field.twist.covariance16,field.twist.covariance17,field.twist.covariance18,field.twist.covariance19,field.twist.covariance20,field.twist.covariance21,field.twist.covariance22,field.twist.covariance23,field.twist.covariance24,field.twist.covariance25,field.twist.covariance26,field.twist.covariance27,field.twist.covariance28,field.twist.covariance29,field.twist.covariance30,field.twist.covariance31,field.twist.covariance32,field.twist.covariance33,field.twist.covariance34,field.twist.covariance35
3452000000,68,3452000000,world,bluerov2/base_link,-11.706874822516667,-0.8353940481035231,-94.9160590778406,-0.04148694136726866,0.011499387328310387,0.09976010887473734,0.9940797344601503,0.0,0.0,0.0,0.0,0.0,0.0,0.0,0.0,0.0,0.0,0.0,0.0,0.0,0.0,0.0,0.0,0.0,0.0,0.0,0.0,0.0,0.0,0.0,0.0,0.0,0.0,0.0,0.0,0.0,0.0,0.0,0.0,0.0,0.0,0.0,0.0,-0.4068183995421376,-1.8679180754756972,-0.05201136949061053,-0.1120783984780108,0.035241166548630916,0.49028858429151617,0.0,0.0,0.0,0.0,0.0,0.0,0.0,0.0,0.0,0.0,0.0,0.0,0.0,0.0,0.0,0.0,0.0,0.0,0.0,0.0,0.0,0.0,0.0,0.0,0.0,0.0,0.0,0.0,0.0,0.0,0.0,0.0,0.0,0.0,0.0,0.0
3502000000,69,3502000000,world,bluerov2/base_link,-11.72674137321658,-0.9301816794473747,-94.91947229703051,-0.0444052946641877,0.01215883181024012,0.11210285891749722,0.9926294785252554,0.0,0.0,0.0,0.0,0.0,0.0,0.0,0.0,0.0,0.0,0.0,0.0,0.0,0.0,0.0,0.0,0.0,0.0,0.0,0.0,0.0,0.0,0.0,0.0,0.0,0.0,0.0,0.0,0.0,0.0,0.0,0.0,0.0,0.0,0.0,0.0,-0.3878741166481645,-1.9200213010880438,-0.084298016956694,-0.1175962107389316,0.036008382008577325,0.5016024185147203,0.0,0.0,0.0,0.0,0.0,0.0,0.0,0.0,0.0,0.0,0.0,0.0,0.0,0.0,0.0,0.0,0.0,0.0,0.0,0.0,0.0,0.0,0.0,0.0,0.0,0.0,0.0,0.0,0.0,0.0,0.0,0.0,0.0,0.0,0.0,0.0
3552000000,70,3552000000,world,bluerov2/base_link,-11.745583698266058,-1.0273400487821445,-94.92462814685618,-0.04746302219102041,0.012837664109852256,0.12461697092543175,0.9909859062883122,0.0,0.0,0.0,0.0,0.0,0.0,0.0,0.0,0.0,0.0,0.0,0.0,0.0,0.0,0.0,0.0,0.0,0.0,0.0,0.0,0.0,0.0,0.0,0.0,0.0,0.0,0.0,0.0,0.0,0.0,0.0,0.0,0.0,0.0,0.0,0.0,-0.36613619512656004,-1.9639469919868313,-0.12149762227253376,-0.12470552751732182,0.036529685227141895,0.5063296497202084,0.0,0.0,0.0,0.0,0.0,0.0,0.0,0.0,0.0,0.0,0.0,0.0,0.0,0.0,0.0,0.0,0.0,0.0,0.0,0.0,0.0,0.0,0.0,0.0,0.0,0.0,0.0,0.0,0.0,0.0,0.0,0.0,0.0,0.0,0.0,0.0
3602000000,71,3602000000,world,bluerov2/base_link,-11.763273568056272,-1.1265805764502554,-94.93182370630511,-0.05064708624016912,0.013535014301053467,0.1371246335862114,0.9891655629403495,0.0,0.0,0.0,0.0,0.0,0.0,0.0,0.0,0.0,0.0,0.0,0.0,0.0,0.0,0.0,0.0,0.0,0.0,0.0,0.0,0.0,0.0,0.0,0.0,0.0,0.0,0.0,0.0,0.0,0.0,0.0,0.0,0.0,0.0,0.0,0.0,-0.3426086342654247,-2.0029147649370076,-0.1641272095076642,-0.1299654168582336,0.036029274841814,0.5019678487355688,0.0,0.0,0.0,0.0,0.0,0.0,0.0,0.0,0.0,0.0,0.0,0.0,0.0,0.0,0.0,0.0,0.0,0.0,0.0,0.0,0.0,0.0,0.0,0.0,0.0,0.0,0.0,0.0,0.0,0.0,0.0,0.0,0.0,0.0,0.0,0.0
3652000000,72,3652000000,world,bluerov2/base_link,-11.779839378989537,-1.2276117514706502,-94.94112044667185,-0.054032635632042386,0.014232560576165358,0.14934040558487832,0.9872058304962775,0.0,0.0,0.0,0.0,0.0,0.0,0.0,0.0,0.0,0.0,0.0,0.0,0.0,0.0,0.0,0.0,0.0,0.0,0.0,0.0,0.0,0.0,0.0,0.0,0.0,0.0,0.0,0.0,0.0,0.0,0.0,0.0,0.0,0.0,0.0,0.0,-0.32030133124713184,-2.0371385388784082,-0.20676057943008092,-0.13942954031130736,0.03404425051018658,0.48660786738744494,0.0,0.0,0.0,0.0,0.0,0.0,0.0,0.0,0.0,0.0,0.0,0.0,0.0,0.0,0.0,0.0,0.0,0.0,0.0,0.0,0.0,0.0,0.0,0.0,0.0,0.0,0.0,0.0,0.0,0.0,0.0,0.0,0.0,0.0,0.0,0.0
3702000000,73,3702000000,world,bluerov2/base_link,-11.795145256379248,-1.330240648173713,-94.95255955387144,-0.05767522520434854,0.01497331831219386,0.16112084480294542,0.9851342251218027,0.0,0.0,0.0,0.0,0.0,0.0,0.0,0.0,0.0,0.0,0.0,0.0,0.0,0.0,0.0,0.0,0.0,0.0,0.0,0.0,0.0,0.0,0.0,0.0,0.0,0.0,0.0,0.0,0.0,0.0,0.0,0.0,0.0,0.0,0.0,0.0,-0.2929367118160376,-2.065596694067189,-0.24903721847222732,-0.15192901899367547,0.0334281546781129,0.4693175467864563,0.0,0.0,0.0,0.0,0.0,0.0,0.0,0.0,0.0,0.0,0.0,0.0,0.0,0.0,0.0,0.0,0.0,0.0,0.0,0.0,0.0,0.0,0.0,0.0,0.0,0.0,0.0,0.0,0.0,0.0,0.0,0.0,0.0,0.0,0.0,0.0
3752000000,74,3752000000,world,bluerov2/base_link,-11.809094772652031,-1.4341436445356242,-94.96619641581891,-0.06157263427453808,0.01571926010913076,0.17236942763732055,0.9829804148537742,0.0,0.0,0.0,0.0,0.0,0.0,0.0,0.0,0.0,0.0,0.0,0.0,0.0,0.0,0.0,0.0,0.0,0.0,0.0,0.0,0.0,0.0,0.0,0.0,0.0,0.0,0.0,0.0,0.0,0.0,0.0,0.0,0.0,0.0,0.0,0.0,-0.2654931502644213,-2.0888214543715686,-0.2952312945719244,-0.16146095689018033,0.03006398475064855,0.44703346434319463,0.0,0.0,0.0,0.0,0.0,0.0,0.0,0.0,0.0,0.0,0.0,0.0,0.0,0.0,0.0,0.0,0.0,0.0,0.0,0.0,0.0,0.0,0.0,0.0,0.0,0.0,0.0,0.0,0.0,0.0,0.0,0.0,0.0,0.0,0.0,0.0
3802000000,75,3802000000,world,bluerov2/base_link,-11.82161827437984,-1.5390707094191949,-94.98227052480195,-0.06565693212795269,0.01645313539327992,0.18301059155528787,0.9807780508238647,0.0,0.0,0.0,0.0,0.0,0.0,0.0,0.0,0.0,0.0,0.0,0.0,0.0,0.0,0.0,0.0,0.0,0.0,0.0,0.0,0.0,0.0,0.0,0.0,0.0,0.0,0.0,0.0,0.0,0.0,0.0,0.0,0.0,0.0,0.0,0.0,-0.2378982337120664,-2.10669739729083,-0.3459077005042174,-0.1662391359591629,0.02524120937251685,0.4207737189556574,0.0,0.0,0.0,0.0,0.0,0.0,0.0,0.0,0.0,0.0,0.0,0.0,0.0,0.0,0.0,0.0,0.0,0.0,0.0,0.0,0.0,0.0,0.0,0.0,0.0,0.0,0.0,0.0,0.0,0.0,0.0,0.0,0.0,0.0,0.0,0.0
3852000000,76,3852000000,world,bluerov2/base_link,-11.832897890717028,-1.6448151345550182,-95.00088677067501,-0.0698403578514057,0.01707985196486487,0.19284952150633417,0.9785906524828569,0.0,0.0,0.0,0.0,0.0,0.0,0.0,0.0,0.0,0.0,0.0,0.0,0.0,0.0,0.0,0.0,0.0,0.0,0.0,0.0,0.0,0.0,0.0,0.0,0.0,0.0,0.0,0.0,0.0,0.0,0.0,0.0,0.0,0.0,0.0,0.0,-0.21437279217387462,-2.1222049498271227,-0.39714782171744245,-0.16997937568635518,0.01769139624731118,0.3862906157541487,0.0,0.0,0.0,0.0,0.0,0.0,0.0,0.0,0.0,0.0,0.0,0.0,0.0,0.0,0.0,0.0,0.0,0.0,0.0,0.0,0.0,0.0,0.0,0.0,0.0,0.0,0.0,0.0,0.0,0.0,0.0,0.0,0.0,0.0,0.0,0.0
3902000000,77,3902000000,world,bluerov2/base_link,-11.842981439372693,-1.75124290570487,-95.02203748611161,-0.07417503286615497,0.01764085533559468,0.20179271360561254,0.9764561257209751,0.0,0.0,0.0,0.0,0.0,0.0,0.0,0.0,0.0,0.0,0.0,0.0,0.0,0.0,0.0,0.0,0.0,0.0,0.0,0.0,0.0,0.0,0.0,0.0,0.0,0.0,0.0,0.0,0.0,0.0,0.0,0.0,0.0,0.0,0.0,0.0,-0.18993898997073044,-2.133562012040916,-0.44602025914053384,-0.17743436427613385,0.012348189761005917,0.3507380533585087,0.0,0.0,0.0,0.0,0.0,0.0,0.0,0.0,0.0,0.0,0.0,0.0,0.0,0.0,0.0,0.0,0.0,0.0,0.0,0.0,0.0,0.0,0.0,0.0,0.0,0.0,0.0,0.0,0.0,0.0,0.0,0.0,0.0,0.0,0.0,0.0
3952000000,78,3952000000,world,bluerov2/base_link,-11.851876932681005,-1.8581537863151831,-95.0455045612916,-0.07872619860087383,0.01816462326025315,0.20979756520712778,0.9744009512253309,0.0,0.0,0.0,0.0,0.0,0.0,0.0,0.0,0.0,0.0,0.0,0.0,0.0,0.0,0.0,0.0,0.0,0.0,0.0,0.0,0.0,0.0,0.0,0.0,0.0,0.0,0.0,0.0,0.0,0.0,0.0,0.0,0.0,0.0,0.0,0.0,-0.1666998508286787,-2.1424150588229196,-0.4907758572041729,-0.18746019442554823,0.005902273116114585,0.3125238432167965,0.0,0.0,0.0,0.0,0.0,0.0,0.0,0.0,0.0,0.0,0.0,0.0,0.0,0.0,0.0,0.0,0.0,0.0,0.0,0.0,0.0,0.0,0.0,0.0,0.0,0.0,0.0,0.0,0.0,0.0,0.0,0.0,0.0,0.0,0.0,0.0
4002000000,79,4002000000,world,bluerov2/base_link,-11.859586373456475,-1.9654522079524512,-95.071178565138,-0.08349763423496948,0.01867451957794941,0.21684547304616839,0.9724492008403728,0.0,0.0,0.0,0.0,0.0,0.0,0.0,0.0,0.0,0.0,0.0,0.0,0.0,0.0,0.0,0.0,0.0,0.0,0.0,0.0,0.0,0.0,0.0,0.0,0.0,0.0,0.0,0.0,0.0,0.0,0.0,0.0,0.0,0.0,0.0,0.0,-0.14205494298983795,-2.1482960474916784,-0.5330884058126764,-0.1945092943020173,0.001865466620738129,0.27546021156522543,0.0,0.0,0.0,0.0,0.0,0.0,0.0,0.0,0.0,0.0,0.0,0.0,0.0,0.0,0.0,0.0,0.0,0.0,0.0,0.0,0.0,0.0,0.0,0.0,0.0,0.0,0.0,0.0,0.0,0.0,0.0,0.0,0.0,0.0,0.0,0.0
4052000000,80,4052000000,world,bluerov2/base_link,-11.866005872145104,-2.0728548607800086,-95.09891484829566,-0.08841489423632252,0.019230243901533835,0.2230413045214562,0.9706006288242525,0.0,0.0,0.0,0.0,0.0,0.0,0.0,0.0,0.0,0.0,0.0,0.0,0.0,0.0,0.0,0.0,0.0,0.0,0.0,0.0,0.0,0.0,0.0,0.0,0.0,0.0,0.0,0.0,0.0,0.0,0.0,0.0,0.0,0.0,0.0,0.0,-0.11510201375354356,-2.1470895135427477,-0.5749217870872011,-0.20137761193052398,0.0010010218677699596,0.24458286558531478,0.0,0.0,0.0,0.0,0.0,0.0,0.0,0.0,0.0,0.0,0.0,0.0,0.0,0.0,0.0,0.0,0.0,0.0,0.0,0.0,0.0,0.0,0.0,0.0,0.0,0.0,0.0,0.0,0.0,0.0,0.0,0.0,0.0,0.0,0.0,0.0
4102000000,81,4102000000,world,bluerov2/base_link,-11.871051829885277,-2.1800954760884803,-95.12866011754052,-0.0934960667956744,0.019863083083712874,0.2285089537189797,0.9688382741688137,0.0,0.0,0.0,0.0,0.0,0.0,0.0,0.0,0.0,0.0,0.0,0.0,0.0,0.0,0.0,0.0,0.0,0.0,0.0,0.0,0.0,0.0,0.0,0.0,0.0,0.0,0.0,0.0,0.0,0.0,0.0,0.0,0.0,0.0,0.0,0.0,-0.0882089945818866,-2.1425208054683553,-0.6117136328672055,-0.2067371936522285,-0.0018871206698395189,0.21553074666384642,0.0,0.0,0.0,0.0,0.0,0.0,0.0,0.0,0.0,0.0,0.0,0.0,0.0,0.0,0.0,0.0,0.0,0.0,0.0,0.0,0.0,0.0,0.0,0.0,0.0,0.0,0.0,0.0,0.0,0.0,0.0,0.0,0.0,0.0,0.0,0.0
4152000000,82,4152000000,world,bluerov2/base_link,-11.874836638862982,-2.287028317530982,-95.15999352580351,-0.09871559131755939,0.02046069446967954,0.23323611275081388,0.9671801836894367,0.0,0.0,0.0,0.0,0.0,0.0,0.0,0.0,0.0,0.0,0.0,0.0,0.0,0.0,0.0,0.0,0.0,0.0,0.0,0.0,0.0,0.0,0.0,0.0,0.0,0.0,0.0,0.0,0.0,0.0,0.0,0.0,0.0,0.0,0.0,0.0,-0.06477917992119908,-2.136112630327558,-0.6406107336012509,-0.211228291223513,-0.009772305276262725,0.1851308677632831,0.0,0.0,0.0,0.0,0.0,0.0,0.0,0.0,0.0,0.0,0.0,0.0,0.0,0.0,0.0,0.0,0.0,0.0,0.0,0.0,0.0,0.0,0.0,0.0,0.0,0.0,0.0,0.0,0.0,0.0,0.0,0.0,0.0,0.0,0.0,0.0
4202000000,83,4202000000,world,bluerov2/base_link,-11.877463057844022,-2.3937095670611863,-95.1926637457532,-0.10393840961875407,0.020959170681020576,0.23716499602094482,0.9656657210612134,0.0,0.0,0.0,0.0,0.0,0.0,0.0,0.0,0.0,0.0,0.0,0.0,0.0,0.0,0.0,0.0,0.0,0.0,0.0,0.0,0.0,0.0,0.0,0.0,0.0,0.0,0.0,0.0,0.0,0.0,0.0,0.0,0.0,0.0,0.0,0.0,-0.04070556949554181,-2.1311808159736425,-0.6631912371569423,-0.2053684803538313,-0.014223475736346873,0.15304694367316204,0.0,0.0,0.0,0.0,0.0,0.0,0.0,0.0,0.0,0.0,0.0,0.0,0.0,0.0,0.0,0.0,0.0,0.0,0.0,0.0,0.0,0.0,0.0,0.0,0.0,0.0,0.0,0.0,0.0,0.0,0.0,0.0,0.0,0.0,0.0,0.0
4250000000,84,4252000000,world,bluerov2/base_link,-11.878900510906291,-2.5000992434202485,-95.22629396749788,-0.10890695475870153,0.02137926944907345,0.240317345243116,0.9643286657661438,0.0,0.0,0.0,0.0,0.0,0.0,0.0,0.0,0.0,0.0,0.0,0.0,0.0,0.0,0.0,0.0,0.0,0.0,0.0,0.0,0.0,0.0,0.0,0.0,0.0,0.0,0.0,0.0,0.0,0.0,0.0,0.0,0.0,0.0,0.0,0.0,-0.01754558352348014,-2.1251916570492684,-0.6820425418061759,-0.19123274368224716,-0.01837289580360353,0.12192490026048773,0.0,0.0,0.0,0.0,0.0,0.0,0.0,0.0,0.0,0.0,0.0,0.0,0.0,0.0,0.0,0.0,0.0,0.0,0.0,0.0,0.0,0.0,0.0,0.0,0.0,0.0,0.0,0.0,0.0,0.0,0.0,0.0,0.0,0.0,0.0,0.0
4300000000,85,4302000000,world,bluerov2/base_link,-11.879129251351262,-2.6062273094694977,-95.2607727395258,-0.11344689462694839,0.02173281018727195,0.24272193076225781,0.9631944514935225,0.0,0.0,0.0,0.0,0.0,0.0,0.0,0.0,0.0,0.0,0.0,0.0,0.0,0.0,0.0,0.0,0.0,0.0,0.0,0.0,0.0,0.0,0.0,0.0,0.0,0.0,0.0,0.0,0.0,0.0,0.0,0.0,0.0,0.0,0.0,0.0,0.0077055298175703595,-2.1186661879062956,-0.6938046095674294,-0.17351303683892455,-0.01807407650306285,0.0923924149389057,0.0,0.0,0.0,0.0,0.0,0.0,0.0,0.0,0.0,0.0,0.0,0.0,0.0,0.0,0.0,0.0,0.0,0.0,0.0,0.0,0.0,0.0,0.0,0.0,0.0,0.0,0.0,0.0,0.0,0.0,0.0,0.0,0.0,0.0,0.0,0.0
4352000000,86,4352000000,world,bluerov2/base_link,-11.878107255654461,-2.7118140078207986,-95.29556191018195,-0.11764399631307074,0.02207708949548851,0.24449964963329468,0.9622330349661119,0.0,0.0,0.0,0.0,0.0,0.0,0.0,0.0,0.0,0.0,0.0,0.0,0.0,0.0,0.0,0.0,0.0,0.0,0.0,0.0,0.0,0.0,0.0,0.0,0.0,0.0,0.0,0.0,0.0,0.0,0.0,0.0,0.0,0.0,0.0,0.0,0.03176039243626582,-2.1054558316601084,-0.6977462850545342,-0.16223067211387165,-0.019831500173524273,0.06850841292332838,0.0,0.0,0.0,0.0,0.0,0.0,0.0,0.0,0.0,0.0,0.0,0.0,0.0,0.0,0.0,0.0,0.0,0.0,0.0,0.0,0.0,0.0,0.0,0.0,0.0,0.0,0.0,0.0,0.0,0.0,0.0,0.0,0.0,0.0,0.0,0.0
4402000000,87,4402000000,world,bluerov2/base_link,-11.876000124383697,-2.8166924814896386,-95.3304629280962,-0.12153561946023612,0.022288439572128387,0.2457134909929467,0.9614349686837458,0.0,0.0,0.0,0.0,0.0,0.0,0.0,0.0,0.0,0.0,0.0,0.0,0.0,0.0,0.0,0.0,0.0,0.0,0.0,0.0,0.0,0.0,0.0,0.0,0.0,0.0,0.0,0.0,0.0,0.0,0.0,0.0,0.0,0.0,0.0,0.0,0.05077302409528879,-2.0892612966075315,-0.6962410238187455,-0.14666617813407487,-0.027478289602539473,0.046869821720980004,0.0,0.0,0.0,0.0,0.0,0.0,0.0,0.0,0.0,0.0,0.0,0.0,0.0,0.0,0.0,0.0,0.0,0.0,0.0,0.0,0.0,0.0,0.0,0.0,0.0,0.0,0.0,0.0,0.0,0.0,0.0,0.0,0.0,0.0,0.0,0.0
4452000000,88,4452000000,world,bluerov2/base_link,-11.87302480134971,-2.920673933835227,-95.36513590388549,-0.12501875775011786,0.02227559773216808,0.24642543117178559,0.9608062316763414,0.0,0.0,0.0,0.0,0.0,0.0,0.0,0.0,0.0,0.0,0.0,0.0,0.0,0.0,0.0,0.0,0.0,0.0,0.0,0.0,0.0,0.0,0.0,0.0,0.0,0.0,0.0,0.0,0.0,0.0,0.0,0.0,0.0,0.0,0.0,0.0,0.06786483695307963,-2.0711098220370876,-0.6914953622218117,-0.12667764983843838,-0.032683092337968914,0.027548462300667438,0.0,0.0,0.0,0.0,0.0,0.0,0.0,0.0,0.0,0.0,0.0,0.0,0.0,0.0,0.0,0.0,0.0,0.0,0.0,0.0,0.0,0.0,0.0,0.0,0.0,0.0,0.0,0.0,0.0,0.0,0.0,0.0,0.0,0.0,0.0,0.0
4502000000,89,4502000000,world,bluerov2/base_link,-11.869205031946374,-3.0236176455601327,-95.39942629918295,-0.12814757827331694,0.022124855148750275,0.24672525923952812,0.960320433720182,0.0,0.0,0.0,0.0,0.0,0.0,0.0,0.0,0.0,0.0,0.0,0.0,0.0,0.0,0.0,0.0,0.0,0.0,0.0,0.0,0.0,0.0,0.0,0.0,0.0,0.0,0.0,0.0,0.0,0.0,0.0,0.0,0.0,0.0,0.0,0.0,0.08382006328730057,-2.04519670332243,-0.6773651546836668,-0.11754197805312758,-0.03666239421588525,0.014216458424708622,0.0,0.0,0.0,0.0,0.0,0.0,0.0,0.0,0.0,0.0,0.0,0.0,0.0,0.0,0.0,0.0,0.0,0.0,0.0,0.0,0.0,0.0,0.0,0.0,0.0,0.0,0.0,0.0,0.0,0.0,0.0,0.0,0.0,0.0,0.0,0.0
4552000000,90,4552000000,world,bluerov2/base_link,-11.864606878167585,-3.125050320455932,-95.43271851010736,-0.13109071281421253,0.02188381157152934,0.24677050474118672,0.9599169973465118,0.0,0.0,0.0,0.0,0.0,0.0,0.0,0.0,0.0,0.0,0.0,0.0,0.0,0.0,0.0,0.0,0.0,0.0,0.0,0.0,0.0,0.0,0.0,0.0,0.0,0.0,0.0,0.0,0.0,0.0,0.0,0.0,0.0,0.0,0.0,0.0,0.09944300567771724,-2.0132136504245457,-0.6555410022034442,-0.10785732877101666,-0.0386638940122727,0.005642759661787138,0.0,0.0,0.0,0.0,0.0,0.0,0.0,0.0,0.0,0.0,0.0,0.0,0.0,0.0,0.0,0.0,0.0,0.0,0.0,0.0,0.0,0.0,0.0,0.0,0.0,0.0,0.0,0.0,0.0,0.0,0.0,0.0,0.0,0.0,0.0,0.0
4600000000,91,4602000000,world,bluerov2/base_link,-11.85921664145168,-3.2247935310615587,-95.46480986574647,-0.1337573277874102,0.021574262179340515,0.2466550578266986,0.9595857496456982,0.0,0.0,0.0,0.0,0.0,0.0,0.0,0.0,0.0,0.0,0.0,0.0,0.0,0.0,0.0,0.0,0.0,0.0,0.0,0.0,0.0,0.0,0.0,0.0,0.0,0.0,0.0,0.0,0.0,0.0,0.0,0.0,0.0,0.0,0.0,0.0,0.11551410380788292,-1.9771539537869116,-0.6268468594996024,-0.0930118625457025,-0.03799737920762485,0.0006924612355870673,0.0,0.0,0.0,0.0,0.0,0.0,0.0,0.0,0.0,0.0,0.0,0.0,0.0,0.0,0.0,0.0,0.0,0.0,0.0,0.0,0.0,0.0,0.0,0.0,0.0,0.0,0.0,0.0,0.0,0.0,0.0,0.0,0.0,0.0,0.0,0.0
4652000000,92,4652000000,world,bluerov2/base_link,-11.852970804897708,-3.322746114513619,-95.49525161961564,-0.13586566050246585,0.021213357159008253,0.24645240423360515,0.9593496381516745,0.0,0.0,0.0,0.0,0.0,0.0,0.0,0.0,0.0,0.0,0.0,0.0,0.0,0.0,0.0,0.0,0.0,0.0,0.0,0.0,0.0,0.0,0.0,0.0,0.0,0.0,0.0,0.0,0.0,0.0,0.0,0.0,0.0,0.0,0.0,0.0,0.13418683413921034,-1.9426506427570573,-0.5924052992919113,-0.06576869410493912,-0.032662531542651994,-0.0036532815032462593,0.0,0.0,0.0,0.0,0.0,0.0,0.0,0.0,0.0,0.0,0.0,0.0,0.0,0.0,0.0,0.0,0.0,0.0,0.0,0.0,0.0,0.0,0.0,0.0,0.0,0.0,0.0,0.0,0.0,0.0,0.0,0.0,0.0,0.0,0.0,0.0
4702000000,93,4702000000,world,bluerov2/base_link,-11.845709728867982,-3.4189410623087957,-95.52385738613819,-0.1373099308160745,0.020866793935260263,0.2462200628487963,0.9592112595569775,0.0,0.0,0.0,0.0,0.0,0.0,0.0,0.0,0.0,0.0,0.0,0.0,0.0,0.0,0.0,0.0,0.0,0.0,0.0,0.0,0.0,0.0,0.0,0.0,0.0,0.0,0.0,0.0,0.0,0.0,0.0,0.0,0.0,0.0,0.0,0.0,0.15569264325311985,-1.905760412759143,-0.5515327235812897,-0.04110547273880921,-0.02474849455746867,-0.004379852235001636,0.0,0.0,0.0,0.0,0.0,0.0,0.0,0.0,0.0,0.0,0.0,0.0,0.0,0.0,0.0,0.0,0.0,0.0,0.0,0.0,0.0,0.0,0.0,0.0,0.0,0.0,0.0,0.0,0.0,0.0,0.0,0.0,0.0,0.0,0.0,0.0
4752000000,94,4752000000,world,bluerov2/base_link,-11.837321523419062,-3.5132310308867756,-95.55021294879167,-0.13811996936647442,0.02056323111677314,0.24605269232355795,0.9591444626272787,0.0,0.0,0.0,0.0,0.0,0.0,0.0,0.0,0.0,0.0,0.0,0.0,0.0,0.0,0.0,0.0,0.0,0.0,0.0,0.0,0.0,0.0,0.0,0.0,0.0,0.0,0.0,0.0,0.0,0.0,0.0,0.0,0.0,0.0,0.0,0.0,0.17904200344567592,-1.8678607604805728,-0.5050065890245207,-0.016810119164941694,-0.01705121877632775,-0.0024060044958667173,0.0,0.0,0.0,0.0,0.0,0.0,0.0,0.0,0.0,0.0,0.0,0.0,0.0,0.0,0.0,0.0,0.0,0.0,0.0,0.0,0.0,0.0,0.0,0.0,0.0,0.0,0.0,0.0,0.0,0.0,0.0,0.0,0.0,0.0,0.0,0.0
4802000000,95,4802000000,world,bluerov2/base_link,-11.827856368319402,-3.6056276472493884,-95.57429238215168,-0.13830542537086465,0.020199773275016767,0.24598016513515156,0.9591440646913819,0.0,0.0,0.0,0.0,0.0,0.0,0.0,0.0,0.0,0.0,0.0,0.0,0.0,0.0,0.0,0.0,0.0,0.0,0.0,0.0,0.0,0.0,0.0,0.0,0.0,0.0,0.0,0.0,0.0,0.0,0.0,0.0,0.0,0.0,0.0,0.0,0.1986191795399835,-1.8284577163293672,-0.4584395344552888,0.0074169152086187365,-0.01509550797739203,0.0017938024842861543,0.0,0.0,0.0,0.0,0.0,0.0,0.0,0.0,0.0,0.0,0.0,0.0,0.0,0.0,0.0,0.0,0.0,0.0,0.0,0.0,0.0,0.0,0.0,0.0,0.0,0.0,0.0,0.0,0.0,0.0,0.0,0.0,0.0,0.0,0.0,0.0
4852000000,96,4852000000,world,bluerov2/base_link,-11.817342741514139,-3.695988701391787,-95.59589912842013,-0.13794197712441317,0.01978464471607034,0.24607555715548696,0.9591805872467831,0.0,0.0,0.0,0.0,0.0,0.0,0.0,0.0,0.0,0.0,0.0,0.0,0.0,0.0,0.0,0.0,0.0,0.0,0.0,0.0,0.0,0.0,0.0,0.0,0.0,0.0,0.0,0.0,0.0,0.0,0.0,0.0,0.0,0.0,0.0,0.0,0.22121377497870745,-1.7877259228686362,-0.4084307285963999,0.027635202683334713,-0.009144877734509237,0.008841059905084419,0.0,0.0,0.0,0.0,0.0,0.0,0.0,0.0,0.0,0.0,0.0,0.0,0.0,0.0,0.0,0.0,0.0,0.0,0.0,0.0,0.0,0.0,0.0,0.0,0.0,0.0,0.0,0.0,0.0,0.0,0.0,0.0,0.0,0.0,0.0,0.0
4902000000,97,4902000000,world,bluerov2/base_link,-11.805696935453293,-3.784334790830909,-95.61503137043572,-0.13707294394869982,0.019340756904074483,0.24638191907999957,0.9592355774834828,0.0,0.0,0.0,0.0,0.0,0.0,0.0,0.0,0.0,0.0,0.0,0.0,0.0,0.0,0.0,0.0,0.0,0.0,0.0,0.0,0.0,0.0,0.0,0.0,0.0,0.0,0.0,0.0,0.0,0.0,0.0,0.0,0.0,0.0,0.0,0.0,0.24436856637604212,-1.747216272119005,-0.3569872058392759,0.047479828367215204,-0.003974555094092955,0.017423634597881228,0.0,0.0,0.0,0.0,0.0,0.0,0.0,0.0,0.0,0.0,0.0,0.0,0.0,0.0,0.0,0.0,0.0,0.0,0.0,0.0,0.0,0.0,0.0,0.0,0.0,0.0,0.0,0.0,0.0,0.0,0.0,0.0,0.0,0.0,0.0,0.0
4952000000,98,4952000000,world,bluerov2/base_link,-11.792828907976752,-3.8706717272716835,-95.63149186586769,-0.13567412744813212,0.018881548792115694,0.2469435960796832,0.9592991601224476,0.0,0.0,0.0,0.0,0.0,0.0,0.0,0.0,0.0,0.0,0.0,0.0,0.0,0.0,0.0,0.0,0.0,0.0,0.0,0.0,0.0,0.0,0.0,0.0,0.0,0.0,0.0,0.0,0.0,0.0,0.0,0.0,0.0,0.0,0.0,0.0,0.270274221775976,-1.7087152513850685,-0.304057501108766,0.06965190916526413,0.0026707846920629354,0.026825800419640968,0.0,0.0,0.0,0.0,0.0,0.0,0.0,0.0,0.0,0.0,0.0,0.0,0.0,0.0,0.0,0.0,0.0,0.0,0.0,0.0,0.0,0.0,0.0,0.0,0.0,0.0,0.0,0.0,0.0,0.0,0.0,0.0,0.0,0.0,0.0,0.0
5002000000,99,5002000000,world,bluerov2/base_link,-11.778523759929904,-3.955123606444753,-95.64529141365493,-0.13374307299646365,0.018457569600465722,0.2477875379926649,0.959360956348256,0.0,0.0,0.0,0.0,0.0,0.0,0.0,0.0,0.0,0.0,0.0,0.0,0.0,0.0,0.0,0.0,0.0,0.0,0.0,0.0,0.0,0.0,0.0,0.0,0.0,0.0,0.0,0.0,0.0,0.0,0.0,0.0,0.0,0.0,0.0,0.0,0.3010077181644054,-1.6702074288894242,-0.2490227219234891,0.08752790414569997,0.011549604750195838,0.03858121996898555,0.0,0.0,0.0,0.0,0.0,0.0,0.0,0.0,0.0,0.0,0.0,0.0,0.0,0.0,0.0,0.0,0.0,0.0,0.0,0.0,0.0,0.0,0.0,0.0,0.0,0.0,0.0,0.0,0.0,0.0,0.0,0.0,0.0,0.0,0.0,0.0
5052000000,100,5052000000,world,bluerov2/base_link,-11.762686282661189,-4.0375723306369045,-95.65633788582389,-0.13135855765550136,0.018068970368114102,0.24897794964621467,0.9593896091945491,0.0,0.0,0.0,0.0,0.0,0.0,0.0,0.0,0.0,0.0,0.0,0.0,0.0,0.0,0.0,0.0,0.0,0.0,0.0,0.0,0.0,0.0,0.0,0.0,0.0,0.0,0.0,0.0,0.0,0.0,0.0,0.0,0.0,0.0,0.0,0.0,0.3319461145305284,-1.6290541734529689,-0.19497101336586392,0.10309357987286476,0.018489918355174544,0.05268775556835621,0.0,0.0,0.0,0.0,0.0,0.0,0.0,0.0,0.0,0.0,0.0,0.0,0.0,0.0,0.0,0.0,0.0,0.0,0.0,0.0,0.0,0.0,0.0,0.0,0.0,0.0,0.0,0.0,0.0,0.0,0.0,0.0,0.0,0.0,0.0,0.0
5102000000,101,5102000000,world,bluerov2/base_link,-11.745248852293866,-4.117959838332389,-95.66470905772339,-0.12859479477580119,0.017704041888424008,0.2505421302938733,0.959363636274166,0.0,0.0,0.0,0.0,0.0,0.0,0.0,0.0,0.0,0.0,0.0,0.0,0.0,0.0,0.0,0.0,0.0,0.0,0.0,0.0,0.0,0.0,0.0,0.0,0.0,0.0,0.0,0.0,0.0,0.0,0.0,0.0,0.0,0.0,0.0,0.0,0.3643137419151529,-1.588533110207802,-0.14278558335945912,0.11911962561545346,0.024934578100887297,0.06698685669927579,0.0,0.0,0.0,0.0,0.0,0.0,0.0,0.0,0.0,0.0,0.0,0.0,0.0,0.0,0.0,0.0,0.0,0.0,0.0,0.0,0.0,0.0,0.0,0.0,0.0,0.0,0.0,0.0,0.0,0.0,0.0,0.0,0.0,0.0,0.0,0.0
5152000000,102,5152000000,world,bluerov2/base_link,-11.72610239326767,-4.196335445956273,-95.67049698506936,-0.12542245122231588,0.017369239741259826,0.2524912631675413,0.95927872918368,0.0,0.0,0.0,0.0,0.0,0.0,0.0,0.0,0.0,0.0,0.0,0.0,0.0,0.0,0.0,0.0,0.0,0.0,0.0,0.0,0.0,0.0,0.0,0.0,0.0,0.0,0.0,0.0,0.0,0.0,0.0,0.0,0.0,0.0,0.0,0.0,0.4002231568954438,-1.549320257987773,-0.09143249533859854,0.13289822795412023,0.03220871709975115,0.08191332525855763,0.0,0.0,0.0,0.0,0.0,0.0,0.0,0.0,0.0,0.0,0.0,0.0,0.0,0.0,0.0,0.0,0.0,0.0,0.0,0.0,0.0,0.0,0.0,0.0,0.0,0.0,0.0,0.0,0.0,0.0,0.0,0.0,0.0,0.0,0.0,0.0
5202000000,103,5202000000,world,bluerov2/base_link,-11.705061520254178,-4.272886510555328,-95.67373037032277,-0.12190057997510574,0.017072190098970222,0.2547972403818433,0.9591283309446941,0.0,0.0,0.0,0.0,0.0,0.0,0.0,0.0,0.0,0.0,0.0,0.0,0.0,0.0,0.0,0.0,0.0,0.0,0.0,0.0,0.0,0.0,0.0,0.0,0.0,0.0,0.0,0.0,0.0,0.0,0.0,0.0,0.0,0.0,0.0,0.0,0.43953543149852514,-1.5130976964974097,-0.04053201209489605,0.14386544274536056,0.0388203538862546,0.09617262623105884,0.0,0.0,0.0,0.0,0.0,0.0,0.0,0.0,0.0,0.0,0.0,0.0,0.0,0.0,0.0,0.0,0.0,0.0,0.0,0.0,0.0,0.0,0.0,0.0,0.0,0.0,0.0,0.0,0.0,0.0,0.0,0.0,0.0,0.0,0.0,0.0
5252000000,104,5252000000,world,bluerov2/base_link,-11.682085258243848,-4.347575878911667,-95.67451953351683,-0.11811529948719425,0.016797397371214835,0.2574668141464489,0.958893874775453,0.0,0.0,0.0,0.0,0.0,0.0,0.0,0.0,0.0,0.0,0.0,0.0,0.0,0.0,0.0,0.0,0.0,0.0,0.0,0.0,0.0,0.0,0.0,0.0,0.0,0.0,0.0,0.0,0.0,0.0,0.0,0.0,0.0,0.0,0.0,0.0,0.4777797265610024,-1.4763286415527588,0.006204836012921429,0.15303653531082237,0.04298116089001529,0.1099468110176366,0.0,0.0,0.0,0.0,0.0,0.0,0.0,0.0,0.0,0.0,0.0,0.0,0.0,0.0,0.0,0.0,0.0,0.0,0.0,0.0,0.0,0.0,0.0,0.0,0.0,0.0,0.0,0.0,0.0,0.0,0.0,0.0,0.0,0.0,0.0,0.0
5302000000,105,5302000000,world,bluerov2/base_link,-11.657294577752184,-4.420489859766301,-95.67320084201255,-0.11404885093338302,0.016492776982874057,0.26042420563463414,0.9585927607841288,0.0,0.0,0.0,0.0,0.0,0.0,0.0,0.0,0.0,0.0,0.0,0.0,0.0,0.0,0.0,0.0,0.0,0.0,0.0,0.0,0.0,0.0,0.0,0.0,0.0,0.0,0.0,0.0,0.0,0.0,0.0,0.0,0.0,0.0,0.0,0.0,0.5119832854851795,-1.4419060905382843,0.044194160223693844,0.1657044603770035,0.045633757920446424,0.11954862069370589,0.0,0.0,0.0,0.0,0.0,0.0,0.0,0.0,0.0,0.0,0.0,0.0,0.0,0.0,0.0,0.0,0.0,0.0,0.0,0.0,0.0,0.0,0.0,0.0,0.0,0.0,0.0,0.0,0.0,0.0,0.0,0.0,0.0,0.0,0.0,0.0
5352000000,106,5352000000,world,bluerov2/base_link,-11.63081223860053,-4.491781600073461,-95.67010559842562,-0.10967553459895359,0.01615319483532752,0.26357175621088624,0.9582485485170089,0.0,0.0,0.0,0.0,0.0,0.0,0.0,0.0,0.0,0.0,0.0,0.0,0.0,0.0,0.0,0.0,0.0,0.0,0.0,0.0,0.0,0.0,0.0,0.0,0.0,0.0,0.0,0.0,0.0,0.0,0.0,0.0,0.0,0.0,0.0,0.0,0.5451974690616457,-1.4114136412800218,0.07709359903002722,0.1768267861108468,0.04809031541825002,0.1252174067441988,0.0,0.0,0.0,0.0,0.0,0.0,0.0,0.0,0.0,0.0,0.0,0.0,0.0,0.0,0.0,0.0,0.0,0.0,0.0,0.0,0.0,0.0,0.0,0.0,0.0,0.0,0.0,0.0,0.0,0.0,0.0,0.0,0.0,0.0,0.0,0.0
5402000000,107,5402000000,world,bluerov2/base_link,-11.602734528622147,-4.561595890313258,-95.66550280326489,-0.10507423026825127,0.01578790369870866,0.26680814972305883,0.9578745008985742,0.0,0.0,0.0,0.0,0.0,0.0,0.0,0.0,0.0,0.0,0.0,0.0,0.0,0.0,0.0,0.0,0.0,0.0,0.0,0.0,0.0,0.0,0.0,0.0,0.0,0.0,0.0,0.0,0.0,0.0,0.0,0.0,0.0,0.0,0.0,0.0,0.5768315441196835,-1.383206964665948,0.10501960926688422,0.18417245571438667,0.04993123663236375,0.1272916436310552,0.0,0.0,0.0,0.0,0.0,0.0,0.0,0.0,0.0,0.0,0.0,0.0,0.0,0.0,0.0,0.0,0.0,0.0,0.0,0.0,0.0,0.0,0.0,0.0,0.0,0.0,0.0,0.0,0.0,0.0,0.0,0.0,0.0,0.0,0.0,0.0
5452000000,108,5452000000,world,bluerov2/base_link,-11.573056600828094,-4.630110128857862,-95.65962454040731,-0.10031392237877472,0.015424743924446293,0.2700572724522501,0.9574801636835626,0.0,0.0,0.0,0.0,0.0,0.0,0.0,0.0,0.0,0.0,0.0,0.0,0.0,0.0,0.0,0.0,0.0,0.0,0.0,0.0,0.0,0.0,0.0,0.0,0.0,0.0,0.0,0.0,0.0,0.0,0.0,0.0,0.0,0.0,0.0,0.0,0.6088748330609146,-1.3587333681382503,0.1282505709049244,0.18839687007783584,0.05141249126326865,0.12690613898849698,0.0,0.0,0.0,0.0,0.0,0.0,0.0,0.0,0.0,0.0,0.0,0.0,0.0,0.0,0.0,0.0,0.0,0.0,0.0,0.0,0.0,0.0,0.0,0.0,0.0,0.0,0.0,0.0,0.0,0.0,0.0,0.0,0.0,0.0,0.0,0.0
5502000000,109,5502000000,world,bluerov2/base_link,-11.541820480469445,-4.697438017296877,-95.65274921809707,-0.09546779230013269,0.015072477482171102,0.2732701946956334,0.9570695490646951,0.0,0.0,0.0,0.0,0.0,0.0,0.0,0.0,0.0,0.0,0.0,0.0,0.0,0.0,0.0,0.0,0.0,0.0,0.0,0.0,0.0,0.0,0.0,0.0,0.0,0.0,0.0,0.0,0.0,0.0,0.0,0.0,0.0,0.0,0.0,0.0,0.6395003837882927,-1.3353630325859316,0.14512803902583038,0.19066428667109522,0.05266930746031388,0.12504143229653675,0.0,0.0,0.0,0.0,0.0,0.0,0.0,0.0,0.0,0.0,0.0,0.0,0.0,0.0,0.0,0.0,0.0,0.0,0.0,0.0,0.0,0.0,0.0,0.0,0.0,0.0,0.0,0.0,0.0,0.0,0.0,0.0,0.0,0.0,0.0,0.0
5552000000,110,5552000000,world,bluerov2/base_link,-11.509076839769586,-4.7635792664085965,-95.64514231413372,-0.09060703516552053,0.014742342513583072,0.27643222533133166,0.956639040241456,0.0,0.0,0.0,0.0,0.0,0.0,0.0,0.0,0.0,0.0,0.0,0.0,0.0,0.0,0.0,0.0,0.0,0.0,0.0,0.0,0.0,0.0,0.0,0.0,0.0,0.0,0.0,0.0,0.0,0.0,0.0,0.0,0.0,0.0,0.0,0.0,0.6690693482697214,-1.3115948883602657,0.15819375053498935,0.18863988882583757,0.052711539763227885,0.12317427903554246,0.0,0.0,0.0,0.0,0.0,0.0,0.0,0.0,0.0,0.0,0.0,0.0,0.0,0.0,0.0,0.0,0.0,0.0,0.0,0.0,0.0,0.0,0.0,0.0,0.0,0.0,0.0,0.0,0.0,0.0,0.0,0.0,0.0,0.0,0.0,0.0
5602000000,111,5602000000,world,bluerov2/base_link,-11.474858342109172,-4.828576659331243,-95.63691949572726,-0.08584751486356008,0.014424278690304338,0.27953305629350367,0.9561816850448601,0.0,0.0,0.0,0.0,0.0,0.0,0.0,0.0,0.0,0.0,0.0,0.0,0.0,0.0,0.0,0.0,0.0,0.0,0.0,0.0,0.0,0.0,0.0,0.0,0.0,0.0,0.0,0.0,0.0,0.0,0.0,0.0,0.0,0.0,0.0,0.0,0.6981096658792053,-1.2903847867016283,0.16954357538043044,0.18367860624598584,0.05120447020780359,0.12012947193720688,0.0,0.0,0.0,0.0,0.0,0.0,0.0,0.0,0.0,0.0,0.0,0.0,0.0,0.0,0.0,0.0,0.0,0.0,0.0,0.0,0.0,0.0,0.0,0.0,0.0,0.0,0.0,0.0,0.0,0.0,0.0,0.0,0.0,0.0,0.0,0.0
5652000000,112,5652000000,world,bluerov2/base_link,-11.439333945755777,-4.892706518314622,-95.62818615381941,-0.0812176315688537,0.014094418476145015,0.28245356992450005,0.9557327160493516,0.0,0.0,0.0,0.0,0.0,0.0,0.0,0.0,0.0,0.0,0.0,0.0,0.0,0.0,0.0,0.0,0.0,0.0,0.0,0.0,0.0,0.0,0.0,0.0,0.0,0.0,0.0,0.0,0.0,0.0,0.0,0.0,0.0,0.0,0.0,0.0,0.7215336249576789,-1.275839315102438,0.17879521071998458,0.17840633100677156,0.04786004853626323,0.11035480663018654,0.0,0.0,0.0,0.0,0.0,0.0,0.0,0.0,0.0,0.0,0.0,0.0,0.0,0.0,0.0,0.0,0.0,0.0,0.0,0.0,0.0,0.0,0.0,0.0,0.0,0.0,0.0,0.0,0.0,0.0,0.0,0.0,0.0,0.0,0.0,0.0
5702000000,113,5702000000,world,bluerov2/base_link,-11.402622298809577,-4.956199954983898,-95.619050721572,-0.07673484181598397,0.01374734018527547,0.28511998198852306,0.9553163719732697,0.0,0.0,0.0,0.0,0.0,0.0,0.0,0.0,0.0,0.0,0.0,0.0,0.0,0.0,0.0,0.0,0.0,0.0,0.0,0.0,0.0,0.0,0.0,0.0,0.0,0.0,0.0,0.0,0.0,0.0,0.0,0.0,0.0,0.0,0.0,0.0,0.7448743129543131,-1.2642824610942884,0.18650657059170747,0.17215412782683612,0.0445019885284679,0.09998839588294872,0.0,0.0,0.0,0.0,0.0,0.0,0.0,0.0,0.0,0.0,0.0,0.0,0.0,0.0,0.0,0.0,0.0,0.0,0.0,0.0,0.0,0.0,0.0,0.0,0.0,0.0,0.0,0.0,0.0,0.0,0.0,0.0,0.0,0.0,0.0,0.0
5752000000,114,5752000000,world,bluerov2/base_link,-11.364901003601116,-5.019082874832983,-95.60951841496373,-0.07245293387415878,0.01337922582417146,0.2874957684948729,0.9549438474522546,0.0,0.0,0.0,0.0,0.0,0.0,0.0,0.0,0.0,0.0,0.0,0.0,0.0,0.0,0.0,0.0,0.0,0.0,0.0,0.0,0.0,0.0,0.0,0.0,0.0,0.0,0.0,0.0,0.0,0.0,0.0,0.0,0.0,0.0,0.0,0.0,0.7631461473960746,-1.251943348740635,0.19435858502127934,0.16418183759074376,0.04027496505391549,0.08810896748448144,0.0,0.0,0.0,0.0,0.0,0.0,0.0,0.0,0.0,0.0,0.0,0.0,0.0,0.0,0.0,0.0,0.0,0.0,0.0,0.0,0.0,0.0,0.0,0.0,0.0,0.0,0.0,0.0,0.0,0.0,0.0,0.0,0.0,0.0,0.0,0.0
5802000000,115,5802000000,world,bluerov2/base_link,-11.326263337101778,-5.081442801418757,-95.59958882676852,-0.06838310136906306,0.012993316952094417,0.2895669241311349,0.9546234449304943,0.0,0.0,0.0,0.0,0.0,0.0,0.0,0.0,0.0,0.0,0.0,0.0,0.0,0.0,0.0,0.0,0.0,0.0,0.0,0.0,0.0,0.0,0.0,0.0,0.0,0.0,0.0,0.0,0.0,0.0,0.0,0.0,0.0,0.0,0.0,0.0,0.7812241788982353,-1.2434179395668583,0.20225084320615289,0.15673571472485062,0.03661981525481533,0.07543298044918315,0.0,0.0,0.0,0.0,0.0,0.0,0.0,0.0,0.0,0.0,0.0,0.0,0.0,0.0,0.0,0.0,0.0,0.0,0.0,0.0,0.0,0.0,0.0,0.0,0.0,0.0,0.0,0.0,0.0,0.0,0.0,0.0,0.0,0.0,0.0,0.0
5852000000,116,5852000000,world,bluerov2/base_link,-11.286788234505037,-5.143413588832027,-95.5892976220505,-0.06448587001637097,0.01260456696777639,0.29131397509509716,0.9543683069832524,0.0,0.0,0.0,0.0,0.0,0.0,0.0,0.0,0.0,0.0,0.0,0.0,0.0,0.0,0.0,0.0,0.0,0.0,0.0,0.0,0.0,0.0,0.0,0.0,0.0,0.0,0.0,0.0,0.0,0.0,0.0,0.0,0.0,0.0,0.0,0.0,0.796691214545991,-1.236338930943795,0.20941271032982636,0.15033926947319332,0.0338243241631412,0.06230218402480378,0.0,0.0,0.0,0.0,0.0,0.0,0.0,0.0,0.0,0.0,0.0,0.0,0.0,0.0,0.0,0.0,0.0,0.0,0.0,0.0,0.0,0.0,0.0,0.0,0.0,0.0,0.0,0.0,0.0,0.0,0.0,0.0,0.0,0.0,0.0,0.0
5902000000,117,5902000000,world,bluerov2/base_link,-11.246624412780863,-5.205080346296807,-95.57860419659158,-0.06076873018318807,0.01221681121533853,0.2927302592262776,0.9541838954252833,0.0,0.0,0.0,0.0,0.0,0.0,0.0,0.0,0.0,0.0,0.0,0.0,0.0,0.0,0.0,0.0,0.0,0.0,0.0,0.0,0.0,0.0,0.0,0.0,0.0,0.0,0.0,0.0,0.0,0.0,0.0,0.0,0.0,0.0,0.0,0.0,0.8093760448749783,-1.2307530754634646,0.217750694262087,0.1437445499108493,0.031132527513509478,0.04925326278407805,0.0,0.0,0.0,0.0,0.0,0.0,0.0,0.0,0.0,0.0,0.0,0.0,0.0,0.0,0.0,0.0,0.0,0.0,0.0,0.0,0.0,0.0,0.0,0.0,0.0,0.0,0.0,0.0,0.0,0.0,0.0,0.0,0.0,0.0,0.0,0.0
5952000000,118,5952000000,world,bluerov2/base_link,-11.205844966613768,-5.2664797152532525,-95.56748558607103,-0.057210002322668145,0.011837281485409466,0.2938527144561591,0.9540636648610105,0.0,0.0,0.0,0.0,0.0,0.0,0.0,0.0,0.0,0.0,0.0,0.0,0.0,0.0,0.0,0.0,0.0,0.0,0.0,0.0,0.0,0.0,0.0,0.0,0.0,0.0,0.0,0.0,0.0,0.0,0.0,0.0,0.0,0.0,0.0,0.0,0.8213747957728282,-1.2256060235103274,0.22719453460891212,0.1372324884587902,0.028775602426031523,0.03851167893539967,0.0,0.0,0.0,0.0,0.0,0.0,0.0,0.0,0.0,0.0,0.0,0.0,0.0,0.0,0.0,0.0,0.0,0.0,0.0,0.0,0.0,0.0,0.0,0.0,0.0,0.0,0.0,0.0,0.0,0.0,0.0,0.0,0.0,0.0,0.0,0.0
6002000000,119,6002000000,world,bluerov2/base_link,-11.164547617567704,-5.327643432792161,-95.55586103609771,-0.053811615830149456,0.011468499621581495,0.2947157681557696,0.953999685282198,0.0,0.0,0.0,0.0,0.0,0.0,0.0,0.0,0.0,0.0,0.0,0.0,0.0,0.0,0.0,0.0,0.0,0.0,0.0,0.0,0.0,0.0,0.0,0.0,0.0,0.0,0.0,0.0,0.0,0.0,0.0,0.0,0.0,0.0,0.0,0.0,0.8299288988267312,-1.2204438022985766,0.23734306193501264,0.1318803689902795,0.027249468004022618,0.02849604248421179,0.0,0.0,0.0,0.0,0.0,0.0,0.0,0.0,0.0,0.0,0.0,0.0,0.0,0.0,0.0,0.0,0.0,0.0,0.0,0.0,0.0,0.0,0.0,0.0,0.0,0.0,0.0,0.0,0.0,0.0,0.0,0.0,0.0,0.0,0.0,0.0
6052000000,120,6052000000,world,bluerov2/base_link,-11.1228884801264,-5.388533852078059,-95.54367282888255,-0.05055545212731709,0.011116119057592867,0.29535297147956224,0.9539849057482477,0.0,0.0,0.0,0.0,0.0,0.0,0.0,0.0,0.0,0.0,0.0,0.0,0.0,0.0,0.0,0.0,0.0,0.0,0.0,0.0,0.0,0.0,0.0,0.0,0.0,0.0,0.0,0.0,0.0,0.0,0.0,0.0,0.0,0.0,0.0,0.0,0.8357883610293676,-1.2157163221745055,0.2498325040492975,0.12594946157286305,0.025615303222073206,0.019414786205582086,0.0,0.0,0.0,0.0,0.0,0.0,0.0,0.0,0.0,0.0,0.0,0.0,0.0,0.0,0.0,0.0,0.0,0.0,0.0,0.0,0.0,0.0,0.0,0.0,0.0,0.0,0.0,0.0,0.0,0.0,0.0,0.0,0.0,0.0,0.0,0.0
6102000000,121,6102000000,world,bluerov2/base_link,-11.080977103665811,-5.4492159030552125,-95.53081529922574,-0.04744539731812864,0.010780429361589168,0.2957857654097088,0.9540144116296658,0.0,0.0,0.0,0.0,0.0,0.0,0.0,0.0,0.0,0.0,0.0,0.0,0.0,0.0,0.0,0.0,0.0,0.0,0.0,0.0,0.0,0.0,0.0,0.0,0.0,0.0,0.0,0.0,0.0,0.0,0.0,0.0,0.0,0.0,0.0,0.0,0.8402377646327264,-1.2117576017667402,0.2641850414353603,0.12011751841102528,0.02408184571389272,0.012127171089698527,0.0,0.0,0.0,0.0,0.0,0.0,0.0,0.0,0.0,0.0,0.0,0.0,0.0,0.0,0.0,0.0,0.0,0.0,0.0,0.0,0.0,0.0,0.0,0.0,0.0,0.0,0.0,0.0,0.0,0.0,0.0,0.0,0.0,0.0,0.0,0.0
6152000000,122,6152000000,world,bluerov2/base_link,-11.038834013002523,-5.509710741916559,-95.51722060098766,-0.0444665561398553,0.010460742413819188,0.29607842967367937,0.9540706796328986,0.0,0.0,0.0,0.0,0.0,0.0,0.0,0.0,0.0,0.0,0.0,0.0,0.0,0.0,0.0,0.0,0.0,0.0,0.0,0.0,0.0,0.0,0.0,0.0,0.0,0.0,0.0,0.0,0.0,0.0,0.0,0.0,0.0,0.0,0.0,0.0,0.8454288394399616,-1.20848881496172,0.27908126981463693,0.1156322153704192,0.02324689533453577,0.00809935649690698,0.0,0.0,0.0,0.0,0.0,0.0,0.0,0.0,0.0,0.0,0.0,0.0,0.0,0.0,0.0,0.0,0.0,0.0,0.0,0.0,0.0,0.0,0.0,0.0,0.0,0.0,0.0,0.0,0.0,0.0,0.0,0.0,0.0,0.0,0.0,0.0
6202000000,123,6202000000,world,bluerov2/base_link,-10.996466411998297,-5.570096448641057,-95.50289437976734,-0.04157164722931588,0.01016848204393049,0.29628035601287045,0.954141682749711,0.0,0.0,0.0,0.0,0.0,0.0,0.0,0.0,0.0,0.0,0.0,0.0,0.0,0.0,0.0,0.0,0.0,0.0,0.0,0.0,0.0,0.0,0.0,0.0,0.0,0.0,0.0,0.0,0.0,0.0,0.0,0.0,0.0,0.0,0.0,0.0,0.848975713797122,-1.2067318136981526,0.2934950433498067,0.11280894243031248,0.02366901173683014,0.004916404747818694,0.0,0.0,0.0,0.0,0.0,0.0,0.0,0.0,0.0,0.0,0.0,0.0,0.0,0.0,0.0,0.0,0.0,0.0,0.0,0.0,0.0,0.0,0.0,0.0,0.0,0.0,0.0,0.0,0.0,0.0,0.0,0.0,0.0,0.0,0.0,0.0
6252000000,124,6252000000,world,bluerov2/base_link,-10.953924482459499,-5.630397039761784,-95.4877680439621,-0.038770541695382306,0.009901950209433442,0.2964366425893667,0.9542138719433085,0.0,0.0,0.0,0.0,0.0,0.0,0.0,0.0,0.0,0.0,0.0,0.0,0.0,0.0,0.0,0.0,0.0,0.0,0.0,0.0,0.0,0.0,0.0,0.0,0.0,0.0,0.0,0.0,0.0,0.0,0.0,0.0,0.0,0.0,0.0,0.0,0.8524694073964287,-1.2059168598265648,0.3109099004767168,0.1081556370822492,0.02307921853568843,0.003983200661532054,0.0,0.0,0.0,0.0,0.0,0.0,0.0,0.0,0.0,0.0,0.0,0.0,0.0,0.0,0.0,0.0,0.0,0.0,0.0,0.0,0.0,0.0,0.0,0.0,0.0,0.0,0.0,0.0,0.0,0.0,0.0,0.0,0.0,0.0,0.0,0.0
6302000000,125,6302000000,world,bluerov2/base_link,-10.911241412407595,-5.690680194419596,-95.47179906769597,-0.03604443482265135,0.009666427087040455,0.2965811448632879,0.9542782526167449,0.0,0.0,0.0,0.0,0.0,0.0,0.0,0.0,0.0,0.0,0.0,0.0,0.0,0.0,0.0,0.0,0.0,0.0,0.0,0.0,0.0,0.0,0.0,0.0,0.0,0.0,0.0,0.0,0.0,0.0,0.0,0.0,0.0,0.0,0.0,0.0,0.854742121553029,-1.2055998734793514,0.3267300024840286,0.10635406598653778,0.02418385210404926,0.004318665723077502,0.0,0.0,0.0,0.0,0.0,0.0,0.0,0.0,0.0,0.0,0.0,0.0,0.0,0.0,0.0,0.0,0.0,0.0,0.0,0.0,0.0,0.0,0.0,0.0,0.0,0.0,0.0,0.0,0.0,0.0,0.0,0.0,0.0,0.0,0.0,0.0
6352000000,126,6352000000,world,bluerov2/base_link,-10.868402842161492,-5.750948504040622,-95.45509070329635,-0.033329686657881163,0.009466949246145523,0.29677641243103153,0.954318222546245,0.0,0.0,0.0,0.0,0.0,0.0,0.0,0.0,0.0,0.0,0.0,0.0,0.0,0.0,0.0,0.0,0.0,0.0,0.0,0.0,0.0,0.0,0.0,0.0,0.0,0.0,0.0,0.0,0.0,0.0,0.0,0.0,0.0,0.0,0.0,0.0,0.8600284757290025,-1.205142080572865,0.34084334758394236,0.1060357406845821,0.025192144470619134,0.009395224613650983,0.0,0.0,0.0,0.0,0.0,0.0,0.0,0.0,0.0,0.0,0.0,0.0,0.0,0.0,0.0,0.0,0.0,0.0,0.0,0.0,0.0,0.0,0.0,0.0,0.0,0.0,0.0,0.0,0.0,0.0,0.0,0.0,0.0,0.0,0.0,0.0
6402000000,127,6402000000,world,bluerov2/base_link,-10.825114960212526,-5.81122762392072,-95.43766489187152,-0.030646895400427823,0.009269155774335796,0.2971693070501451,0.9542878252921826,0.0,0.0,0.0,0.0,0.0,0.0,0.0,0.0,0.0,0.0,0.0,0.0,0.0,0.0,0.0,0.0,0.0,0.0,0.0,0.0,0.0,0.0,0.0,0.0,0.0,0.0,0.0,0.0,0.0,0.0,0.0,0.0,0.0,0.0,0.0,0.0,0.8707372884364047,-1.2067441854456822,0.3558247452295162,0.10315742278706488,0.024536098613438785,0.018944397588926295,0.0,0.0,0.0,0.0,0.0,0.0,0.0,0.0,0.0,0.0,0.0,0.0,0.0,0.0,0.0,0.0,0.0,0.0,0.0,0.0,0.0,0.0,0.0,0.0,0.0,0.0,0.0,0.0,0.0,0.0,0.0,0.0,0.0,0.0,0.0,0.0
6452000000,128,6452000000,world,bluerov2/base_link,-10.7813696928629,-5.87168798236196,-95.41943754631211,-0.028078653369105047,0.009084730187197175,0.29775115058132484,0.9541872506116925,0.0,0.0,0.0,0.0,0.0,0.0,0.0,0.0,0.0,0.0,0.0,0.0,0.0,0.0,0.0,0.0,0.0,0.0,0.0,0.0,0.0,0.0,0.0,0.0,0.0,0.0,0.0,0.0,0.0,0.0,0.0,0.0,0.0,0.0,0.0,0.0,0.8785973631438249,-1.2116371596848021,0.372472741538363,0.09806954440369181,0.024137302362925418,0.026250941480084493,0.0,0.0,0.0,0.0,0.0,0.0,0.0,0.0,0.0,0.0,0.0,0.0,0.0,0.0,0.0,0.0,0.0,0.0,0.0,0.0,0.0,0.0,0.0,0.0,0.0,0.0,0.0,0.0,0.0,0.0,0.0,0.0,0.0,0.0,0.0,0.0
6502000000,129,6502000000,world,bluerov2/base_link,-10.737314334796588,-5.9323962557197465,-95.40043297246623,-0.02559645298042754,0.008935489476347187,0.2984969370906162,0.95402544891117,0.0,0.0,0.0,0.0,0.0,0.0,0.0,0.0,0.0,0.0,0.0,0.0,0.0,0.0,0.0,0.0,0.0,0.0,0.0,0.0,0.0,0.0,0.0,0.0,0.0,0.0,0.0,0.0,0.0,0.0,0.0,0.0,0.0,0.0,0.0,0.0,0.8832405930765543,-1.2153545199500688,0.38703550713768886,0.09547132345027351,0.02514587287259821,0.03349623647874384,0.0,0.0,0.0,0.0,0.0,0.0,0.0,0.0,0.0,0.0,0.0,0.0,0.0,0.0,0.0,0.0,0.0,0.0,0.0,0.0,0.0,0.0,0.0,0.0,0.0,0.0,0.0,0.0,0.0,0.0,0.0,0.0,0.0,0.0,0.0,0.0
6552000000,130,6552000000,world,bluerov2/base_link,-10.692960387637433,-5.993193410382575,-95.38075515808367,-0.023150754098795818,0.008803513449480367,0.29947660723222036,0.9537821042860264,0.0,0.0,0.0,0.0,0.0,0.0,0.0,0.0,0.0,0.0,0.0,0.0,0.0,0.0,0.0,0.0,0.0,0.0,0.0,0.0,0.0,0.0,0.0,0.0,0.0,0.0,0.0,0.0,0.0,0.0,0.0,0.0,0.0,0.0,0.0,0.0,0.8904666227063327,-1.216177908114813,0.3992021506734234,0.09484498997458625,0.025598790408889467,0.04543655614055339,0.0,0.0,0.0,0.0,0.0,0.0,0.0,0.0,0.0,0.0,0.0,0.0,0.0,0.0,0.0,0.0,0.0,0.0,0.0,0.0,0.0,0.0,0.0,0.0,0.0,0.0,0.0,0.0,0.0,0.0,0.0,0.0,0.0,0.0,0.0,0.0
6602000000,131,6602000000,world,bluerov2/base_link,-10.64828599036641,-6.054085575056742,-95.36051021853991,-0.020736946767620182,0.008693300122284904,0.3007221423417402,0.9534466941980212,0.0,0.0,0.0,0.0,0.0,0.0,0.0,0.0,0.0,0.0,0.0,0.0,0.0,0.0,0.0,0.0,0.0,0.0,0.0,0.0,0.0,0.0,0.0,0.0,0.0,0.0,0.0,0.0,0.0,0.0,0.0,0.0,0.0,0.0,0.0,0.0,0.8965560842549347,-1.219994594609733,0.4105176365764661,0.0912678202422024,0.02568794028017657,0.055627393832828484,0.0,0.0,0.0,0.0,0.0,0.0,0.0,0.0,0.0,0.0,0.0,0.0,0.0,0.0,0.0,0.0,0.0,0.0,0.0,0.0,0.0,0.0,0.0,0.0,0.0,0.0,0.0,0.0,0.0,0.0,0.0,0.0,0.0,0.0,0.0,0.0
6652000000,132,6652000000,world,bluerov2/base_link,-10.603272109392604,-6.115259053836469,-95.33965294384636,-0.01847189630692162,0.008591502914119722,0.3021993106816485,0.9530270467033135,0.0,0.0,0.0,0.0,0.0,0.0,0.0,0.0,0.0,0.0,0.0,0.0,0.0,0.0,0.0,0.0,0.0,0.0,0.0,0.0,0.0,0.0,0.0,0.0,0.0,0.0,0.0,0.0,0.0,0.0,0.0,0.0,0.0,0.0,0.0,0.0,0.903855177644502,-1.2268512583275546,0.4225434760032404,0.0853941647395721,0.02415638362260513,0.06546152963250078,0.0,0.0,0.0,0.0,0.0,0.0,0.0,0.0,0.0,0.0,0.0,0.0,0.0,0.0,0.0,0.0,0.0,0.0,0.0,0.0,0.0,0.0,0.0,0.0,0.0,0.0,0.0,0.0,0.0,0.0,0.0,0.0,0.0,0.0,0.0,0.0
6702000000,133,6702000000,world,bluerov2/base_link,-10.55794765289724,-6.1767513611488996,-95.31829469632238,-0.01630853245358341,0.008506004364196986,0.30389745080556224,0.9525271749681726,0.0,0.0,0.0,0.0,0.0,0.0,0.0,0.0,0.0,0.0,0.0,0.0,0.0,0.0,0.0,0.0,0.0,0.0,0.0,0.0,0.0,0.0,0.0,0.0,0.0,0.0,0.0,0.0,0.0,0.0,0.0,0.0,0.0,0.0,0.0,0.0,0.9075566035344521,-1.231977153714422,0.4307093194182492,0.0826263485824704,0.02501470623861992,0.07368081742154847,0.0,0.0,0.0,0.0,0.0,0.0,0.0,0.0,0.0,0.0,0.0,0.0,0.0,0.0,0.0,0.0,0.0,0.0,0.0,0.0,0.0,0.0,0.0,0.0,0.0,0.0,0.0,0.0,0.0,0.0,0.0,0.0,0.0,0.0,0.0,0.0
6752000000,134,6752000000,world,bluerov2/base_link,-10.512558862273625,-6.238433785047632,-95.29668400726054,-0.014150441465913545,0.0084735922961193,0.3057650888861006,0.9519641136400016,0.0,0.0,0.0,0.0,0.0,0.0,0.0,0.0,0.0,0.0,0.0,0.0,0.0,0.0,0.0,0.0,0.0,0.0,0.0,0.0,0.0,0.0,0.0,0.0,0.0,0.0,0.0,0.0,0.0,0.0,0.0,0.0,0.0,0.0,0.0,0.0,0.9088084766363228,-1.235446128556927,0.43293635090383054,0.08316355917209411,0.02723284577234208,0.0811968790612868,0.0,0.0,0.0,0.0,0.0,0.0,0.0,0.0,0.0,0.0,0.0,0.0,0.0,0.0,0.0,0.0,0.0,0.0,0.0,0.0,0.0,0.0,0.0,0.0,0.0,0.0,0.0,0.0,0.0,0.0,0.0,0.0,0.0,0.0,0.0,0.0
6802000000,135,6802000000,world,bluerov2/base_link,-10.4669967467614,-6.300231045329199,-95.27505357902035,-0.01197488493833274,0.008450106238146904,0.3078639449498036,0.9513175018022227,0.0,0.0,0.0,0.0,0.0,0.0,0.0,0.0,0.0,0.0,0.0,0.0,0.0,0.0,0.0,0.0,0.0,0.0,0.0,0.0,0.0,0.0,0.0,0.0,0.0,0.0,0.0,0.0,0.0,0.0,0.0,0.0,0.0,0.0,0.0,0.0,0.9138858724593648,-1.2357529305199733,0.4319902632001588,0.08321534512708434,0.026528308784288322,0.09300059369168749,0.0,0.0,0.0,0.0,0.0,0.0,0.0,0.0,0.0,0.0,0.0,0.0,0.0,0.0,0.0,0.0,0.0,0.0,0.0,0.0,0.0,0.0,0.0,0.0,0.0,0.0,0.0,0.0,0.0,0.0,0.0,0.0,0.0,0.0,0.0,0.0
6852000000,136,6852000000,world,bluerov2/base_link,-10.421138510795672,-6.362054599544808,-95.25343423039027,-0.009902003438868745,0.008393857387717031,0.3102382005009957,0.9505702248839668,0.0,0.0,0.0,0.0,0.0,0.0,0.0,0.0,0.0,0.0,0.0,0.0,0.0,0.0,0.0,0.0,0.0,0.0,0.0,0.0,0.0,0.0,0.0,0.0,0.0,0.0,0.0,0.0,0.0,0.0,0.0,0.0,0.0,0.0,0.0,0.0,0.9195091533479467,-1.237265886493404,0.4326059462615524,0.07712359143284876,0.023610622708336998,0.10379457798552365,0.0,0.0,0.0,0.0,0.0,0.0,0.0,0.0,0.0,0.0,0.0,0.0,0.0,0.0,0.0,0.0,0.0,0.0,0.0,0.0,0.0,0.0,0.0,0.0,0.0,0.0,0.0,0.0,0.0,0.0,0.0,0.0,0.0,0.0,0.0,0.0
6902000000,137,6902000000,world,bluerov2/base_link,-10.37511277202418,-6.423937304452277,-95.2319296331629,-0.007933402121134253,0.00834478327621801,0.312830561660029,0.9497391565131599,0.0,0.0,0.0,0.0,0.0,0.0,0.0,0.0,0.0,0.0,0.0,0.0,0.0,0.0,0.0,0.0,0.0,0.0,0.0,0.0,0.0,0.0,0.0,0.0,0.0,0.0,0.0,0.0,0.0,0.0,0.0,0.0,0.0,0.0,0.0,0.0,0.9224633362063184,-1.2377907764786116,0.4266704028627034,0.07519309977036408,0.023567646687821166,0.11299147675703265,0.0,0.0,0.0,0.0,0.0,0.0,0.0,0.0,0.0,0.0,0.0,0.0,0.0,0.0,0.0,0.0,0.0,0.0,0.0,0.0,0.0,0.0,0.0,0.0,0.0,0.0,0.0,0.0,0.0,0.0,0.0,0.0,0.0,0.0,0.0,0.0
6952000000,138,6952000000,world,bluerov2/base_link,-10.328946143830356,-6.485810109157493,-95.21078737749109,-0.006039343538296162,0.00830008823458401,0.31563584143269263,0.9488248787147188,0.0,0.0,0.0,0.0,0.0,0.0,0.0,0.0,0.0,0.0,0.0,0.0,0.0,0.0,0.0,0.0,0.0,0.0,0.0,0.0,0.0,0.0,0.0,0.0,0.0,0.0,0.0,0.0,0.0,0.0,0.0,0.0,0.0,0.0,0.0,0.0,0.9233190700121446,-1.2367442387900518,0.4194630868775487,0.07104218910583757,0.022910586994030396,0.12114749141499884,0.0,0.0,0.0,0.0,0.0,0.0,0.0,0.0,0.0,0.0,0.0,0.0,0.0,0.0,0.0,0.0,0.0,0.0,0.0,0.0,0.0,0.0,0.0,0.0,0.0,0.0,0.0,0.0,0.0,0.0,0.0,0.0,0.0,0.0,0.0,0.0
7002000000,139,7002000000,world,bluerov2/base_link,-10.282685257420304,-6.5476909371973235,-95.19004854254422,-0.004291476889707403,0.008249076208425654,0.3186171784034637,0.9478378709431419,0.0,0.0,0.0,0.0,0.0,0.0,0.0,0.0,0.0,0.0,0.0,0.0,0.0,0.0,0.0,0.0,0.0,0.0,0.0,0.0,0.0,0.0,0.0,0.0,0.0,0.0,0.0,0.0,0.0,0.0,0.0,0.0,0.0,0.0,0.0,0.0,0.9272667361802862,-1.2387084084502438,0.4095432710059333,0.06475569093417478,0.01947662404608768,0.128254385912163,0.0,0.0,0.0,0.0,0.0,0.0,0.0,0.0,0.0,0.0,0.0,0.0,0.0,0.0,0.0,0.0,0.0,0.0,0.0,0.0,0.0,0.0,0.0,0.0,0.0,0.0,0.0,0.0,0.0,0.0,0.0,0.0,0.0,0.0,0.0,0.0
7052000000,140,7052000000,world,bluerov2/base_link,-10.23619478934106,-6.609632635897286,-95.16990315515805,-0.0027101003633906557,0.00815507515748117,0.32176452358634056,0.9467807251240656,0.0,0.0,0.0,0.0,0.0,0.0,0.0,0.0,0.0,0.0,0.0,0.0,0.0,0.0,0.0,0.0,0.0,0.0,0.0,0.0,0.0,0.0,0.0,0.0,0.0,0.0,0.0,0.0,0.0,0.0,0.0,0.0,0.0,0.0,0.0,0.0,0.9322821210243839,-1.2390387013573818,0.39734482336367527,0.05867802868539067,0.015250602813746086,0.13615748970071342,0.0,0.0,0.0,0.0,0.0,0.0,0.0,0.0,0.0,0.0,0.0,0.0,0.0,0.0,0.0,0.0,0.0,0.0,0.0,0.0,0.0,0.0,0.0,0.0,0.0,0.0,0.0,0.0,0.0,0.0,0.0,0.0,0.0,0.0,0.0,0.0
7102000000,141,7102000000,world,bluerov2/base_link,-10.18951611612956,-6.67159370014243,-95.15034327616951,-0.0013406523681574148,0.008021526413105272,0.32507137027709665,0.9456545151329857,0.0,0.0,0.0,0.0,0.0,0.0,0.0,0.0,0.0,0.0,0.0,0.0,0.0,0.0,0.0,0.0,0.0,0.0,0.0,0.0,0.0,0.0,0.0,0.0,0.0,0.0,0.0,0.0,0.0,0.0,0.0,0.0,0.0,0.0,0.0,0.0,0.9336249308570843,-1.2399100740747573,0.38562737882043446,0.049939524362206736,0.011570367681983683,0.14089366129291625,0.0,0.0,0.0,0.0,0.0,0.0,0.0,0.0,0.0,0.0,0.0,0.0,0.0,0.0,0.0,0.0,0.0,0.0,0.0,0.0,0.0,0.0,0.0,0.0,0.0,0.0,0.0,0.0,0.0,0.0,0.0,0.0,0.0,0.0,0.0,0.0
7152000000,142,7152000000,world,bluerov2/base_link,-10.142844065042546,-6.733681637047705,-95.1314411335228,-0.00020308503927256798,0.007882425496479543,0.3284288500276637,0.9444958001993792,0.0,0.0,0.0,0.0,0.0,0.0,0.0,0.0,0.0,0.0,0.0,0.0,0.0,0.0,0.0,0.0,0.0,0.0,0.0,0.0,0.0,0.0,0.0,0.0,0.0,0.0,0.0,0.0,0.0,0.0,0.0,0.0,0.0,0.0,0.0,0.0,0.9330247728527765,-1.243493726871544,0.37085526934425966,0.04235337654385763,0.008749554677746652,0.14243859566502812,0.0,0.0,0.0,0.0,0.0,0.0,0.0,0.0,0.0,0.0,0.0,0.0,0.0,0.0,0.0,0.0,0.0,0.0,0.0,0.0,0.0,0.0,0.0,0.0,0.0,0.0,0.0,0.0,0.0,0.0,0.0,0.0,0.0,0.0,0.0,0.0
7202000000,143,7202000000,world,bluerov2/base_link,-10.096171856765984,-6.79595230284642,-95.11334299855096,0.0007496832644841036,0.007725375020417121,0.33182880273272,0.9433076922366141,0.0,0.0,0.0,0.0,0.0,0.0,0.0,0.0,0.0,0.0,0.0,0.0,0.0,0.0,0.0,0.0,0.0,0.0,0.0,0.0,0.0,0.0,0.0,0.0,0.0,0.0,0.0,0.0,0.0,0.0,0.0,0.0,0.0,0.0,0.0,0.0,0.9335877767910563,-1.2463029054930619,0.35277527226910427,0.03696399017902214,0.005715925790297124,0.14523832057713837,0.0,0.0,0.0,0.0,0.0,0.0,0.0,0.0,0.0,0.0,0.0,0.0,0.0,0.0,0.0,0.0,0.0,0.0,0.0,0.0,0.0,0.0,0.0,0.0,0.0,0.0,0.0,0.0,0.0,0.0,0.0,0.0,0.0,0.0,0.0,0.0
7252000000,144,7252000000,world,bluerov2/base_link,-10.049493049147982,-6.858299024506934,-95.09622158254686,0.0015635472532801449,0.007543764914525105,0.3352938459111013,0.942082100363362,0.0,0.0,0.0,0.0,0.0,0.0,0.0,0.0,0.0,0.0,0.0,0.0,0.0,0.0,0.0,0.0,0.0,0.0,0.0,0.0,0.0,0.0,0.0,0.0,0.0,0.0,0.0,0.0,0.0,0.0,0.0,0.0,0.0,0.0,0.0,0.0,0.9337068266813693,-1.247630875571876,0.3334708000244402,0.031055179238381265,0.0024094590468611947,0.14814024869894885,0.0,0.0,0.0,0.0,0.0,0.0,0.0,0.0,0.0,0.0,0.0,0.0,0.0,0.0,0.0,0.0,0.0,0.0,0.0,0.0,0.0,0.0,0.0,0.0,0.0,0.0,0.0,0.0,0.0,0.0,0.0,0.0,0.0,0.0,0.0,0.0
7302000000,145,7302000000,world,bluerov2/base_link,-10.002860674523737,-6.920704388655166,-95.0800879479391,0.0022148186717785047,0.007343632207999209,0.33879996110856586,0.9408271637219447,0.0,0.0,0.0,0.0,0.0,0.0,0.0,0.0,0.0,0.0,0.0,0.0,0.0,0.0,0.0,0.0,0.0,0.0,0.0,0.0,0.0,0.0,0.0,0.0,0.0,0.0,0.0,0.0,0.0,0.0,0.0,0.0,0.0,0.0,0.0,0.0,0.9317803437976774,-1.2485788113456682,0.3123724602179174,0.02572345840633034,0.0001020134716026239,0.14911124032418832,0.0,0.0,0.0,0.0,0.0,0.0,0.0,0.0,0.0,0.0,0.0,0.0,0.0,0.0,0.0,0.0,0.0,0.0,0.0,0.0,0.0,0.0,0.0,0.0,0.0,0.0,0.0,0.0,0.0,0.0,0.0,0.0,0.0,0.0,0.0,0.0
7352000000,146,7352000000,world,bluerov2/base_link,-9.956285036460423,-6.98315019861331,-95.06501795149325,0.0026979714479760802,0.00711773092418241,0.34232510299641,0.939550734508283,0.0,0.0,0.0,0.0,0.0,0.0,0.0,0.0,0.0,0.0,0.0,0.0,0.0,0.0,0.0,0.0,0.0,0.0,0.0,0.0,0.0,0.0,0.0,0.0,0.0,0.0,0.0,0.0,0.0,0.0,0.0,0.0,0.0,0.0,0.0,0.0,0.9301260947933483,-1.2489691900373165,0.2915185751776569,0.0192914983294497,-0.0033780334278695175,0.1499242358288496,0.0,0.0,0.0,0.0,0.0,0.0,0.0,0.0,0.0,0.0,0.0,0.0,0.0,0.0,0.0,0.0,0.0,0.0,0.0,0.0,0.0,0.0,0.0,0.0,0.0,0.0,0.0,0.0,0.0,0.0,0.0,0.0,0.0,0.0,0.0,0.0
7402000000,147,7402000000,world,bluerov2/base_link,-9.909843338253564,-7.0455363597998995,-95.05100909363911,0.0030235935626574018,0.006866757388772245,0.34586711051690344,0.9382535091261953,0.0,0.0,0.0,0.0,0.0,0.0,0.0,0.0,0.0,0.0,0.0,0.0,0.0,0.0,0.0,0.0,0.0,0.0,0.0,0.0,0.0,0.0,0.0,0.0,0.0,0.0,0.0,0.0,0.0,0.0,0.0,0.0,0.0,0.0,0.0,0.0,0.9284355634529866,-1.2450872367211063,0.2694537840985745,0.01497003206988265,-0.006805944645158662,0.1527236947076881,0.0,0.0,0.0,0.0,0.0,0.0,0.0,0.0,0.0,0.0,0.0,0.0,0.0,0.0,0.0,0.0,0.0,0.0,0.0,0.0,0.0,0.0,0.0,0.0,0.0,0.0,0.0,0.0,0.0,0.0,0.0,0.0,0.0,0.0,0.0,0.0
7452000000,148,7452000000,world,bluerov2/base_link,-9.863462644466065,-7.1075684380503015,-95.03806617557804,0.0032011015133695964,0.006561138682231992,0.3495118673603896,0.9369034950209904,0.0,0.0,0.0,0.0,0.0,0.0,0.0,0.0,0.0,0.0,0.0,0.0,0.0,0.0,0.0,0.0,0.0,0.0,0.0,0.0,0.0,0.0,0.0,0.0,0.0,0.0,0.0,0.0,0.0,0.0,0.0,0.0,0.0,0.0,0.0,0.0,0.9265980786848395,-1.2356350964677294,0.24964793954364417,0.009187088864103266,-0.011274279428502346,0.15827487353995198,0.0,0.0,0.0,0.0,0.0,0.0,0.0,0.0,0.0,0.0,0.0,0.0,0.0,0.0,0.0,0.0,0.0,0.0,0.0,0.0,0.0,0.0,0.0,0.0,0.0,0.0,0.0,0.0,0.0,0.0,0.0,0.0,0.0,0.0,0.0,0.0
7502000000,149,7502000000,world,bluerov2/base_link,-9.817163164594675,-7.169081062577952,-95.02604021453524,0.003177166379882056,0.006200422900389751,0.35329093138595297,0.9354875617399179,0.0,0.0,0.0,0.0,0.0,0.0,0.0,0.0,0.0,0.0,0.0,0.0,0.0,0.0,0.0,0.0,0.0,0.0,0.0,0.0,0.0,0.0,0.0,0.0,0.0,0.0,0.0,0.0,0.0,0.0,0.0,0.0,0.0,0.0,0.0,0.0,0.9256173537114076,-1.225791654476771,0.23206098662504424,0.0017129348060164664,-0.016358753726430753,0.16376542302874636,0.0,0.0,0.0,0.0,0.0,0.0,0.0,0.0,0.0,0.0,0.0,0.0,0.0,0.0,0.0,0.0,0.0,0.0,0.0,0.0,0.0,0.0,0.0,0.0,0.0,0.0,0.0,0.0,0.0,0.0,0.0,0.0,0.0,0.0,0.0,0.0
7552000000,150,7552000000,world,bluerov2/base_link,-9.770873921664164,-7.230109845953805,-95.01484261936022,0.002920562406354709,0.005785801036988116,0.3571871889521647,0.9340103355263482,0.0,0.0,0.0,0.0,0.0,0.0,0.0,0.0,0.0,0.0,0.0,0.0,0.0,0.0,0.0,0.0,0.0,0.0,0.0,0.0,0.0,0.0,0.0,0.0,0.0,0.0,0.0,0.0,0.0,0.0,0.0,0.0,0.0,0.0,0.0,0.0,0.9264429338555095,-1.215736991834569,0.21633687259545767,-0.005925954075144214,-0.02165397553503444,0.1696157370986837,0.0,0.0,0.0,0.0,0.0,0.0,0.0,0.0,0.0,0.0,0.0,0.0,0.0,0.0,0.0,0.0,0.0,0.0,0.0,0.0,0.0,0.0,0.0,0.0,0.0,0.0,0.0,0.0,0.0,0.0,0.0,0.0,0.0,0.0,0.0,0.0
7602000000,151,7602000000,world,bluerov2/base_link,-9.724508414301177,-7.290634346069638,-95.00445261450676,0.0024785444005105722,0.005325944693757011,0.3612103671791127,0.9324658501913645,0.0,0.0,0.0,0.0,0.0,0.0,0.0,0.0,0.0,0.0,0.0,0.0,0.0,0.0,0.0,0.0,0.0,0.0,0.0,0.0,0.0,0.0,0.0,0.0,0.0,0.0,0.0,0.0,0.0,0.0,0.0,0.0,0.0,0.0,0.0,0.0,0.9279166755524331,-1.2057040424649967,0.19997084764668194,-0.01140913564648102,-0.025219135402782686,0.17452696118053973,0.0,0.0,0.0,0.0,0.0,0.0,0.0,0.0,0.0,0.0,0.0,0.0,0.0,0.0,0.0,0.0,0.0,0.0,0.0,0.0,0.0,0.0,0.0,0.0,0.0,0.0,0.0,0.0,0.0,0.0,0.0,0.0,0.0,0.0,0.0,0.0
7652000000,152,7652000000,world,bluerov2/base_link,-9.678142297233904,-7.350698934136978,-94.99497297902512,0.0019410014219198653,0.004858073965173418,0.36528891073575764,0.930879499894757,0.0,0.0,0.0,0.0,0.0,0.0,0.0,0.0,0.0,0.0,0.0,0.0,0.0,0.0,0.0,0.0,0.0,0.0,0.0,0.0,0.0,0.0,0.0,0.0,0.0,0.0,0.0,0.0,0.0,0.0,0.0,0.0,0.0,0.0,0.0,0.0,0.9278070656184912,-1.1969083490642687,0.17934755200787264,-0.01233527211916961,-0.025232543753485707,0.176394333975547,0.0,0.0,0.0,0.0,0.0,0.0,0.0,0.0,0.0,0.0,0.0,0.0,0.0,0.0,0.0,0.0,0.0,0.0,0.0,0.0,0.0,0.0,0.0,0.0,0.0,0.0,0.0,0.0,0.0,0.0,0.0,0.0,0.0,0.0,0.0,0.0
7702000000,153,7702000000,world,bluerov2/base_link,-9.631733824223245,-7.410246396025371,-94.98656609450695,0.0014010066013001809,0.004395732872099809,0.36943107224755556,0.9292466828410213,0.0,0.0,0.0,0.0,0.0,0.0,0.0,0.0,0.0,0.0,0.0,0.0,0.0,0.0,0.0,0.0,0.0,0.0,0.0,0.0,0.0,0.0,0.0,0.0,0.0,0.0,0.0,0.0,0.0,0.0,0.0,0.0,0.0,0.0,0.0,0.0,0.9277941512021279,-1.1855350332131138,0.15797018381936095,-0.01284332955566103,-0.024975191392771517,0.1790137419531097,0.0,0.0,0.0,0.0,0.0,0.0,0.0,0.0,0.0,0.0,0.0,0.0,0.0,0.0,0.0,0.0,0.0,0.0,0.0,0.0,0.0,0.0,0.0,0.0,0.0,0.0,0.0,0.0,0.0,0.0,0.0,0.0,0.0,0.0,0.0,0.0
7752000000,154,7752000000,world,bluerov2/base_link,-9.585374095033433,-7.469281964822061,-94.97918716457694,0.0008199855647737603,0.003946325993238465,0.37357832297021754,0.9275898828370155,0.0,0.0,0.0,0.0,0.0,0.0,0.0,0.0,0.0,0.0,0.0,0.0,0.0,0.0,0.0,0.0,0.0,0.0,0.0,0.0,0.0,0.0,0.0,0.0,0.0,0.0,0.0,0.0,0.0,0.0,0.0,0.0,0.0,0.0,0.0,0.0,0.9262558930172472,-1.1765450248715705,0.13827988190368293,-0.015465952793278247,-0.02551608532464273,0.1779928965476126,0.0,0.0,0.0,0.0,0.0,0.0,0.0,0.0,0.0,0.0,0.0,0.0,0.0,0.0,0.0,0.0,0.0,0.0,0.0,0.0,0.0,0.0,0.0,0.0,0.0,0.0,0.0,0.0,0.0,0.0,0.0,0.0,0.0,0.0,0.0,0.0
7802000000,155,7802000000,world,bluerov2/base_link,-9.539173872465243,-7.527881055486236,-94.9727481238163,0.0001677255217504329,0.0035092654396232823,0.3776595055367232,0.9259378784788865,0.0,0.0,0.0,0.0,0.0,0.0,0.0,0.0,0.0,0.0,0.0,0.0,0.0,0.0,0.0,0.0,0.0,0.0,0.0,0.0,0.0,0.0,0.0,0.0,0.0,0.0,0.0,0.0,0.0,0.0,0.0,0.0,0.0,0.0,0.0,0.0,0.9221074641961848,-1.1678409166316202,0.1201844827095335,-0.018294437879285468,-0.026209380206115396,0.17432594027646015,0.0,0.0,0.0,0.0,0.0,0.0,0.0,0.0,0.0,0.0,0.0,0.0,0.0,0.0,0.0,0.0,0.0,0.0,0.0,0.0,0.0,0.0,0.0,0.0,0.0,0.0,0.0,0.0,0.0,0.0,0.0,0.0,0.0,0.0,0.0,0.0
7852000000,156,7852000000,world,bluerov2/base_link,-9.49314787366548,-7.586046801921424,-94.96714734987941,-0.0005714330566858269,0.003072183065267419,0.38164514311199593,0.9243036405286411,0.0,0.0,0.0,0.0,0.0,0.0,0.0,0.0,0.0,0.0,0.0,0.0,0.0,0.0,0.0,0.0,0.0,0.0,0.0,0.0,0.0,0.0,0.0,0.0,0.0,0.0,0.0,0.0,0.0,0.0,0.0,0.0,0.0,0.0,0.0,0.0,0.9191980102664501,-1.1601152152988417,0.1054022381443825,-0.022600268609812478,-0.028439847495013503,0.17010781815996157,0.0,0.0,0.0,0.0,0.0,0.0,0.0,0.0,0.0,0.0,0.0,0.0,0.0,0.0,0.0,0.0,0.0,0.0,0.0,0.0,0.0,0.0,0.0,0.0,0.0,0.0,0.0,0.0,0.0,0.0,0.0,0.0,0.0,0.0,0.0,0.0
7902000000,157,7902000000,world,bluerov2/base_link,-9.4472038747627,-7.643956709048495,-94.96218566534961,-0.0014506369267103607,0.0026186695849233386,0.38549779727845357,0.9227038996967404,0.0,0.0,0.0,0.0,0.0,0.0,0.0,0.0,0.0,0.0,0.0,0.0,0.0,0.0,0.0,0.0,0.0,0.0,0.0,0.0,0.0,0.0,0.0,0.0,0.0,0.0,0.0,0.0,0.0,0.0,0.0,0.0,0.0,0.0,0.0,0.0,0.9198153443215294,-1.1574848169717897,0.09374487136462879,-0.027239747369918396,-0.031161507382275112,0.16380266817766154,0.0,0.0,0.0,0.0,0.0,0.0,0.0,0.0,0.0,0.0,0.0,0.0,0.0,0.0,0.0,0.0,0.0,0.0,0.0,0.0,0.0,0.0,0.0,0.0,0.0,0.0,0.0,0.0,0.0,0.0,0.0,0.0,0.0,0.0,0.0,0.0
7952000000,158,7952000000,world,bluerov2/base_link,-9.401076408040813,-7.7018493833129,-94.9578049861879,-0.0024254057658824684,0.0021523640836419787,0.3891925641443302,0.921150711203375,0.0,0.0,0.0,0.0,0.0,0.0,0.0,0.0,0.0,0.0,0.0,0.0,0.0,0.0,0.0,0.0,0.0,0.0,0.0,0.0,0.0,0.0,0.0,0.0,0.0,0.0,0.0,0.0,0.0,0.0,0.0,0.0,0.0,0.0,0.0,0.0,0.9253742297384381,-1.1582584531919768,0.0822699381349192,-0.029599581391104184,-0.032462291091811396,0.15760303447354249,0.0,0.0,0.0,0.0,0.0,0.0,0.0,0.0,0.0,0.0,0.0,0.0,0.0,0.0,0.0,0.0,0.0,0.0,0.0,0.0,0.0,0.0,0.0,0.0,0.0,0.0,0.0,0.0,0.0,0.0,0.0,0.0,0.0,0.0,0.0,0.0
8002000000,159,8002000000,world,bluerov2/base_link,-9.354677262742582,-7.759735943145337,-94.95400074379579,-0.0034285934592891507,0.001688798517426218,0.3927572868207562,0.9196342242194211,0.0,0.0,0.0,0.0,0.0,0.0,0.0,0.0,0.0,0.0,0.0,0.0,0.0,0.0,0.0,0.0,0.0,0.0,0.0,0.0,0.0,0.0,0.0,0.0,0.0,0.0,0.0,0.0,0.0,0.0,0.0,0.0,0.0,0.0,0.0,0.0,0.9296828971796411,-1.156207509108085,0.07016458891876465,-0.029105490844514227,-0.031617996214346904,0.15310586250538696,0.0,0.0,0.0,0.0,0.0,0.0,0.0,0.0,0.0,0.0,0.0,0.0,0.0,0.0,0.0,0.0,0.0,0.0,0.0,0.0,0.0,0.0,0.0,0.0,0.0,0.0,0.0,0.0,0.0,0.0,0.0,0.0,0.0,0.0,0.0,0.0
8052000000,160,8052000000,world,bluerov2/base_link,-9.308034848407418,-7.817483817743894,-94.9507765480557,-0.004410581857009743,0.0012413292638709709,0.39622965396882703,0.9181400041306796,0.0,0.0,0.0,0.0,0.0,0.0,0.0,0.0,0.0,0.0,0.0,0.0,0.0,0.0,0.0,0.0,0.0,0.0,0.0,0.0,0.0,0.0,0.0,0.0,0.0,0.0,0.0,0.0,0.0,0.0,0.0,0.0,0.0,0.0,0.0,0.0,0.9360413036607534,-1.1551572632658476,0.0594314242754946,-0.029203202521225123,-0.031058539887963997,0.14899455335745934,0.0,0.0,0.0,0.0,0.0,0.0,0.0,0.0,0.0,0.0,0.0,0.0,0.0,0.0,0.0,0.0,0.0,0.0,0.0,0.0,0.0,0.0,0.0,0.0,0.0,0.0,0.0,0.0,0.0,0.0,0.0,0.0,0.0,0.0,0.0,0.0
8102000000,161,8102000000,world,bluerov2/base_link,-9.261053929134485,-7.875316456197996,-94.94806573568681,-0.005391864003015814,0.0008109120626706008,0.39956666778110184,0.9166879230264278,0.0,0.0,0.0,0.0,0.0,0.0,0.0,0.0,0.0,0.0,0.0,0.0,0.0,0.0,0.0,0.0,0.0,0.0,0.0,0.0,0.0,0.0,0.0,0.0,0.0,0.0,0.0,0.0,0.0,0.0,0.0,0.0,0.0,0.0,0.0,0.0,0.9428624371573595,-1.1581011320084982,0.04944621162322013,-0.029292670824006283,-0.03028564573831659,0.1425249521980655,0.0,0.0,0.0,0.0,0.0,0.0,0.0,0.0,0.0,0.0,0.0,0.0,0.0,0.0,0.0,0.0,0.0,0.0,0.0,0.0,0.0,0.0,0.0,0.0,0.0,0.0,0.0,0.0,0.0,0.0,0.0,0.0,0.0,0.0,0.0,0.0
8152000000,162,8152000000,world,bluerov2/base_link,-9.213833140383047,-7.933266970020464,-94.94579438954857,-0.0063817859670197655,0.0003980494636259586,0.4027438407488463,0.91529039823619,0.0,0.0,0.0,0.0,0.0,0.0,0.0,0.0,0.0,0.0,0.0,0.0,0.0,0.0,0.0,0.0,0.0,0.0,0.0,0.0,0.0,0.0,0.0,0.0,0.0,0.0,0.0,0.0,0.0,0.0,0.0,0.0,0.0,0.0,0.0,0.0,0.9462148205969929,-1.1601995767189868,0.041827074986585305,-0.030405047200879852,-0.03020108149208236,0.13580229961971313,0.0,0.0,0.0,0.0,0.0,0.0,0.0,0.0,0.0,0.0,0.0,0.0,0.0,0.0,0.0,0.0,0.0,0.0,0.0,0.0,0.0,0.0,0.0,0.0,0.0,0.0,0.0,0.0,0.0,0.0,0.0,0.0,0.0,0.0,0.0,0.0
8202000000,163,8202000000,world,bluerov2/base_link,-9.166402030737801,-7.99128871014454,-94.94383975175712,-0.007409198104239545,-8.11156951681405e-06,0.405794308207685,0.9139343976150044,0.0,0.0,0.0,0.0,0.0,0.0,0.0,0.0,0.0,0.0,0.0,0.0,0.0,0.0,0.0,0.0,0.0,0.0,0.0,0.0,0.0,0.0,0.0,0.0,0.0,0.0,0.0,0.0,0.0,0.0,0.0,0.0,0.0,0.0,0.0,0.0,0.9505195319947016,-1.1595723179965154,0.0368605607412836,-0.03212579652539252,-0.030972255123117826,0.13234368029691224,0.0,0.0,0.0,0.0,0.0,0.0,0.0,0.0,0.0,0.0,0.0,0.0,0.0,0.0,0.0,0.0,0.0,0.0,0.0,0.0,0.0,0.0,0.0,0.0,0.0,0.0,0.0,0.0,0.0,0.0,0.0,0.0,0.0,0.0,0.0,0.0
