%time,field.header.seq,field.header.stamp,field.header.frame_id,field.child_frame_id,field.pose.pose.position.x,field.pose.pose.position.y,field.pose.pose.position.z,field.pose.pose.orientation.x,field.pose.pose.orientation.y,field.pose.pose.orientation.z,field.pose.pose.orientation.w,field.pose.covariance0,field.pose.covariance1,field.pose.covariance2,field.pose.covariance3,field.pose.covariance4,field.pose.covariance5,field.pose.covariance6,field.pose.covariance7,field.pose.covariance8,field.pose.covariance9,field.pose.covariance10,field.pose.covariance11,field.pose.covariance12,field.pose.covariance13,field.pose.covariance14,field.pose.covariance15,field.pose.covariance16,field.pose.covariance17,field.pose.covariance18,field.pose.covariance19,field.pose.covariance20,field.pose.covariance21,field.pose.covariance22,field.pose.covariance23,field.pose.covariance24,field.pose.covariance25,field.pose.covariance26,field.pose.covariance27,field.pose.covariance28,field.pose.covariance29,field.pose.covariance30,field.pose.covariance31,field.pose.covariance32,field.pose.covariance33,field.pose.covariance34,field.pose.covariance35,field.twist.twist.linear.x,field.twist.twist.linear.y,field.twist.twist.linear.z,field.twist.twist.angular.x,field.twist.twist.angular.y,field.twist.twist.angular.z,field.twist.covariance0,field.twist.covariance1,field.twist.covariance2,field.twist.covariance3,field.twist.covariance4,field.twist.covariance5,field.twist.covariance6,field.twist.covariance7,field.twist.covariance8,field.twist.covariance9,field.twist.covariance10,field.twist.covariance11,field.twist.covariance12,field.twist.covariance13,field.twist.covariance14,field.twist.covariance15,field.twist.covariance16,field.twist.covariance17,field.twist.covariance18,field.twist.covariance19,field.twist.covariance20,field.twist.covariance21,field.twist.covariance22,field.twist.covariance23,field.twist.covariance24,field.twist.covariance25,field.twist.covariance26,field.twist.covariance27,field.twist.covariance28,field.twist.covariance29,field.twist.covariance30,field.twist.covariance31,field.twist.covariance32,field.twist.covariance33,field.twist.covariance34,field.twist.covariance35
3581000000,67,3581000000,world,bluerov2/base_link,9.822589883650307,19.3049119523451,-94.78894713416668,-0.0014960102944787056,0.0009679872671528815,-0.5239365097481128,0.851755457104218,0.0,0.0,0.0,0.0,0.0,0.0,0.0,0.0,0.0,0.0,0.0,0.0,0.0,0.0,0.0,0.0,0.0,0.0,0.0,0.0,0.0,0.0,0.0,0.0,0.0,0.0,0.0,0.0,0.0,0.0,0.0,0.0,0.0,0.0,0.0,0.0,-0.39170448203695246,-1.1791524441306687,-0.023401787083236165,0.05151947208137726,-0.11795349543170632,-1.9288139813335268,0.0,0.0,0.0,0.0,0.0,0.0,0.0,0.0,0.0,0.0,0.0,0.0,0.0,0.0,0.0,0.0,0.0,0.0,0.0,0.0,0.0,0.0,0.0,0.0,0.0,0.0,0.0,0.0,0.0,0.0,0.0,0.0,0.0,0.0,0.0,0.0
3631000000,68,3631000000,world,bluerov2/base_link,9.805018741867228,19.24863885699832,-94.78912753841092,0.0015464444258303598,-0.0010057555128667713,-0.5622805122395332,0.8269445099407424,0.0,0.0,0.0,0.0,0.0,0.0,0.0,0.0,0.0,0.0,0.0,0.0,0.0,0.0,0.0,0.0,0.0,0.0,0.0,0.0,0.0,0.0,0.0,0.0,0.0,0.0,0.0,0.0,0.0,0.0,0.0,0.0,0.0,0.0,0.0,0.0,-0.2854019769939806,-1.067869376890695,0.02103571771942578,0.04955755951472476,-0.13922010140707486,-1.7457601285135589,0.0,0.0,0.0,0.0,0.0,0.0,0.0,0.0,0.0,0.0,0.0,0.0,0.0,0.0,0.0,0.0,0.0,0.0,0.0,0.0,0.0,0.0,0.0,0.0,0.0,0.0,0.0,0.0,0.0,0.0,0.0,0.0,0.0,0.0,0.0,0.0
3681000000,69,3681000000,world,bluerov2/base_link,9.792636586013144,19.196581444670628,-94.788398298767,0.0038907410634562395,-0.0028502734118847893,-0.5966636278130544,0.8024769487782311,0.0,0.0,0.0,0.0,0.0,0.0,0.0,0.0,0.0,0.0,0.0,0.0,0.0,0.0,0.0,0.0,0.0,0.0,0.0,0.0,0.0,0.0,0.0,0.0,0.0,0.0,0.0,0.0,0.0,0.0,0.0,0.0,0.0,0.0,0.0,0.0,-0.21607245096595948,-1.0190810908228176,0.005496859694408816,0.022919158645790194,-0.0907007101489031,-1.6175900893814623,0.0,0.0,0.0,0.0,0.0,0.0,0.0,0.0,0.0,0.0,0.0,0.0,0.0,0.0,0.0,0.0,0.0,0.0,0.0,0.0,0.0,0.0,0.0,0.0,0.0,0.0,0.0,0.0,0.0,0.0,0.0,0.0,0.0,0.0,0.0,0.0
3731000000,70,3731000000,world,bluerov2/base_link,9.783093651741682,19.147364619822653,-94.78795139321744,0.005206567105010176,-0.003878520646056473,-0.6272588682152466,0.7787837703637046,0.0,0.0,0.0,0.0,0.0,0.0,0.0,0.0,0.0,0.0,0.0,0.0,0.0,0.0,0.0,0.0,0.0,0.0,0.0,0.0,0.0,0.0,0.0,0.0,0.0,0.0,0.0,0.0,0.0,0.0,0.0,0.0,0.0,0.0,0.0,0.0,-0.16295287682764198,-0.9607716231086281,0.003001937169086665,0.013961881326849654,-0.049441913165062024,-1.4724990141591507,0.0,0.0,0.0,0.0,0.0,0.0,0.0,0.0,0.0,0.0,0.0,0.0,0.0,0.0,0.0,0.0,0.0,0.0,0.0,0.0,0.0,0.0,0.0,0.0,0.0,0.0,0.0,0.0,0.0,0.0,0.0,0.0,0.0,0.0,0.0,0.0
3781000000,71,3781000000,world,bluerov2/base_link,9.776616257718365,19.100922496416683,-94.78766246522909,0.005881627886112249,-0.004747818416248161,-0.653964966823155,0.7564870698443465,0.0,0.0,0.0,0.0,0.0,0.0,0.0,0.0,0.0,0.0,0.0,0.0,0.0,0.0,0.0,0.0,0.0,0.0,0.0,0.0,0.0,0.0,0.0,0.0,0.0,0.0,0.0,0.0,0.0,0.0,0.0,0.0,0.0,0.0,0.0,0.0,-0.10308123303052152,-0.9023611325618541,0.005064514587258783,0.004066461942510236,-0.03314671399924414,-1.3164253972127566,0.0,0.0,0.0,0.0,0.0,0.0,0.0,0.0,0.0,0.0,0.0,0.0,0.0,0.0,0.0,0.0,0.0,0.0,0.0,0.0,0.0,0.0,0.0,0.0,0.0,0.0,0.0,0.0,0.0,0.0,0.0,0.0,0.0,0.0,0.0,0.0
3831000000,72,3831000000,world,bluerov2/base_link,9.77253266214724,19.056981523111656,-94.78754977594525,0.006164296372380488,-0.0053540094328293495,-0.6770935660377388,0.7358516418840992,0.0,0.0,0.0,0.0,0.0,0.0,0.0,0.0,0.0,0.0,0.0,0.0,0.0,0.0,0.0,0.0,0.0,0.0,0.0,0.0,0.0,0.0,0.0,0.0,0.0,0.0,0.0,0.0,0.0,0.0,0.0,0.0,0.0,0.0,0.0,0.0,-0.05478781216928583,-0.8492351398409612,0.007437905197985959,0.0013548841204347605,-0.019503271258415847,-1.1648197805604426,0.0,0.0,0.0,0.0,0.0,0.0,0.0,0.0,0.0,0.0,0.0,0.0,0.0,0.0,0.0,0.0,0.0,0.0,0.0,0.0,0.0,0.0,0.0,0.0,0.0,0.0,0.0,0.0,0.0,0.0,0.0,0.0,0.0,0.0,0.0,0.0
3881000000,73,3881000000,world,bluerov2/base_link,9.770504729764474,19.015403199643856,-94.78747602642275,0.006210287230822193,-0.005720117408684332,-0.696921427618323,0.7170977871363015,0.0,0.0,0.0,0.0,0.0,0.0,0.0,0.0,0.0,0.0,0.0,0.0,0.0,0.0,0.0,0.0,0.0,0.0,0.0,0.0,0.0,0.0,0.0,0.0,0.0,0.0,0.0,0.0,0.0,0.0,0.0,0.0,0.0,0.0,0.0,0.0,-0.02729133290957475,-0.8149961390433539,-0.0037719524497144817,-0.000491312128165673,-0.004138369597092597,-1.0219346888072403,0.0,0.0,0.0,0.0,0.0,0.0,0.0,0.0,0.0,0.0,0.0,0.0,0.0,0.0,0.0,0.0,0.0,0.0,0.0,0.0,0.0,0.0,0.0,0.0,0.0,0.0,0.0,0.0,0.0,0.0,0.0,0.0,0.0,0.0,0.0,0.0
3931000000,74,3931000000,world,bluerov2/base_link,9.770213305091625,18.97587121078106,-94.78748353464599,0.006094361973356296,-0.005894530905687124,-0.7137306485392858,0.7003689560461901,0.0,0.0,0.0,0.0,0.0,0.0,0.0,0.0,0.0,0.0,0.0,0.0,0.0,0.0,0.0,0.0,0.0,0.0,0.0,0.0,0.0,0.0,0.0,0.0,0.0,0.0,0.0,0.0,0.0,0.0,0.0,0.0,0.0,0.0,0.0,0.0,0.01738291780785635,-0.7650749568332463,0.006407290202508046,0.0006335261646028066,-0.00016801433115815428,-0.8788101384560453,0.0,0.0,0.0,0.0,0.0,0.0,0.0,0.0,0.0,0.0,0.0,0.0,0.0,0.0,0.0,0.0,0.0,0.0,0.0,0.0,0.0,0.0,0.0,0.0,0.0,0.0,0.0,0.0,0.0,0.0,0.0,0.0,0.0,0.0,0.0,0.0
3981000000,75,3981000000,world,bluerov2/base_link,9.771586211157906,18.93818005762634,-94.78749170040766,0.00588160582102871,-0.00594570175387153,-0.7277748867450271,0.6857650979503718,0.0,0.0,0.0,0.0,0.0,0.0,0.0,0.0,0.0,0.0,0.0,0.0,0.0,0.0,0.0,0.0,0.0,0.0,0.0,0.0,0.0,0.0,0.0,0.0,0.0,0.0,0.0,0.0,0.0,0.0,0.0,0.0,0.0,0.0,0.0,0.0,0.0434821488366698,-0.7374415462702265,0.0001388327031781185,-0.0008015246250119389,0.006661176603504981,-0.7449294979951769,0.0,0.0,0.0,0.0,0.0,0.0,0.0,0.0,0.0,0.0,0.0,0.0,0.0,0.0,0.0,0.0,0.0,0.0,0.0,0.0,0.0,0.0,0.0,0.0,0.0,0.0,0.0,0.0,0.0,0.0,0.0,0.0,0.0,0.0,0.0,0.0
4031000000,76,4031000000,world,bluerov2/base_link,9.774448990014019,18.901914903024174,-94.78759140178062,0.005593209892735764,-0.005926247594547252,-0.7393072515495709,0.6733189314127171,0.0,0.0,0.0,0.0,0.0,0.0,0.0,0.0,0.0,0.0,0.0,0.0,0.0,0.0,0.0,0.0,0.0,0.0,0.0,0.0,0.0,0.0,0.0,0.0,0.0,0.0,0.0,0.0,0.0,0.0,0.0,0.0,0.0,0.0,0.0,0.0,0.0742518116030303,-0.7109063182699078,-0.0002408309880715415,-0.0019467301002407608,0.00923370927051624,-0.6159005166261048,0.0,0.0,0.0,0.0,0.0,0.0,0.0,0.0,0.0,0.0,0.0,0.0,0.0,0.0,0.0,0.0,0.0,0.0,0.0,0.0,0.0,0.0,0.0,0.0,0.0,0.0,0.0,0.0,0.0,0.0,0.0,0.0,0.0,0.0,0.0,0.0
4081000000,77,4081000000,world,bluerov2/base_link,9.778338194131884,18.866804963522075,-94.787725427405,0.0051415341465298366,-0.005710243209461177,-0.748626536257978,0.6629474088941679,0.0,0.0,0.0,0.0,0.0,0.0,0.0,0.0,0.0,0.0,0.0,0.0,0.0,0.0,0.0,0.0,0.0,0.0,0.0,0.0,0.0,0.0,0.0,0.0,0.0,0.0,0.0,0.0,0.0,0.0,0.0,0.0,0.0,0.0,0.0,0.0,0.06419001341219897,-0.6921144393614537,-0.0022906051086660204,0.013137132398915001,0.04190084453847251,-0.5002441060677172,0.0,0.0,0.0,0.0,0.0,0.0,0.0,0.0,0.0,0.0,0.0,0.0,0.0,0.0,0.0,0.0,0.0,0.0,0.0,0.0,0.0,0.0,0.0,0.0,0.0,0.0,0.0,0.0,0.0,0.0,0.0,0.0,0.0,0.0,0.0,0.0
4131000000,78,4131000000,world,bluerov2/base_link,9.781775202784813,18.83244484063462,-94.78800037395823,0.004371417949893554,-0.0049240409734241705,-0.756015455043795,0.6545206461682648,0.0,0.0,0.0,0.0,0.0,0.0,0.0,0.0,0.0,0.0,0.0,0.0,0.0,0.0,0.0,0.0,0.0,0.0,0.0,0.0,0.0,0.0,0.0,0.0,0.0,0.0,0.0,0.0,0.0,0.0,0.0,0.0,0.0,0.0,0.0,0.0,0.06678945714034028,-0.6802959047972654,-0.005481385166659132,0.0023100583898956716,0.05203887790273574,-0.4056262195351273,0.0,0.0,0.0,0.0,0.0,0.0,0.0,0.0,0.0,0.0,0.0,0.0,0.0,0.0,0.0,0.0,0.0,0.0,0.0,0.0,0.0,0.0,0.0,0.0,0.0,0.0,0.0,0.0,0.0,0.0,0.0,0.0,0.0,0.0,0.0,0.0
4181000000,79,4181000000,world,bluerov2/base_link,9.784660157712771,18.79859354496083,-94.78838060315076,0.003303356444491991,-0.0038144771143680967,-0.7617897057334968,0.6478047405190986,0.0,0.0,0.0,0.0,0.0,0.0,0.0,0.0,0.0,0.0,0.0,0.0,0.0,0.0,0.0,0.0,0.0,0.0,0.0,0.0,0.0,0.0,0.0,0.0,0.0,0.0,0.0,0.0,0.0,0.0,0.0,0.0,0.0,0.0,0.0,0.0,0.05631338095784307,-0.6650034406022882,2.9775209140288585e-05,0.010743163697695667,0.06947245087565491,-0.31265738727502856,0.0,0.0,0.0,0.0,0.0,0.0,0.0,0.0,0.0,0.0,0.0,0.0,0.0,0.0,0.0,0.0,0.0,0.0,0.0,0.0,0.0,0.0,0.0,0.0,0.0,0.0,0.0,0.0,0.0,0.0,0.0,0.0,0.0,0.0,0.0,0.0
4231000000,80,4231000000,world,bluerov2/base_link,9.78691058585409,18.76506167762834,-94.78881790572662,0.0021465576546892276,-0.002389153440241415,-0.7659793794490111,0.6428571182580015,0.0,0.0,0.0,0.0,0.0,0.0,0.0,0.0,0.0,0.0,0.0,0.0,0.0,0.0,0.0,0.0,0.0,0.0,0.0,0.0,0.0,0.0,0.0,0.0,0.0,0.0,0.0,0.0,0.0,0.0,0.0,0.0,0.0,0.0,0.0,0.0,0.04387592904790342,-0.6688424638852094,-0.009319461636241862,0.010061280445264812,0.0724686070199025,-0.22040725225204422,0.0,0.0,0.0,0.0,0.0,0.0,0.0,0.0,0.0,0.0,0.0,0.0,0.0,0.0,0.0,0.0,0.0,0.0,0.0,0.0,0.0,0.0,0.0,0.0,0.0,0.0,0.0,0.0,0.0,0.0,0.0,0.0,0.0,0.0,0.0,0.0
4281000000,81,4281000000,world,bluerov2/base_link,9.788750073314663,18.731657650493357,-94.78931035737051,0.0008596443839088085,-0.0009372329697709907,-0.7688859332395678,0.6393847075683092,0.0,0.0,0.0,0.0,0.0,0.0,0.0,0.0,0.0,0.0,0.0,0.0,0.0,0.0,0.0,0.0,0.0,0.0,0.0,0.0,0.0,0.0,0.0,0.0,0.0,0.0,0.0,0.0,0.0,0.0,0.0,0.0,0.0,0.0,0.0,0.0,0.03449046740189511,-0.6654534820978074,-0.00801500308472546,0.011994002894852833,0.07809443124406781,-0.14521100463297304,0.0,0.0,0.0,0.0,0.0,0.0,0.0,0.0,0.0,0.0,0.0,0.0,0.0,0.0,0.0,0.0,0.0,0.0,0.0,0.0,0.0,0.0,0.0,0.0,0.0,0.0,0.0,0.0,0.0,0.0,0.0,0.0,0.0,0.0,0.0,0.0
4331000000,82,4331000000,world,bluerov2/base_link,9.790121230355451,18.698813624068,-94.7893013851666,-0.00020897478903871109,0.00036469689496360444,-0.7703595587640415,0.6376095776778953,0.0,0.0,0.0,0.0,0.0,0.0,0.0,0.0,0.0,0.0,0.0,0.0,0.0,0.0,0.0,0.0,0.0,0.0,0.0,0.0,0.0,0.0,0.0,0.0,0.0,0.0,0.0,0.0,0.0,0.0,0.0,0.0,0.0,0.0,0.0,0.0,0.017800464508226584,-0.6491006684979282,0.007652172778835407,0.003733241278643686,0.044686522900160494,-0.0389106289502944,0.0,0.0,0.0,0.0,0.0,0.0,0.0,0.0,0.0,0.0,0.0,0.0,0.0,0.0,0.0,0.0,0.0,0.0,0.0,0.0,0.0,0.0,0.0,0.0,0.0,0.0,0.0,0.0,0.0,0.0,0.0,0.0,0.0,0.0,0.0,0.0
4381000000,83,4381000000,world,bluerov2/base_link,9.790330500832765,18.666091235480508,-94.78914303931217,-0.000670632627238899,0.0009160589096888631,-0.7701127029256132,0.6379068394997499,0.0,0.0,0.0,0.0,0.0,0.0,0.0,0.0,0.0,0.0,0.0,0.0,0.0,0.0,0.0,0.0,0.0,0.0,0.0,0.0,0.0,0.0,0.0,0.0,0.0,0.0,0.0,0.0,0.0,0.0,0.0,0.0,0.0,0.0,0.0,0.0,-0.006981082420679319,-0.6546963291550405,0.0042331201682542854,-0.00625705729732755,0.014250500977530615,0.05706910716622807,0.0,0.0,0.0,0.0,0.0,0.0,0.0,0.0,0.0,0.0,0.0,0.0,0.0,0.0,0.0,0.0,0.0,0.0,0.0,0.0,0.0,0.0,0.0,0.0,0.0,0.0,0.0,0.0,0.0,0.0,0.0,0.0,0.0,0.0,0.0,0.0
4431000000,84,4431000000,world,bluerov2/base_link,9.790293414806404,18.632983524971912,-94.78918873509096,-0.0004968490044945752,0.000771131102202656,-0.768750614381894,0.639548005536215,0.0,0.0,0.0,0.0,0.0,0.0,0.0,0.0,0.0,0.0,0.0,0.0,0.0,0.0,0.0,0.0,0.0,0.0,0.0,0.0,0.0,0.0,0.0,0.0,0.0,0.0,0.0,0.0,0.0,0.0,0.0,0.0,0.0,0.0,0.0,0.0,-0.004869594343297708,-0.6682800879174478,-0.004401318536221425,-0.0021160929676128522,-0.01763435325270641,0.10807661356794648,0.0,0.0,0.0,0.0,0.0,0.0,0.0,0.0,0.0,0.0,0.0,0.0,0.0,0.0,0.0,0.0,0.0,0.0,0.0,0.0,0.0,0.0,0.0,0.0,0.0,0.0,0.0,0.0,0.0,0.0,0.0,0.0,0.0,0.0,0.0,0.0
4481000000,85,4481000000,world,bluerov2/base_link,9.789744118337556,18.59941850663546,-94.78936960539974,-0.00012604992612760235,0.0002855697911686367,-0.7666477758214483,0.6420678238234159,0.0,0.0,0.0,0.0,0.0,0.0,0.0,0.0,0.0,0.0,0.0,0.0,0.0,0.0,0.0,0.0,0.0,0.0,0.0,0.0,0.0,0.0,0.0,0.0,0.0,0.0,0.0,0.0,0.0,0.0,0.0,0.0,0.0,0.0,0.0,0.0,0.009598600872722903,-0.6816981436099803,-0.009971306482042225,0.00429420393575963,-0.04950306633004806,0.1578402672714322,0.0,0.0,0.0,0.0,0.0,0.0,0.0,0.0,0.0,0.0,0.0,0.0,0.0,0.0,0.0,0.0,0.0,0.0,0.0,0.0,0.0,0.0,0.0,0.0,0.0,0.0,0.0,0.0,0.0,0.0,0.0,0.0,0.0,0.0,0.0,0.0
4531000000,86,4531000000,world,bluerov2/base_link,9.788951613935298,18.565455280300053,-94.78951418232262,0.00036577526689727776,-0.00033108866875619056,-0.7639971558536266,0.6452194219304911,0.0,0.0,0.0,0.0,0.0,0.0,0.0,0.0,0.0,0.0,0.0,0.0,0.0,0.0,0.0,0.0,0.0,0.0,0.0,0.0,0.0,0.0,0.0,0.0,0.0,0.0,0.0,0.0,0.0,0.0,0.0,0.0,0.0,0.0,0.0,0.0,-0.01759788672904052,-0.6724622407529537,0.008759548600989823,0.006532433776626161,-0.020760984852045437,0.15786205255105268,0.0,0.0,0.0,0.0,0.0,0.0,0.0,0.0,0.0,0.0,0.0,0.0,0.0,0.0,0.0,0.0,0.0,0.0,0.0,0.0,0.0,0.0,0.0,0.0,0.0,0.0,0.0,0.0,0.0,0.0,0.0,0.0,0.0,0.0,0.0,0.0
4581000000,87,4581000000,world,bluerov2/base_link,9.788178886193466,18.531078303789112,-94.78952918374178,0.0003167326807138806,-0.0003345271809381591,-0.7614901630737966,0.6481763026475257,0.0,0.0,0.0,0.0,0.0,0.0,0.0,0.0,0.0,0.0,0.0,0.0,0.0,0.0,0.0,0.0,0.0,0.0,0.0,0.0,0.0,0.0,0.0,0.0,0.0,0.0,0.0,0.0,0.0,0.0,0.0,0.0,0.0,0.0,0.0,0.0,-0.0005972468384229253,-0.6962876259431311,-0.0027829964228091152,0.007025749595278134,0.00926311898360749,0.14337105814152065,0.0,0.0,0.0,0.0,0.0,0.0,0.0,0.0,0.0,0.0,0.0,0.0,0.0,0.0,0.0,0.0,0.0,0.0,0.0,0.0,0.0,0.0,0.0,0.0,0.0,0.0,0.0,0.0,0.0,0.0,0.0,0.0,0.0,0.0,0.0,0.0
4631000000,88,4631000000,world,bluerov2/base_link,9.787869801802664,18.496133982223306,-94.78946484698515,7.849824513225112e-05,-1.5301807370257785e-05,-0.7592610790918126,0.6507861456578622,0.0,0.0,0.0,0.0,0.0,0.0,0.0,0.0,0.0,0.0,0.0,0.0,0.0,0.0,0.0,0.0,0.0,0.0,0.0,0.0,0.0,0.0,0.0,0.0,0.0,0.0,0.0,0.0,0.0,0.0,0.0,0.0,0.0,0.0,0.0,0.0,-0.0050510642844641095,-0.7091749892205416,-0.002506900176765891,-0.002606562100553942,0.00430223915878964,0.1461576120562289,0.0,0.0,0.0,0.0,0.0,0.0,0.0,0.0,0.0,0.0,0.0,0.0,0.0,0.0,0.0,0.0,0.0,0.0,0.0,0.0,0.0,0.0,0.0,0.0,0.0,0.0,0.0,0.0,0.0,0.0,0.0,0.0,0.0,0.0,0.0,0.0
4681000000,89,4681000000,world,bluerov2/base_link,9.78801883667138,18.460352030356724,-94.78955563859591,0.00029840746455909724,-0.00023485750814385855,-0.7567453449897414,0.653709674573731,0.0,0.0,0.0,0.0,0.0,0.0,0.0,0.0,0.0,0.0,0.0,0.0,0.0,0.0,0.0,0.0,0.0,0.0,0.0,0.0,0.0,0.0,0.0,0.0,0.0,0.0,0.0,0.0,0.0,0.0,0.0,0.0,0.0,0.0,0.0,0.0,-0.0032237613935831083,-0.7104355507765547,0.010341560190955432,0.0024425735799668002,-0.0004688998953327316,0.14302763771762847,0.0,0.0,0.0,0.0,0.0,0.0,0.0,0.0,0.0,0.0,0.0,0.0,0.0,0.0,0.0,0.0,0.0,0.0,0.0,0.0,0.0,0.0,0.0,0.0,0.0,0.0,0.0,0.0,0.0,0.0,0.0,0.0,0.0,0.0,0.0,0.0
4731000000,90,4731000000,world,bluerov2/base_link,9.788225246210581,18.424003591161007,-94.78952157767135,0.00023711471834630824,-0.0002098595908016893,-0.7544862102998108,0.6563158219965386,0.0,0.0,0.0,0.0,0.0,0.0,0.0,0.0,0.0,0.0,0.0,0.0,0.0,0.0,0.0,0.0,0.0,0.0,0.0,0.0,0.0,0.0,0.0,0.0,0.0,0.0,0.0,0.0,0.0,0.0,0.0,0.0,0.0,0.0,0.0,0.0,0.006620121634882247,-0.7385050131062266,-0.004271732734339902,-0.005811021664286528,0.00025675610336645593,0.1366891466097953,0.0,0.0,0.0,0.0,0.0,0.0,0.0,0.0,0.0,0.0,0.0,0.0,0.0,0.0,0.0,0.0,0.0,0.0,0.0,0.0,0.0,0.0,0.0,0.0,0.0,0.0,0.0,0.0,0.0,0.0,0.0,0.0,0.0,0.0,0.0,0.0
4781000000,91,4781000000,world,bluerov2/base_link,9.788542584695062,18.386927136340905,-94.78953218456047,0.00025513086655763094,-0.00027441473695078415,-0.7522289327066372,0.6589017319781659,0.0,0.0,0.0,0.0,0.0,0.0,0.0,0.0,0.0,0.0,0.0,0.0,0.0,0.0,0.0,0.0,0.0,0.0,0.0,0.0,0.0,0.0,0.0,0.0,0.0,0.0,0.0,0.0,0.0,0.0,0.0,0.0,0.0,0.0,0.0,0.0,0.01441206264713769,-0.7475995843960204,0.00039253531674117507,0.0018827372197654615,-0.0172142176872033,0.13934790182973944,0.0,0.0,0.0,0.0,0.0,0.0,0.0,0.0,0.0,0.0,0.0,0.0,0.0,0.0,0.0,0.0,0.0,0.0,0.0,0.0,0.0,0.0,0.0,0.0,0.0,0.0,0.0,0.0,0.0,0.0,0.0,0.0,0.0,0.0,0.0,0.0
4831000000,92,4831000000,world,bluerov2/base_link,9.789123331574348,18.349254844083156,-94.78947028481107,0.0001453508586460014,-2.7059700011866228e-05,-0.7502752199074227,0.6611256102540342,0.0,0.0,0.0,0.0,0.0,0.0,0.0,0.0,0.0,0.0,0.0,0.0,0.0,0.0,0.0,0.0,0.0,0.0,0.0,0.0,0.0,0.0,0.0,0.0,0.0,0.0,0.0,0.0,0.0,0.0,0.0,0.0,0.0,0.0,0.0,0.0,-0.00043032746845912174,-0.7616523190518654,-0.0006092084962756974,-0.006721817707841503,0.02896440472648897,0.1031855166265551,0.0,0.0,0.0,0.0,0.0,0.0,0.0,0.0,0.0,0.0,0.0,0.0,0.0,0.0,0.0,0.0,0.0,0.0,0.0,0.0,0.0,0.0,0.0,0.0,0.0,0.0,0.0,0.0,0.0,0.0,0.0,0.0,0.0,0.0,0.0,0.0
4881000000,93,4881000000,world,bluerov2/base_link,9.789513814358132,18.31084048853432,-94.78948127061491,1.467480211942602e-05,4.203182222563259e-05,-0.7484124242666311,0.6632336249175853,0.0,0.0,0.0,0.0,0.0,0.0,0.0,0.0,0.0,0.0,0.0,0.0,0.0,0.0,0.0,0.0,0.0,0.0,0.0,0.0,0.0,0.0,0.0,0.0,0.0,0.0,0.0,0.0,0.0,0.0,0.0,0.0,0.0,0.0,0.0,0.0,0.020935088195542562,-0.7833506251442665,-0.00830755922891939,0.008183531899089339,-0.013356615957048838,0.1317469213281824,0.0,0.0,0.0,0.0,0.0,0.0,0.0,0.0,0.0,0.0,0.0,0.0,0.0,0.0,0.0,0.0,0.0,0.0,0.0,0.0,0.0,0.0,0.0,0.0,0.0,0.0,0.0,0.0,0.0,0.0,0.0,0.0,0.0,0.0,0.0,0.0
4931000000,94,4931000000,world,bluerov2/base_link,9.789963386819439,18.27163671261178,-94.78956448133292,0.0002506532156800187,-0.00016686769199991325,-0.7462655155043418,0.6656483228381019,0.0,0.0,0.0,0.0,0.0,0.0,0.0,0.0,0.0,0.0,0.0,0.0,0.0,0.0,0.0,0.0,0.0,0.0,0.0,0.0,0.0,0.0,0.0,0.0,0.0,0.0,0.0,0.0,0.0,0.0,0.0,0.0,0.0,0.0,0.0,0.0,0.022336176811434346,-0.8009015514243577,-0.011262511205460447,0.0008275600653137876,-0.025684274090314874,0.13703096260957595,0.0,0.0,0.0,0.0,0.0,0.0,0.0,0.0,0.0,0.0,0.0,0.0,0.0,0.0,0.0,0.0,0.0,0.0,0.0,0.0,0.0,0.0,0.0,0.0,0.0,0.0,0.0,0.0,0.0,0.0,0.0,0.0,0.0,0.0,0.0,0.0
4981000000,95,4981000000,world,bluerov2/base_link,9.79045995401915,18.231781898096816,-94.78956305187377,0.0002978639993609077,-0.0002355467571503581,-0.7444133091852958,0.667719013434963,0.0,0.0,0.0,0.0,0.0,0.0,0.0,0.0,0.0,0.0,0.0,0.0,0.0,0.0,0.0,0.0,0.0,0.0,0.0,0.0,0.0,0.0,0.0,0.0,0.0,0.0,0.0,0.0,0.0,0.0,0.0,0.0,0.0,0.0,0.0,0.0,0.016881299456661975,-0.8022266495820669,0.0020463722379094394,0.0054916731767098255,-0.002547303570770586,0.09799725507457129,0.0,0.0,0.0,0.0,0.0,0.0,0.0,0.0,0.0,0.0,0.0,0.0,0.0,0.0,0.0,0.0,0.0,0.0,0.0,0.0,0.0,0.0,0.0,0.0,0.0,0.0,0.0,0.0,0.0,0.0,0.0,0.0,0.0,0.0,0.0,0.0
5031000000,96,5031000000,world,bluerov2/base_link,9.791065642474413,18.191237315901684,-94.7895398814935,0.00020679497462448306,-0.00010922087306100216,-0.7429327876747411,0.669365982332892,0.0,0.0,0.0,0.0,0.0,0.0,0.0,0.0,0.0,0.0,0.0,0.0,0.0,0.0,0.0,0.0,0.0,0.0,0.0,0.0,0.0,0.0,0.0,0.0,0.0,0.0,0.0,0.0,0.0,0.0,0.0,0.0,0.0,0.0,0.0,0.0,0.0021654629782443167,-0.8076936422277534,0.010559503500840298,0.007821738488080838,0.0006933577247223756,0.09563682557643745,0.0,0.0,0.0,0.0,0.0,0.0,0.0,0.0,0.0,0.0,0.0,0.0,0.0,0.0,0.0,0.0,0.0,0.0,0.0,0.0,0.0,0.0,0.0,0.0,0.0,0.0,0.0,0.0,0.0,0.0,0.0,0.0,0.0,0.0,0.0,0.0
5081000000,97,5081000000,world,bluerov2/base_link,9.791391567167594,18.149898445715035,-94.78958741681403,0.00026842227523399633,-0.0002541174668122544,-0.7413290419238722,0.671141650453933,0.0,0.0,0.0,0.0,0.0,0.0,0.0,0.0,0.0,0.0,0.0,0.0,0.0,0.0,0.0,0.0,0.0,0.0,0.0,0.0,0.0,0.0,0.0,0.0,0.0,0.0,0.0,0.0,0.0,0.0,0.0,0.0,0.0,0.0,0.0,0.0,0.015456221191027554,-0.8287624454560244,0.004641000209245156,0.02013782574781989,-0.015834016094109473,0.10216985755107835,0.0,0.0,0.0,0.0,0.0,0.0,0.0,0.0,0.0,0.0,0.0,0.0,0.0,0.0,0.0,0.0,0.0,0.0,0.0,0.0,0.0,0.0,0.0,0.0,0.0,0.0,0.0,0.0,0.0,0.0,0.0,0.0,0.0,0.0,0.0,0.0
5131000000,98,5131000000,world,bluerov2/base_link,9.791602442704647,18.107875679378207,-94.78955293091903,0.00022588119843962027,-0.0001693700278841406,-0.7399106826772421,0.6727050631231904,0.0,0.0,0.0,0.0,0.0,0.0,0.0,0.0,0.0,0.0,0.0,0.0,0.0,0.0,0.0,0.0,0.0,0.0,0.0,0.0,0.0,0.0,0.0,0.0,0.0,0.0,0.0,0.0,0.0,0.0,0.0,0.0,0.0,0.0,0.0,0.0,-0.007780733964452379,-0.8500890895333026,-0.0013247842804414533,-0.013632480105521316,0.008363105779734915,0.0778062389820107,0.0,0.0,0.0,0.0,0.0,0.0,0.0,0.0,0.0,0.0,0.0,0.0,0.0,0.0,0.0,0.0,0.0,0.0,0.0,0.0,0.0,0.0,0.0,0.0,0.0,0.0,0.0,0.0,0.0,0.0,0.0,0.0,0.0,0.0,0.0,0.0
5181000000,99,5181000000,world,bluerov2/base_link,9.791873202703494,18.06499969784185,-94.78956819221455,0.00024115273190320418,-0.00017837443480308164,-0.7386270286703835,0.674114250365234,0.0,0.0,0.0,0.0,0.0,0.0,0.0,0.0,0.0,0.0,0.0,0.0,0.0,0.0,0.0,0.0,0.0,0.0,0.0,0.0,0.0,0.0,0.0,0.0,0.0,0.0,0.0,0.0,0.0,0.0,0.0,0.0,0.0,0.0,0.0,0.0,-0.0023424582470700835,-0.8642888655189865,0.0010790524407730349,-0.006111567141957519,0.021966634831387864,0.05799347410786234,0.0,0.0,0.0,0.0,0.0,0.0,0.0,0.0,0.0,0.0,0.0,0.0,0.0,0.0,0.0,0.0,0.0,0.0,0.0,0.0,0.0,0.0,0.0,0.0,0.0,0.0,0.0,0.0,0.0,0.0,0.0,0.0,0.0,0.0,0.0,0.0
5231000000,100,5231000000,world,bluerov2/base_link,9.792292789864623,18.02130416680551,-94.78957132269385,0.00023434491153610267,-0.00016874020028340267,-0.7375691056613107,0.6752715979390674,0.0,0.0,0.0,0.0,0.0,0.0,0.0,0.0,0.0,0.0,0.0,0.0,0.0,0.0,0.0,0.0,0.0,0.0,0.0,0.0,0.0,0.0,0.0,0.0,0.0,0.0,0.0,0.0,0.0,0.0,0.0,0.0,0.0,0.0,0.0,0.0,0.010697389839091636,-0.8794639178986186,0.0026302138708747804,0.01743927313005148,-0.013881117471619797,0.08175869637725608,0.0,0.0,0.0,0.0,0.0,0.0,0.0,0.0,0.0,0.0,0.0,0.0,0.0,0.0,0.0,0.0,0.0,0.0,0.0,0.0,0.0,0.0,0.0,0.0,0.0,0.0,0.0,0.0,0.0,0.0,0.0,0.0,0.0,0.0,0.0,0.0
5281000000,101,5281000000,world,bluerov2/base_link,9.792328673928639,17.976753623546497,-94.78958773956684,0.0002432922419787163,-0.0001986606476039609,-0.736390891953926,0.6765562471739754,0.0,0.0,0.0,0.0,0.0,0.0,0.0,0.0,0.0,0.0,0.0,0.0,0.0,0.0,0.0,0.0,0.0,0.0,0.0,0.0,0.0,0.0,0.0,0.0,0.0,0.0,0.0,0.0,0.0,0.0,0.0,0.0,0.0,0.0,0.0,0.0,0.00509231358123578,-0.8976313755515205,0.0013190566703811303,-0.002563381118896473,-0.009881024888619232,0.06268728610515177,0.0,0.0,0.0,0.0,0.0,0.0,0.0,0.0,0.0,0.0,0.0,0.0,0.0,0.0,0.0,0.0,0.0,0.0,0.0,0.0,0.0,0.0,0.0,0.0,0.0,0.0,0.0,0.0,0.0,0.0,0.0,0.0,0.0,0.0,0.0,0.0
5331000000,102,5331000000,world,bluerov2/base_link,9.792626159307428,17.93136737981115,-94.78960375193589,0.0002938645725951447,-0.0002518390276693308,-0.7354470607511363,0.6775820769864206,0.0,0.0,0.0,0.0,0.0,0.0,0.0,0.0,0.0,0.0,0.0,0.0,0.0,0.0,0.0,0.0,0.0,0.0,0.0,0.0,0.0,0.0,0.0,0.0,0.0,0.0,0.0,0.0,0.0,0.0,0.0,0.0,0.0,0.0,0.0,0.0,0.006413358086150595,-0.9190029659876201,-0.0034234984059219194,-0.005279912411750186,0.006186514494830872,0.04117379063298354,0.0,0.0,0.0,0.0,0.0,0.0,0.0,0.0,0.0,0.0,0.0,0.0,0.0,0.0,0.0,0.0,0.0,0.0,0.0,0.0,0.0,0.0,0.0,0.0,0.0,0.0,0.0,0.0,0.0,0.0,0.0,0.0,0.0,0.0,0.0,0.0
5381000000,103,5381000000,world,bluerov2/base_link,9.792940401135116,17.885166506502024,-94.78958294608304,0.0002725655781145376,-0.00019289119056754346,-0.7347900662584566,0.6782945134887112,0.0,0.0,0.0,0.0,0.0,0.0,0.0,0.0,0.0,0.0,0.0,0.0,0.0,0.0,0.0,0.0,0.0,0.0,0.0,0.0,0.0,0.0,0.0,0.0,0.0,0.0,0.0,0.0,0.0,0.0,0.0,0.0,0.0,0.0,0.0,0.0,0.008890792804723635,-0.9332302509977451,-0.00033319833656780427,0.004867001303621988,-0.009527493843896197,0.04648946975721753,0.0,0.0,0.0,0.0,0.0,0.0,0.0,0.0,0.0,0.0,0.0,0.0,0.0,0.0,0.0,0.0,0.0,0.0,0.0,0.0,0.0,0.0,0.0,0.0,0.0,0.0,0.0,0.0,0.0,0.0,0.0,0.0,0.0,0.0,0.0,0.0
5431000000,104,5431000000,world,bluerov2/base_link,9.79318381681808,17.83808257565903,-94.78960485472385,0.00028010619616836206,-0.00019799563616970515,-0.7341267366456249,0.6790123834513568,0.0,0.0,0.0,0.0,0.0,0.0,0.0,0.0,0.0,0.0,0.0,0.0,0.0,0.0,0.0,0.0,0.0,0.0,0.0,0.0,0.0,0.0,0.0,0.0,0.0,0.0,0.0,0.0,0.0,0.0,0.0,0.0,0.0,0.0,0.0,0.0,-0.0027308405506064207,-0.9418957995839898,0.007214752659531467,0.005369732456884385,0.014522673222142546,0.03067997629627206,0.0,0.0,0.0,0.0,0.0,0.0,0.0,0.0,0.0,0.0,0.0,0.0,0.0,0.0,0.0,0.0,0.0,0.0,0.0,0.0,0.0,0.0,0.0,0.0,0.0,0.0,0.0,0.0,0.0,0.0,0.0,0.0,0.0,0.0,0.0,0.0
5481000000,105,5481000000,world,bluerov2/base_link,9.793277257105624,17.790235845028914,-94.78959461920137,0.00022157479625204462,-0.0001770839218612453,-0.7335035675323923,0.6796855419700699,0.0,0.0,0.0,0.0,0.0,0.0,0.0,0.0,0.0,0.0,0.0,0.0,0.0,0.0,0.0,0.0,0.0,0.0,0.0,0.0,0.0,0.0,0.0,0.0,0.0,0.0,0.0,0.0,0.0,0.0,0.0,0.0,0.0,0.0,0.0,0.0,0.003773311022665755,-0.9745548117667259,-0.009797855581161889,-0.010069248339468397,-0.0033171840037424594,0.0389702999052621,0.0,0.0,0.0,0.0,0.0,0.0,0.0,0.0,0.0,0.0,0.0,0.0,0.0,0.0,0.0,0.0,0.0,0.0,0.0,0.0,0.0,0.0,0.0,0.0,0.0,0.0,0.0,0.0,0.0,0.0,0.0,0.0,0.0,0.0,0.0,0.0
5531000000,106,5531000000,world,bluerov2/base_link,9.793461045357054,17.741605066184096,-94.78962004887802,0.00028405944650630857,-0.00021121872773481696,-0.7329639948067597,0.6802673423102099,0.0,0.0,0.0,0.0,0.0,0.0,0.0,0.0,0.0,0.0,0.0,0.0,0.0,0.0,0.0,0.0,0.0,0.0,0.0,0.0,0.0,0.0,0.0,0.0,0.0,0.0,0.0,0.0,0.0,0.0,0.0,0.0,0.0,0.0,0.0,0.0,0.003924632616952291,-0.9860687365794831,-0.007118906024969577,-0.003847948768989959,0.0015665997511794653,0.02816607583511976,0.0,0.0,0.0,0.0,0.0,0.0,0.0,0.0,0.0,0.0,0.0,0.0,0.0,0.0,0.0,0.0,0.0,0.0,0.0,0.0,0.0,0.0,0.0,0.0,0.0,0.0,0.0,0.0,0.0,0.0,0.0,0.0,0.0,0.0,0.0,0.0
5581000000,107,5581000000,world,bluerov2/base_link,9.7936474996368,17.692302007144534,-94.78961641527329,0.00024327096703337066,-0.00022397219691597917,-0.7325265322140483,0.6807384007518252,0.0,0.0,0.0,0.0,0.0,0.0,0.0,0.0,0.0,0.0,0.0,0.0,0.0,0.0,0.0,0.0,0.0,0.0,0.0,0.0,0.0,0.0,0.0,0.0,0.0,0.0,0.0,0.0,0.0,0.0,0.0,0.0,0.0,0.0,0.0,0.0,0.007162431806224771,-0.9958329245005103,-0.0028618377366046183,-0.006879800341721112,0.01606800805483031,0.008475352258239068,0.0,0.0,0.0,0.0,0.0,0.0,0.0,0.0,0.0,0.0,0.0,0.0,0.0,0.0,0.0,0.0,0.0,0.0,0.0,0.0,0.0,0.0,0.0,0.0,0.0,0.0,0.0,0.0,0.0,0.0,0.0,0.0,0.0,0.0,0.0,0.0
5631000000,108,5631000000,world,bluerov2/base_link,9.793848954016827,17.642356560448924,-94.7895807690405,0.00025110017891150153,-0.00011181305909425688,-0.7320372568946922,0.6812645440389763,0.0,0.0,0.0,0.0,0.0,0.0,0.0,0.0,0.0,0.0,0.0,0.0,0.0,0.0,0.0,0.0,0.0,0.0,0.0,0.0,0.0,0.0,0.0,0.0,0.0,0.0,0.0,0.0,0.0,0.0,0.0,0.0,0.0,0.0,0.0,0.0,-0.006691786908086171,-0.996365864218458,0.009539841304605022,0.006125591711713879,-0.0032582019351820937,0.03775941842372499,0.0,0.0,0.0,0.0,0.0,0.0,0.0,0.0,0.0,0.0,0.0,0.0,0.0,0.0,0.0,0.0,0.0,0.0,0.0,0.0,0.0,0.0,0.0,0.0,0.0,0.0,0.0,0.0,0.0,0.0,0.0,0.0,0.0,0.0,0.0,0.0
5681000000,109,5681000000,world,bluerov2/base_link,9.793772684541532,17.591712944271954,-94.78960691259604,0.00028672467551003303,-0.00031241074793581446,-0.7313900874745363,0.68195920708828,0.0,0.0,0.0,0.0,0.0,0.0,0.0,0.0,0.0,0.0,0.0,0.0,0.0,0.0,0.0,0.0,0.0,0.0,0.0,0.0,0.0,0.0,0.0,0.0,0.0,0.0,0.0,0.0,0.0,0.0,0.0,0.0,0.0,0.0,0.0,0.0,0.007066200735330972,-1.0187771373634442,-0.0003488544951048703,0.004989706666201518,-0.003979411566415538,0.03172533151999394,0.0,0.0,0.0,0.0,0.0,0.0,0.0,0.0,0.0,0.0,0.0,0.0,0.0,0.0,0.0,0.0,0.0,0.0,0.0,0.0,0.0,0.0,0.0,0.0,0.0,0.0,0.0,0.0,0.0,0.0,0.0,0.0,0.0,0.0,0.0,0.0
5731000000,110,5731000000,world,bluerov2/base_link,9.793929024200663,17.540523104457307,-94.78958761804466,0.00016366165188509056,-0.0001344772184610987,-0.7309234872730919,0.6824593840539406,0.0,0.0,0.0,0.0,0.0,0.0,0.0,0.0,0.0,0.0,0.0,0.0,0.0,0.0,0.0,0.0,0.0,0.0,0.0,0.0,0.0,0.0,0.0,0.0,0.0,0.0,0.0,0.0,0.0,0.0,0.0,0.0,0.0,0.0,0.0,0.0,0.0023765836725145725,-1.0340678614121384,-0.0046413699467432075,-0.012042698038328182,0.004600488184724662,0.029352107877061967,0.0,0.0,0.0,0.0,0.0,0.0,0.0,0.0,0.0,0.0,0.0,0.0,0.0,0.0,0.0,0.0,0.0,0.0,0.0,0.0,0.0,0.0,0.0,0.0,0.0,0.0,0.0,0.0,0.0,0.0,0.0,0.0,0.0,0.0,0.0,0.0
5781000000,111,5781000000,world,bluerov2/base_link,9.793988259845962,17.4887783127254,-94.789594299185,0.00037544584344184753,-0.00020052006545251432,-0.7301078055107051,0.6833318455658749,0.0,0.0,0.0,0.0,0.0,0.0,0.0,0.0,0.0,0.0,0.0,0.0,0.0,0.0,0.0,0.0,0.0,0.0,0.0,0.0,0.0,0.0,0.0,0.0,0.0,0.0,0.0,0.0,0.0,0.0,0.0,0.0,0.0,0.0,0.0,0.0,-0.006876110695466446,-1.039647672158211,-0.00012608392470946507,-0.0060422772033207756,-0.008799576631115977,0.052036708235942954,0.0,0.0,0.0,0.0,0.0,0.0,0.0,0.0,0.0,0.0,0.0,0.0,0.0,0.0,0.0,0.0,0.0,0.0,0.0,0.0,0.0,0.0,0.0,0.0,0.0,0.0,0.0,0.0,0.0,0.0,0.0,0.0,0.0,0.0,0.0,0.0
5831000000,112,5831000000,world,bluerov2/base_link,9.794081905727216,17.43660992303671,-94.78957922163409,0.00028158357633024526,-0.00011887688444203754,-0.7294766859958668,0.6840056075555695,0.0,0.0,0.0,0.0,0.0,0.0,0.0,0.0,0.0,0.0,0.0,0.0,0.0,0.0,0.0,0.0,0.0,0.0,0.0,0.0,0.0,0.0,0.0,0.0,0.0,0.0,0.0,0.0,0.0,0.0,0.0,0.0,0.0,0.0,0.0,0.0,0.0033086586734653992,-1.0478660491993543,-0.0005865273188080349,0.004087587277546935,0.011089730304248816,0.030453325503597518,0.0,0.0,0.0,0.0,0.0,0.0,0.0,0.0,0.0,0.0,0.0,0.0,0.0,0.0,0.0,0.0,0.0,0.0,0.0,0.0,0.0,0.0,0.0,0.0,0.0,0.0,0.0,0.0,0.0,0.0,0.0,0.0,0.0,0.0,0.0,0.0
5881000000,113,5881000000,world,bluerov2/base_link,9.794195117212455,17.38400997888395,-94.78963671768177,0.00023680754891494435,-0.00018513631335788182,-0.7288415076924593,0.6846823835263423,0.0,0.0,0.0,0.0,0.0,0.0,0.0,0.0,0.0,0.0,0.0,0.0,0.0,0.0,0.0,0.0,0.0,0.0,0.0,0.0,0.0,0.0,0.0,0.0,0.0,0.0,0.0,0.0,0.0,0.0,0.0,0.0,0.0,0.0,0.0,0.0,-0.0053900081069608394,-1.0466297465292154,0.007534591052419331,-0.0012641211908150057,-0.00879803665732259,0.04015253242772706,0.0,0.0,0.0,0.0,0.0,0.0,0.0,0.0,0.0,0.0,0.0,0.0,0.0,0.0,0.0,0.0,0.0,0.0,0.0,0.0,0.0,0.0,0.0,0.0,0.0,0.0,0.0,0.0,0.0,0.0,0.0,0.0,0.0,0.0,0.0,0.0
5931000000,114,5931000000,world,bluerov2/base_link,9.794254793017728,17.331148212383784,-94.78964799925599,0.00023956965921823604,-0.0001698907171647619,-0.7283210125031985,0.6852360297662686,0.0,0.0,0.0,0.0,0.0,0.0,0.0,0.0,0.0,0.0,0.0,0.0,0.0,0.0,0.0,0.0,0.0,0.0,0.0,0.0,0.0,0.0,0.0,0.0,0.0,0.0,0.0,0.0,0.0,0.0,0.0,0.0,0.0,0.0,0.0,0.0,0.0023819041163574708,-1.0645420586872436,-0.004939702196822363,-0.007917245197309892,0.007734346701616759,0.022052839901273446,0.0,0.0,0.0,0.0,0.0,0.0,0.0,0.0,0.0,0.0,0.0,0.0,0.0,0.0,0.0,0.0,0.0,0.0,0.0,0.0,0.0,0.0,0.0,0.0,0.0,0.0,0.0,0.0,0.0,0.0,0.0,0.0,0.0,0.0,0.0,0.0
5981000000,115,5981000000,world,bluerov2/base_link,9.794409650256235,17.27804044769614,-94.78962578927923,0.0003389605911381266,-0.0001482297987551348,-0.7277117877098426,0.6858829471285823,0.0,0.0,0.0,0.0,0.0,0.0,0.0,0.0,0.0,0.0,0.0,0.0,0.0,0.0,0.0,0.0,0.0,0.0,0.0,0.0,0.0,0.0,0.0,0.0,0.0,0.0,0.0,0.0,0.0,0.0,0.0,0.0,0.0,0.0,0.0,0.0,-0.0036685854722983556,-1.0600230095340144,0.005542054919436025,0.01049002201933168,0.006948582090654302,0.03512346262817736,0.0,0.0,0.0,0.0,0.0,0.0,0.0,0.0,0.0,0.0,0.0,0.0,0.0,0.0,0.0,0.0,0.0,0.0,0.0,0.0,0.0,0.0,0.0,0.0,0.0,0.0,0.0,0.0,0.0,0.0,0.0,0.0,0.0,0.0,0.0,0.0
6031000000,116,6031000000,world,bluerov2/base_link,9.794280031247279,17.224587417890817,-94.78965561265194,0.00029752818957886506,-0.0002583850562488087,-0.7270231698035636,0.6866128132236669,0.0,0.0,0.0,0.0,0.0,0.0,0.0,0.0,0.0,0.0,0.0,0.0,0.0,0.0,0.0,0.0,0.0,0.0,0.0,0.0,0.0,0.0,0.0,0.0,0.0,0.0,0.0,0.0,0.0,0.0,0.0,0.0,0.0,0.0,0.0,0.0,0.0055512139445942354,-1.0700731458939292,0.0012892327754278488,0.002373532955677037,-0.020552577542171924,0.04872588910605774,0.0,0.0,0.0,0.0,0.0,0.0,0.0,0.0,0.0,0.0,0.0,0.0,0.0,0.0,0.0,0.0,0.0,0.0,0.0,0.0,0.0,0.0,0.0,0.0,0.0,0.0,0.0,0.0,0.0,0.0,0.0,0.0,0.0,0.0,0.0,0.0
6081000000,117,6081000000,world,bluerov2/base_link,9.794479242066217,17.17089413454026,-94.78961678806633,0.00028939991375731013,-0.0001024235420169754,-0.7265505936528093,0.6871129023820308,0.0,0.0,0.0,0.0,0.0,0.0,0.0,0.0,0.0,0.0,0.0,0.0,0.0,0.0,0.0,0.0,0.0,0.0,0.0,0.0,0.0,0.0,0.0,0.0,0.0,0.0,0.0,0.0,0.0,0.0,0.0,0.0,0.0,0.0,0.0,0.0,0.005187821268390052,-1.0793400292952091,-0.001539378710112536,0.003493507636425455,0.013186062020684574,0.019711130273039217,0.0,0.0,0.0,0.0,0.0,0.0,0.0,0.0,0.0,0.0,0.0,0.0,0.0,0.0,0.0,0.0,0.0,0.0,0.0,0.0,0.0,0.0,0.0,0.0,0.0,0.0,0.0,0.0,0.0,0.0,0.0,0.0,0.0,0.0,0.0,0.0
6131000000,118,6131000000,world,bluerov2/base_link,9.794623299792306,17.11683783458416,-94.78962391042012,0.00015680063519455203,-0.0001797641313274604,-0.7260832122024332,0.6876068004726352,0.0,0.0,0.0,0.0,0.0,0.0,0.0,0.0,0.0,0.0,0.0,0.0,0.0,0.0,0.0,0.0,0.0,0.0,0.0,0.0,0.0,0.0,0.0,0.0,0.0,0.0,0.0,0.0,0.0,0.0,0.0,0.0,0.0,0.0,0.0,0.0,0.005732077233725963,-1.0837391195309434,0.0003753164472445933,0.006498109317211137,-0.012547076273996361,0.043033553448791555,0.0,0.0,0.0,0.0,0.0,0.0,0.0,0.0,0.0,0.0,0.0,0.0,0.0,0.0,0.0,0.0,0.0,0.0,0.0,0.0,0.0,0.0,0.0,0.0,0.0,0.0,0.0,0.0,0.0,0.0,0.0,0.0,0.0,0.0,0.0,0.0
6181000000,119,6181000000,world,bluerov2/base_link,9.794643890458293,17.062406467975507,-94.78967768176211,0.00033127681695570245,-0.0002259430155387726,-0.7252794335387572,0.6884544883223028,0.0,0.0,0.0,0.0,0.0,0.0,0.0,0.0,0.0,0.0,0.0,0.0,0.0,0.0,0.0,0.0,0.0,0.0,0.0,0.0,0.0,0.0,0.0,0.0,0.0,0.0,0.0,0.0,0.0,0.0,0.0,0.0,0.0,0.0,0.0,0.0,-0.0015976537829553632,-1.0890556012566357,0.0016482272595467968,-0.007060787129122714,0.014860656472088112,0.028805704046748593,0.0,0.0,0.0,0.0,0.0,0.0,0.0,0.0,0.0,0.0,0.0,0.0,0.0,0.0,0.0,0.0,0.0,0.0,0.0,0.0,0.0,0.0,0.0,0.0,0.0,0.0,0.0,0.0,0.0,0.0,0.0,0.0,0.0,0.0,0.0,0.0
6231000000,120,6231000000,world,bluerov2/base_link,9.794852826655589,17.007762302944357,-94.78966806298016,0.00027250251004456245,-0.00021197819787754067,-0.7246523150626784,0.6891145790664468,0.0,0.0,0.0,0.0,0.0,0.0,0.0,0.0,0.0,0.0,0.0,0.0,0.0,0.0,0.0,0.0,0.0,0.0,0.0,0.0,0.0,0.0,0.0,0.0,0.0,0.0,0.0,0.0,0.0,0.0,0.0,0.0,0.0,0.0,0.0,0.0,0.0030721044336969286,-1.0974443563932115,-0.0023718364114288667,-0.001997346613631385,0.011803984701017,0.02885701926546624,0.0,0.0,0.0,0.0,0.0,0.0,0.0,0.0,0.0,0.0,0.0,0.0,0.0,0.0,0.0,0.0,0.0,0.0,0.0,0.0,0.0,0.0,0.0,0.0,0.0,0.0,0.0,0.0,0.0,0.0,0.0,0.0,0.0,0.0,0.0,0.0
6281000000,121,6281000000,world,bluerov2/base_link,9.794973376050406,16.95288529198016,-94.78969886243524,0.0003244062984021322,-0.0002097996186886414,-0.7240122052780378,0.6897870521785009,0.0,0.0,0.0,0.0,0.0,0.0,0.0,0.0,0.0,0.0,0.0,0.0,0.0,0.0,0.0,0.0,0.0,0.0,0.0,0.0,0.0,0.0,0.0,0.0,0.0,0.0,0.0,0.0,0.0,0.0,0.0,0.0,0.0,0.0,0.0,0.0,0.00981622791705625,-1.106185313300097,-0.007596414576037397,0.004554431018174096,-0.014469480028079908,0.04623760689524695,0.0,0.0,0.0,0.0,0.0,0.0,0.0,0.0,0.0,0.0,0.0,0.0,0.0,0.0,0.0,0.0,0.0,0.0,0.0,0.0,0.0,0.0,0.0,0.0,0.0,0.0,0.0,0.0,0.0,0.0,0.0,0.0,0.0,0.0,0.0,0.0
6331000000,122,6331000000,world,bluerov2/base_link,9.79503230654423,16.897899865394763,-94.78969992131869,0.0002678169824764494,-0.0002756192399898947,-0.7234641693789313,0.6903618239249268,0.0,0.0,0.0,0.0,0.0,0.0,0.0,0.0,0.0,0.0,0.0,0.0,0.0,0.0,0.0,0.0,0.0,0.0,0.0,0.0,0.0,0.0,0.0,0.0,0.0,0.0,0.0,0.0,0.0,0.0,0.0,0.0,0.0,0.0,0.0,0.0,0.010412020948286246,-1.1092753447616401,-0.00861574142174803,-0.004245219010034433,-0.00906408460918261,0.035592054794515084,0.0,0.0,0.0,0.0,0.0,0.0,0.0,0.0,0.0,0.0,0.0,0.0,0.0,0.0,0.0,0.0,0.0,0.0,0.0,0.0,0.0,0.0,0.0,0.0,0.0,0.0,0.0,0.0,0.0,0.0,0.0,0.0,0.0,0.0,0.0,0.0
6381000000,123,6381000000,world,bluerov2/base_link,9.79521121248513,16.842835560309165,-94.78967593319862,0.00026373921186613345,-0.00014081087999752385,-0.7229553770156283,0.6908946616222441,0.0,0.0,0.0,0.0,0.0,0.0,0.0,0.0,0.0,0.0,0.0,0.0,0.0,0.0,0.0,0.0,0.0,0.0,0.0,0.0,0.0,0.0,0.0,0.0,0.0,0.0,0.0,0.0,0.0,0.0,0.0,0.0,0.0,0.0,0.0,0.0,0.00868318538671897,-1.1061286521552904,-0.0033735614407354357,0.008551925330158715,-0.008742302298086478,0.040197519659843556,0.0,0.0,0.0,0.0,0.0,0.0,0.0,0.0,0.0,0.0,0.0,0.0,0.0,0.0,0.0,0.0,0.0,0.0,0.0,0.0,0.0,0.0,0.0,0.0,0.0,0.0,0.0,0.0,0.0,0.0,0.0,0.0,0.0,0.0,0.0,0.0
6431000000,124,6431000000,world,bluerov2/base_link,9.795237909096787,16.787661828424568,-94.78968727608087,0.0002520289219743109,-0.00025122176164744047,-0.7223712354404969,0.6915053662678398,0.0,0.0,0.0,0.0,0.0,0.0,0.0,0.0,0.0,0.0,0.0,0.0,0.0,0.0,0.0,0.0,0.0,0.0,0.0,0.0,0.0,0.0,0.0,0.0,0.0,0.0,0.0,0.0,0.0,0.0,0.0,0.0,0.0,0.0,0.0,0.0,0.007940645859396198,-1.1055582244048514,-0.0020110327059904703,-0.0010115046250914182,-0.003339451814530635,0.031375107759138585,0.0,0.0,0.0,0.0,0.0,0.0,0.0,0.0,0.0,0.0,0.0,0.0,0.0,0.0,0.0,0.0,0.0,0.0,0.0,0.0,0.0,0.0,0.0,0.0,0.0,0.0,0.0,0.0,0.0,0.0,0.0,0.0,0.0,0.0,0.0,0.0
6481000000,125,6481000000,world,bluerov2/base_link,9.795320332886615,16.732489001398466,-94.78967561497828,0.00026137186614992515,-0.0001444324993175995,-0.7218071910300771,0.692094133627262,0.0,0.0,0.0,0.0,0.0,0.0,0.0,0.0,0.0,0.0,0.0,0.0,0.0,0.0,0.0,0.0,0.0,0.0,0.0,0.0,0.0,0.0,0.0,0.0,0.0,0.0,0.0,0.0,0.0,0.0,0.0,0.0,0.0,0.0,0.0,0.0,0.0016064400534287178,-1.1107788850039821,-0.007210602405835686,-0.00915798283239221,-7.430126696665178e-05,0.032583395721262974,0.0,0.0,0.0,0.0,0.0,0.0,0.0,0.0,0.0,0.0,0.0,0.0,0.0,0.0,0.0,0.0,0.0,0.0,0.0,0.0,0.0,0.0,0.0,0.0,0.0,0.0,0.0,0.0,0.0,0.0,0.0,0.0,0.0,0.0,0.0,0.0
6531000000,126,6531000000,world,bluerov2/base_link,9.795418594080026,16.677309542051862,-94.78970522669294,0.00034957148693891786,-0.0002018007086876054,-0.7211952924509953,0.6927316848699596,0.0,0.0,0.0,0.0,0.0,0.0,0.0,0.0,0.0,0.0,0.0,0.0,0.0,0.0,0.0,0.0,0.0,0.0,0.0,0.0,0.0,0.0,0.0,0.0,0.0,0.0,0.0,0.0,0.0,0.0,0.0,0.0,0.0,0.0,0.0,0.0,0.0018936508996007862,-1.1058095597608626,-0.003517697546702219,0.005234760133050122,0.011606534555710517,0.023690321580850913,0.0,0.0,0.0,0.0,0.0,0.0,0.0,0.0,0.0,0.0,0.0,0.0,0.0,0.0,0.0,0.0,0.0,0.0,0.0,0.0,0.0,0.0,0.0,0.0,0.0,0.0,0.0,0.0,0.0,0.0,0.0,0.0,0.0,0.0,0.0,0.0
6581000000,127,6581000000,world,bluerov2/base_link,9.795531267421811,16.62223228353272,-94.78971244535687,0.00023860645956673605,-0.00016355197722203624,-0.7207582617082016,0.6931864428110809,0.0,0.0,0.0,0.0,0.0,0.0,0.0,0.0,0.0,0.0,0.0,0.0,0.0,0.0,0.0,0.0,0.0,0.0,0.0,0.0,0.0,0.0,0.0,0.0,0.0,0.0,0.0,0.0,0.0,0.0,0.0,0.0,0.0,0.0,0.0,0.0,0.005429949058655019,-1.10224262082864,-0.0017751490575074694,0.010470108108407022,-0.009615742143908547,0.040499823400712086,0.0,0.0,0.0,0.0,0.0,0.0,0.0,0.0,0.0,0.0,0.0,0.0,0.0,0.0,0.0,0.0,0.0,0.0,0.0,0.0,0.0,0.0,0.0,0.0,0.0,0.0,0.0,0.0,0.0,0.0,0.0,0.0,0.0,0.0,0.0,0.0
6631000000,128,6631000000,world,bluerov2/base_link,9.795431670653008,16.567280715416526,-94.78972717298788,0.000284495098718687,-0.0002679550927933543,-0.7202150561301688,0.6937507622958153,0.0,0.0,0.0,0.0,0.0,0.0,0.0,0.0,0.0,0.0,0.0,0.0,0.0,0.0,0.0,0.0,0.0,0.0,0.0,0.0,0.0,0.0,0.0,0.0,0.0,0.0,0.0,0.0,0.0,0.0,0.0,0.0,0.0,0.0,0.0,0.0,0.004077113960565618,-1.0910437480771533,0.0059061727476480644,0.015558836256485933,0.011071964018703357,0.011454838207829518,0.0,0.0,0.0,0.0,0.0,0.0,0.0,0.0,0.0,0.0,0.0,0.0,0.0,0.0,0.0,0.0,0.0,0.0,0.0,0.0,0.0,0.0,0.0,0.0,0.0,0.0,0.0,0.0,0.0,0.0,0.0,0.0,0.0,0.0,0.0,0.0
6681000000,129,6681000000,world,bluerov2/base_link,9.795590428850762,16.512516741287378,-94.78973439238364,0.0002709622814325727,-0.0002062107575282666,-0.7199530552271561,0.6940226814201746,0.0,0.0,0.0,0.0,0.0,0.0,0.0,0.0,0.0,0.0,0.0,0.0,0.0,0.0,0.0,0.0,0.0,0.0,0.0,0.0,0.0,0.0,0.0,0.0,0.0,0.0,0.0,0.0,0.0,0.0,0.0,0.0,0.0,0.0,0.0,0.0,0.003955110143420877,-1.096813868007939,-0.0032410694294344915,0.0005419858215176929,-0.00830465858234317,0.02007401905147234,0.0,0.0,0.0,0.0,0.0,0.0,0.0,0.0,0.0,0.0,0.0,0.0,0.0,0.0,0.0,0.0,0.0,0.0,0.0,0.0,0.0,0.0,0.0,0.0,0.0,0.0,0.0,0.0,0.0,0.0,0.0,0.0,0.0,0.0,0.0,0.0
6731000000,130,6731000000,world,bluerov2/base_link,9.795687432048465,16.45792876107495,-94.78971657656164,0.0002649291667207379,-0.0001911734476032391,-0.7198951456294331,0.694082756279413,0.0,0.0,0.0,0.0,0.0,0.0,0.0,0.0,0.0,0.0,0.0,0.0,0.0,0.0,0.0,0.0,0.0,0.0,0.0,0.0,0.0,0.0,0.0,0.0,0.0,0.0,0.0,0.0,0.0,0.0,0.0,0.0,0.0,0.0,0.0,0.0,0.003409616904890897,-1.0874796354993697,0.0033335760140965833,0.0009492744903869866,0.0059921652003416676,-0.0017581837782969045,0.0,0.0,0.0,0.0,0.0,0.0,0.0,0.0,0.0,0.0,0.0,0.0,0.0,0.0,0.0,0.0,0.0,0.0,0.0,0.0,0.0,0.0,0.0,0.0,0.0,0.0,0.0,0.0,0.0,0.0,0.0,0.0,0.0,0.0,0.0,0.0
6781000000,131,6781000000,world,bluerov2/base_link,9.795772524473346,16.403405088287936,-94.78975502514123,0.0003237642853582235,-0.00023014157437405128,-0.7197587077990886,0.6942242035242862,0.0,0.0,0.0,0.0,0.0,0.0,0.0,0.0,0.0,0.0,0.0,0.0,0.0,0.0,0.0,0.0,0.0,0.0,0.0,0.0,0.0,0.0,0.0,0.0,0.0,0.0,0.0,0.0,0.0,0.0,0.0,0.0,0.0,0.0,0.0,0.0,0.005202484649778819,-1.0960331648479724,-0.0075553061015463255,0.002469628092177363,-0.012581138866399312,0.017891505542412523,0.0,0.0,0.0,0.0,0.0,0.0,0.0,0.0,0.0,0.0,0.0,0.0,0.0,0.0,0.0,0.0,0.0,0.0,0.0,0.0,0.0,0.0,0.0,0.0,0.0,0.0,0.0,0.0,0.0,0.0,0.0,0.0,0.0,0.0,0.0,0.0
6831000000,132,6831000000,world,bluerov2/base_link,9.795889111433791,16.349099104074003,-94.7897519349361,0.000305475362765319,-0.000206309714001901,-0.7196505084461722,0.6943363808805287,0.0,0.0,0.0,0.0,0.0,0.0,0.0,0.0,0.0,0.0,0.0,0.0,0.0,0.0,0.0,0.0,0.0,0.0,0.0,0.0,0.0,0.0,0.0,0.0,0.0,0.0,0.0,0.0,0.0,0.0,0.0,0.0,0.0,0.0,0.0,0.0,-0.0005149492118424766,-1.0850475973081082,-0.0013001042671543614,0.009592428386644961,-0.0001846604225281268,0.01332611808439793,0.0,0.0,0.0,0.0,0.0,0.0,0.0,0.0,0.0,0.0,0.0,0.0,0.0,0.0,0.0,0.0,0.0,0.0,0.0,0.0,0.0,0.0,0.0,0.0,0.0,0.0,0.0,0.0,0.0,0.0,0.0,0.0,0.0,0.0,0.0,0.0
6881000000,133,6881000000,world,bluerov2/base_link,9.795976019216273,16.295069477499673,-94.7897345986459,0.00024084103151381686,-0.0002653535576650582,-0.7194672791187958,0.6945262456239389,0.0,0.0,0.0,0.0,0.0,0.0,0.0,0.0,0.0,0.0,0.0,0.0,0.0,0.0,0.0,0.0,0.0,0.0,0.0,0.0,0.0,0.0,0.0,0.0,0.0,0.0,0.0,0.0,0.0,0.0,0.0,0.0,0.0,0.0,0.0,0.0,0.001887535604761921,-1.0717169615808466,0.0064821521818768345,0.006492878476129027,-0.008079524989209408,0.01923369535859716,0.0,0.0,0.0,0.0,0.0,0.0,0.0,0.0,0.0,0.0,0.0,0.0,0.0,0.0,0.0,0.0,0.0,0.0,0.0,0.0,0.0,0.0,0.0,0.0,0.0,0.0,0.0,0.0,0.0,0.0,0.0,0.0,0.0,0.0,0.0,0.0
6931000000,134,6931000000,world,bluerov2/base_link,9.796146532335046,16.24136047760356,-94.78968994251547,0.00027769690218189106,-0.00012926539835775996,-0.7192571070823578,0.6947439241090241,0.0,0.0,0.0,0.0,0.0,0.0,0.0,0.0,0.0,0.0,0.0,0.0,0.0,0.0,0.0,0.0,0.0,0.0,0.0,0.0,0.0,0.0,0.0,0.0,0.0,0.0,0.0,0.0,0.0,0.0,0.0,0.0,0.0,0.0,0.0,0.0,0.0009855839499669143,-1.0694205140380242,0.0025316633839532433,-0.0051725383713308705,0.0014048535150939772,0.011743605334172687,0.0,0.0,0.0,0.0,0.0,0.0,0.0,0.0,0.0,0.0,0.0,0.0,0.0,0.0,0.0,0.0,0.0,0.0,0.0,0.0,0.0,0.0,0.0,0.0,0.0,0.0,0.0,0.0,0.0,0.0,0.0,0.0,0.0,0.0,0.0,0.0
6981000000,135,6981000000,world,bluerov2/base_link,9.796289749433718,16.187859949001968,-94.78974124523192,0.000319091623575467,-0.00021665819416176696,-0.7189739479726341,0.695036915117756,0.0,0.0,0.0,0.0,0.0,0.0,0.0,0.0,0.0,0.0,0.0,0.0,0.0,0.0,0.0,0.0,0.0,0.0,0.0,0.0,0.0,0.0,0.0,0.0,0.0,0.0,0.0,0.0,0.0,0.0,0.0,0.0,0.0,0.0,0.0,0.0,0.003057629237138693,-1.06005302475768,0.006075709241800564,0.00806728045839925,0.012717427515521323,0.005064112939409487,0.0,0.0,0.0,0.0,0.0,0.0,0.0,0.0,0.0,0.0,0.0,0.0,0.0,0.0,0.0,0.0,0.0,0.0,0.0,0.0,0.0,0.0,0.0,0.0,0.0,0.0,0.0,0.0,0.0,0.0,0.0,0.0,0.0,0.0,0.0,0.0
7031000000,136,7031000000,world,bluerov2/base_link,9.796440934782837,16.134719901020397,-94.78974461667545,0.0002329952758732676,-0.00023068685006823409,-0.718789901883558,0.6952272789865221,0.0,0.0,0.0,0.0,0.0,0.0,0.0,0.0,0.0,0.0,0.0,0.0,0.0,0.0,0.0,0.0,0.0,0.0,0.0,0.0,0.0,0.0,0.0,0.0,0.0,0.0,0.0,0.0,0.0,0.0,0.0,0.0,0.0,0.0,0.0,0.0,0.004633018766442833,-1.0637420247668956,-0.004297322818843323,-0.0008171588208507896,-0.009021156971612942,0.018905719979806567,0.0,0.0,0.0,0.0,0.0,0.0,0.0,0.0,0.0,0.0,0.0,0.0,0.0,0.0,0.0,0.0,0.0,0.0,0.0,0.0,0.0,0.0,0.0,0.0,0.0,0.0,0.0,0.0,0.0,0.0,0.0,0.0,0.0,0.0,0.0,0.0
7081000000,137,7081000000,world,bluerov2/base_link,9.796511798575679,16.081871201898903,-94.7897823849089,0.0003126209894399051,-0.00023214428262246858,-0.7184862124354118,0.6955410921846138,0.0,0.0,0.0,0.0,0.0,0.0,0.0,0.0,0.0,0.0,0.0,0.0,0.0,0.0,0.0,0.0,0.0,0.0,0.0,0.0,0.0,0.0,0.0,0.0,0.0,0.0,0.0,0.0,0.0,0.0,0.0,0.0,0.0,0.0,0.0,0.0,0.005337967546095141,-1.05731640676855,-0.004277533615896508,0.0033984591514120304,-0.003145547592606519,0.0149956423345089,0.0,0.0,0.0,0.0,0.0,0.0,0.0,0.0,0.0,0.0,0.0,0.0,0.0,0.0,0.0,0.0,0.0,0.0,0.0,0.0,0.0,0.0,0.0,0.0,0.0,0.0,0.0,0.0,0.0,0.0,0.0,0.0,0.0,0.0,0.0,0.0
7131000000,138,7131000000,world,bluerov2/base_link,9.796695821746756,16.029412427129348,-94.78977297095196,0.00031636203007604294,-0.0001981396645909032,-0.7182801396577059,0.6957539088133431,0.0,0.0,0.0,0.0,0.0,0.0,0.0,0.0,0.0,0.0,0.0,0.0,0.0,0.0,0.0,0.0,0.0,0.0,0.0,0.0,0.0,0.0,0.0,0.0,0.0,0.0,0.0,0.0,0.0,0.0,0.0,0.0,0.0,0.0,0.0,0.0,0.0012708487567427429,-1.044727970499019,0.0011193161520409458,0.015800795360142148,-0.009387410239220741,0.02901390310370158,0.0,0.0,0.0,0.0,0.0,0.0,0.0,0.0,0.0,0.0,0.0,0.0,0.0,0.0,0.0,0.0,0.0,0.0,0.0,0.0,0.0,0.0,0.0,0.0,0.0,0.0,0.0,0.0,0.0,0.0,0.0,0.0,0.0,0.0,0.0,0.0
7181000000,139,7181000000,world,bluerov2/base_link,9.796741264525318,15.977329710924728,-94.7897468259272,0.0003079761503838864,-0.00017656296832537307,-0.71796981467716,0.6960741477663522,0.0,0.0,0.0,0.0,0.0,0.0,0.0,0.0,0.0,0.0,0.0,0.0,0.0,0.0,0.0,0.0,0.0,0.0,0.0,0.0,0.0,0.0,0.0,0.0,0.0,0.0,0.0,0.0,0.0,0.0,0.0,0.0,0.0,0.0,0.0,0.0,0.0033566420569071526,-1.0465961151199599,-0.007896725999437821,-0.012005821297905646,-0.0006278335115923904,0.01615252621372483,0.0,0.0,0.0,0.0,0.0,0.0,0.0,0.0,0.0,0.0,0.0,0.0,0.0,0.0,0.0,0.0,0.0,0.0,0.0,0.0,0.0,0.0,0.0,0.0,0.0,0.0,0.0,0.0,0.0,0.0,0.0,0.0,0.0,0.0,0.0,0.0
7231000000,140,7231000000,world,bluerov2/base_link,9.796833505000459,15.925576435531198,-94.78974824496925,0.00034007274364324585,-0.00015272619759382523,-0.7176978893528533,0.6963545078792102,0.0,0.0,0.0,0.0,0.0,0.0,0.0,0.0,0.0,0.0,0.0,0.0,0.0,0.0,0.0,0.0,0.0,0.0,0.0,0.0,0.0,0.0,0.0,0.0,0.0,0.0,0.0,0.0,0.0,0.0,0.0,0.0,0.0,0.0,0.0,0.0,-0.0010727815562363505,-1.0258413344228965,0.0056725608140879786,0.011514133778680583,0.0027352287178576263,0.016490655074328533,0.0,0.0,0.0,0.0,0.0,0.0,0.0,0.0,0.0,0.0,0.0,0.0,0.0,0.0,0.0,0.0,0.0,0.0,0.0,0.0,0.0,0.0,0.0,0.0,0.0,0.0,0.0,0.0,0.0,0.0,0.0,0.0,0.0,0.0,0.0,0.0
7281000000,141,7281000000,world,bluerov2/base_link,9.79678126753569,15.874143770202677,-94.78977483221041,0.00033616627520648986,-0.00027478861181159985,-0.7173592832827929,0.6967032870393621,0.0,0.0,0.0,0.0,0.0,0.0,0.0,0.0,0.0,0.0,0.0,0.0,0.0,0.0,0.0,0.0,0.0,0.0,0.0,0.0,0.0,0.0,0.0,0.0,0.0,0.0,0.0,0.0,0.0,0.0,0.0,0.0,0.0,0.0,0.0,0.0,0.0005955992340290809,-1.028562570356273,-0.003677715478871036,-0.01376468690941115,5.694898516614922e-05,0.014686443659648277,0.0,0.0,0.0,0.0,0.0,0.0,0.0,0.0,0.0,0.0,0.0,0.0,0.0,0.0,0.0,0.0,0.0,0.0,0.0,0.0,0.0,0.0,0.0,0.0,0.0,0.0,0.0,0.0,0.0,0.0,0.0,0.0,0.0,0.0,0.0,0.0
7331000000,142,7331000000,world,bluerov2/base_link,9.796950693137708,15.823115568622807,-94.78974946600039,0.0002409972480164736,-0.0001409363897077266,-0.7172414411593442,0.6968246817822455,0.0,0.0,0.0,0.0,0.0,0.0,0.0,0.0,0.0,0.0,0.0,0.0,0.0,0.0,0.0,0.0,0.0,0.0,0.0,0.0,0.0,0.0,0.0,0.0,0.0,0.0,0.0,0.0,0.0,0.0,0.0,0.0,0.0,0.0,0.0,0.0,0.004436110179232976,-1.0234745664724225,-0.006223880443656309,-0.004501859446096413,0.0009879727125230457,0.01035537947069182,0.0,0.0,0.0,0.0,0.0,0.0,0.0,0.0,0.0,0.0,0.0,0.0,0.0,0.0,0.0,0.0,0.0,0.0,0.0,0.0,0.0,0.0,0.0,0.0,0.0,0.0,0.0,0.0,0.0,0.0,0.0,0.0,0.0,0.0,0.0,0.0
7381000000,143,7381000000,world,bluerov2/base_link,9.79708131577575,15.772374407771174,-94.7898066207774,0.00027534440654875686,-0.00022949039177334928,-0.7169813747662858,0.6970922318874775,0.0,0.0,0.0,0.0,0.0,0.0,0.0,0.0,0.0,0.0,0.0,0.0,0.0,0.0,0.0,0.0,0.0,0.0,0.0,0.0,0.0,0.0,0.0,0.0,0.0,0.0,0.0,0.0,0.0,0.0,0.0,0.0,0.0,0.0,0.0,0.0,0.0025048745774174153,-1.004329680981681,0.0060531897014866115,0.01688046990992402,-0.0030047836992965903,0.01970788899456741,0.0,0.0,0.0,0.0,0.0,0.0,0.0,0.0,0.0,0.0,0.0,0.0,0.0,0.0,0.0,0.0,0.0,0.0,0.0,0.0,0.0,0.0,0.0,0.0,0.0,0.0,0.0,0.0,0.0,0.0,0.0,0.0,0.0,0.0,0.0,0.0
7431000000,144,7431000000,world,bluerov2/base_link,9.797164082827473,15.722060719753888,-94.78977686836834,0.00028113888365948137,-0.00020922377084091795,-0.7167281668997922,0.6973525736374717,0.0,0.0,0.0,0.0,0.0,0.0,0.0,0.0,0.0,0.0,0.0,0.0,0.0,0.0,0.0,0.0,0.0,0.0,0.0,0.0,0.0,0.0,0.0,0.0,0.0,0.0,0.0,0.0,0.0,0.0,0.0,0.0,0.0,0.0,0.0,0.0,0.0006935458719943875,-1.0029445362331406,0.0006064697246921521,-0.010646463310826955,0.0006572145778958488,0.011460891218456979,0.0,0.0,0.0,0.0,0.0,0.0,0.0,0.0,0.0,0.0,0.0,0.0,0.0,0.0,0.0,0.0,0.0,0.0,0.0,0.0,0.0,0.0,0.0,0.0,0.0,0.0,0.0,0.0,0.0,0.0,0.0,0.0,0.0,0.0,0.0,0.0
7481000000,145,7481000000,world,bluerov2/base_link,9.797282635534348,15.672018115774701,-94.7898033796561,0.0003065261450133687,-0.00021461966070345133,-0.7164967435772157,0.6975903356722837,0.0,0.0,0.0,0.0,0.0,0.0,0.0,0.0,0.0,0.0,0.0,0.0,0.0,0.0,0.0,0.0,0.0,0.0,0.0,0.0,0.0,0.0,0.0,0.0,0.0,0.0,0.0,0.0,0.0,0.0,0.0,0.0,0.0,0.0,0.0,0.0,0.004259428483642319,-0.9990789452453375,-0.0018460984810286058,0.006219723376425958,-0.0038672606480906167,0.0139491188572037,0.0,0.0,0.0,0.0,0.0,0.0,0.0,0.0,0.0,0.0,0.0,0.0,0.0,0.0,0.0,0.0,0.0,0.0,0.0,0.0,0.0,0.0,0.0,0.0,0.0,0.0,0.0,0.0,0.0,0.0,0.0,0.0,0.0,0.0,0.0,0.0
7531000000,146,7531000000,world,bluerov2/base_link,9.797426704859069,15.622316289653623,-94.78979889966253,0.0002879798062643961,-0.00017805886978338576,-0.716341609888956,0.6977496566135799,0.0,0.0,0.0,0.0,0.0,0.0,0.0,0.0,0.0,0.0,0.0,0.0,0.0,0.0,0.0,0.0,0.0,0.0,0.0,0.0,0.0,0.0,0.0,0.0,0.0,0.0,0.0,0.0,0.0,0.0,0.0,0.0,0.0,0.0,0.0,0.0,-0.001061965044677787,-0.9888160490001621,0.0024606927245069674,0.0024157617114102074,0.0005063029723831537,0.011400371661145704,0.0,0.0,0.0,0.0,0.0,0.0,0.0,0.0,0.0,0.0,0.0,0.0,0.0,0.0,0.0,0.0,0.0,0.0,0.0,0.0,0.0,0.0,0.0,0.0,0.0,0.0,0.0,0.0,0.0,0.0,0.0,0.0,0.0,0.0,0.0,0.0
7581000000,147,7581000000,world,bluerov2/base_link,9.79752339648248,15.572884197654778,-94.78979510931778,0.0003260539472771932,-0.0001185363469791304,-0.7161724124311896,0.6979233162106334,0.0,0.0,0.0,0.0,0.0,0.0,0.0,0.0,0.0,0.0,0.0,0.0,0.0,0.0,0.0,0.0,0.0,0.0,0.0,0.0,0.0,0.0,0.0,0.0,0.0,0.0,0.0,0.0,0.0,0.0,0.0,0.0,0.0,0.0,0.0,0.0,0.006981354358082731,-0.9930819911202682,-0.006792190280298164,0.0014817793194281126,0.007653059614379841,0.000951440066000776,0.0,0.0,0.0,0.0,0.0,0.0,0.0,0.0,0.0,0.0,0.0,0.0,0.0,0.0,0.0,0.0,0.0,0.0,0.0,0.0,0.0,0.0,0.0,0.0,0.0,0.0,0.0,0.0,0.0,0.0,0.0,0.0,0.0,0.0,0.0,0.0
7631000000,148,7631000000,world,bluerov2/base_link,9.797606190974061,15.523697144693225,-94.78981481081742,0.00031437330577433565,-0.0002297321317148578,-0.7160095693872252,0.6980903558555246,0.0,0.0,0.0,0.0,0.0,0.0,0.0,0.0,0.0,0.0,0.0,0.0,0.0,0.0,0.0,0.0,0.0,0.0,0.0,0.0,0.0,0.0,0.0,0.0,0.0,0.0,0.0,0.0,0.0,0.0,0.0,0.0,0.0,0.0,0.0,0.0,0.0007191233532796922,-0.9800160282698479,0.0004980753116853341,0.0006915293584183675,0.00040196282548494425,0.00809005170419515,0.0,0.0,0.0,0.0,0.0,0.0,0.0,0.0,0.0,0.0,0.0,0.0,0.0,0.0,0.0,0.0,0.0,0.0,0.0,0.0,0.0,0.0,0.0,0.0,0.0,0.0,0.0,0.0,0.0,0.0,0.0,0.0,0.0,0.0,0.0,0.0
7681000000,149,7681000000,world,bluerov2/base_link,9.797717410385477,15.47480256250183,-94.78982099259137,0.0003113030114220483,-0.0002361574969167816,-0.7159715372386897,0.6981293613537102,0.0,0.0,0.0,0.0,0.0,0.0,0.0,0.0,0.0,0.0,0.0,0.0,0.0,0.0,0.0,0.0,0.0,0.0,0.0,0.0,0.0,0.0,0.0,0.0,0.0,0.0,0.0,0.0,0.0,0.0,0.0,0.0,0.0,0.0,0.0,0.0,0.000213024113867944,-0.9697394830832463,0.005538142392098177,0.004601907954115068,-0.004738359506098341,0.0010064554451673317,0.0,0.0,0.0,0.0,0.0,0.0,0.0,0.0,0.0,0.0,0.0,0.0,0.0,0.0,0.0,0.0,0.0,0.0,0.0,0.0,0.0,0.0,0.0,0.0,0.0,0.0,0.0,0.0,0.0,0.0,0.0,0.0,0.0,0.0,0.0,0.0
7731000000,150,7731000000,world,bluerov2/base_link,9.797885401769033,15.426164956052718,-94.78981039307736,0.0002684996711576729,-0.000205985626017815,-0.7159847122817581,0.6981158766685203,0.0,0.0,0.0,0.0,0.0,0.0,0.0,0.0,0.0,0.0,0.0,0.0,0.0,0.0,0.0,0.0,0.0,0.0,0.0,0.0,0.0,0.0,0.0,0.0,0.0,0.0,0.0,0.0,0.0,0.0,0.0,0.0,0.0,0.0,0.0,0.0,0.002868293813761927,-0.9690826351084137,0.0019431538826627434,0.012467675660601321,-0.004277945144548854,0.013716831543959656,0.0,0.0,0.0,0.0,0.0,0.0,0.0,0.0,0.0,0.0,0.0,0.0,0.0,0.0,0.0,0.0,0.0,0.0,0.0,0.0,0.0,0.0,0.0,0.0,0.0,0.0,0.0,0.0,0.0,0.0,0.0,0.0,0.0,0.0,0.0,0.0
7781000000,151,7781000000,world,bluerov2/base_link,9.797981504618297,15.377675385857644,-94.78981381911346,0.0002796845588590003,-0.00019183581525437237,-0.715823257915644,0.6982814249302361,0.0,0.0,0.0,0.0,0.0,0.0,0.0,0.0,0.0,0.0,0.0,0.0,0.0,0.0,0.0,0.0,0.0,0.0,0.0,0.0,0.0,0.0,0.0,0.0,0.0,0.0,0.0,0.0,0.0,0.0,0.0,0.0,0.0,0.0,0.0,0.0,0.001954551160866396,-0.9614126502424302,0.007230923993329945,0.005745565967612281,0.0079226989346592,0.004613214650058652,0.0,0.0,0.0,0.0,0.0,0.0,0.0,0.0,0.0,0.0,0.0,0.0,0.0,0.0,0.0,0.0,0.0,0.0,0.0,0.0,0.0,0.0,0.0,0.0,0.0,0.0,0.0,0.0,0.0,0.0,0.0,0.0,0.0,0.0,0.0,0.0
7831000000,152,7831000000,world,bluerov2/base_link,9.798090621625454,15.329312367595412,-94.78980559634272,0.00033545544757832143,-0.0002112591429578014,-0.7156009468646252,0.6985092180391532,0.0,0.0,0.0,0.0,0.0,0.0,0.0,0.0,0.0,0.0,0.0,0.0,0.0,0.0,0.0,0.0,0.0,0.0,0.0,0.0,0.0,0.0,0.0,0.0,0.0,0.0,0.0,0.0,0.0,0.0,0.0,0.0,0.0,0.0,0.0,0.0,-0.0032407374257689666,-0.9642241614700876,0.0020634102534192495,0.0002923853301267418,-0.00988985982928783,0.021443693572452644,0.0,0.0,0.0,0.0,0.0,0.0,0.0,0.0,0.0,0.0,0.0,0.0,0.0,0.0,0.0,0.0,0.0,0.0,0.0,0.0,0.0,0.0,0.0,0.0,0.0,0.0,0.0,0.0,0.0,0.0,0.0,0.0,0.0,0.0,0.0,0.0
7881000000,153,7881000000,world,bluerov2/base_link,9.798181187913237,15.281049739141059,-94.78979818577845,0.000285466043404527,-0.0001565498964137877,-0.7154405833258671,0.6986735043864273,0.0,0.0,0.0,0.0,0.0,0.0,0.0,0.0,0.0,0.0,0.0,0.0,0.0,0.0,0.0,0.0,0.0,0.0,0.0,0.0,0.0,0.0,0.0,0.0,0.0,0.0,0.0,0.0,0.0,0.0,0.0,0.0,0.0,0.0,0.0,0.0,0.0004148134919051129,-0.9589883662898024,0.00555907849227717,-0.0006757560153081036,0.0016615468260244752,0.009015278323022902,0.0,0.0,0.0,0.0,0.0,0.0,0.0,0.0,0.0,0.0,0.0,0.0,0.0,0.0,0.0,0.0,0.0,0.0,0.0,0.0,0.0,0.0,0.0,0.0,0.0,0.0,0.0,0.0,0.0,0.0,0.0,0.0,0.0,0.0,0.0,0.0
7931000000,154,7931000000,world,bluerov2/base_link,9.79828677334725,15.232843496549672,-94.78982430849699,0.0003721561361061628,-0.00021337671542782,-0.715196202810165,0.6989236063090939,0.0,0.0,0.0,0.0,0.0,0.0,0.0,0.0,0.0,0.0,0.0,0.0,0.0,0.0,0.0,0.0,0.0,0.0,0.0,0.0,0.0,0.0,0.0,0.0,0.0,0.0,0.0,0.0,0.0,0.0,0.0,0.0,0.0,0.0,0.0,0.0,0.0014555793604056027,-0.9602045274997295,0.0025230907304882788,0.01299885448258514,0.007197441421543105,0.007531761267792052,0.0,0.0,0.0,0.0,0.0,0.0,0.0,0.0,0.0,0.0,0.0,0.0,0.0,0.0,0.0,0.0,0.0,0.0,0.0,0.0,0.0,0.0,0.0,0.0,0.0,0.0,0.0,0.0,0.0,0.0,0.0,0.0,0.0,0.0,0.0,0.0
7981000000,155,7981000000,world,bluerov2/base_link,9.798332214556542,15.184729062581345,-94.7898374588695,0.0002997438453831858,-0.0002284778678347037,-0.7150375119955172,0.6990859849766348,0.0,0.0,0.0,0.0,0.0,0.0,0.0,0.0,0.0,0.0,0.0,0.0,0.0,0.0,0.0,0.0,0.0,0.0,0.0,0.0,0.0,0.0,0.0,0.0,0.0,0.0,0.0,0.0,0.0,0.0,0.0,0.0,0.0,0.0,0.0,0.0,8.737408515948548e-05,-0.9661823393827317,-0.004745506542353533,-0.014068364227288518,-0.006358710533303236,0.014053667811724539,0.0,0.0,0.0,0.0,0.0,0.0,0.0,0.0,0.0,0.0,0.0,0.0,0.0,0.0,0.0,0.0,0.0,0.0,0.0,0.0,0.0,0.0,0.0,0.0,0.0,0.0,0.0,0.0,0.0,0.0,0.0,0.0,0.0,0.0,0.0,0.0
8031000000,156,8031000000,world,bluerov2/base_link,9.798457679567736,15.136663482038884,-94.78986035863127,0.0003188246695361244,-0.00025560152638631913,-0.7149242027390965,0.699201843072912,0.0,0.0,0.0,0.0,0.0,0.0,0.0,0.0,0.0,0.0,0.0,0.0,0.0,0.0,0.0,0.0,0.0,0.0,0.0,0.0,0.0,0.0,0.0,0.0,0.0,0.0,0.0,0.0,0.0,0.0,0.0,0.0,0.0,0.0,0.0,0.0,0.004905949765514718,-0.9667847249846168,-0.006432051612442873,-0.004581248461925893,-0.0037645699370028696,0.0026697320743342616,0.0,0.0,0.0,0.0,0.0,0.0,0.0,0.0,0.0,0.0,0.0,0.0,0.0,0.0,0.0,0.0,0.0,0.0,0.0,0.0,0.0,0.0,0.0,0.0,0.0,0.0,0.0,0.0,0.0,0.0,0.0,0.0,0.0,0.0,0.0,0.0
8081000000,157,8081000000,world,bluerov2/base_link,9.79852041819753,15.088642671604445,-94.78986422125611,0.0003102941278579928,-0.00023183976170470917,-0.7148915292770437,0.699235261793775,0.0,0.0,0.0,0.0,0.0,0.0,0.0,0.0,0.0,0.0,0.0,0.0,0.0,0.0,0.0,0.0,0.0,0.0,0.0,0.0,0.0,0.0,0.0,0.0,0.0,0.0,0.0,0.0,0.0,0.0,0.0,0.0,0.0,0.0,0.0,0.0,0.001583346798942021,-0.9566663783171564,0.0037783809410744666,0.01586822710073482,0.004919163288042064,-0.0015354787623592077,0.0,0.0,0.0,0.0,0.0,0.0,0.0,0.0,0.0,0.0,0.0,0.0,0.0,0.0,0.0,0.0,0.0,0.0,0.0,0.0,0.0,0.0,0.0,0.0,0.0,0.0,0.0,0.0,0.0,0.0,0.0,0.0,0.0,0.0,0.0,0.0
8131000000,158,8131000000,world,bluerov2/base_link,9.7987275108431,15.040653873230124,-94.7898328890807,0.00024880280777341853,-0.00018381147064666696,-0.7149446378388012,0.6991809988379628,0.0,0.0,0.0,0.0,0.0,0.0,0.0,0.0,0.0,0.0,0.0,0.0,0.0,0.0,0.0,0.0,0.0,0.0,0.0,0.0,0.0,0.0,0.0,0.0,0.0,0.0,0.0,0.0,0.0,0.0,0.0,0.0,0.0,0.0,0.0,0.0,0.005146605205931486,-0.9622518384961194,-0.0018896719254107568,-0.01205649913644415,0.0029625837637488237,-0.006322760127703072,0.0,0.0,0.0,0.0,0.0,0.0,0.0,0.0,0.0,0.0,0.0,0.0,0.0,0.0,0.0,0.0,0.0,0.0,0.0,0.0,0.0,0.0,0.0,0.0,0.0,0.0,0.0,0.0,0.0,0.0,0.0,0.0,0.0,0.0,0.0,0.0
8181000000,159,8181000000,world,bluerov2/base_link,9.798760776251713,14.992636953018522,-94.78982565194114,0.0004058568491298922,-0.00018021984902100985,-0.7147522978840837,0.6993775485890621,0.0,0.0,0.0,0.0,0.0,0.0,0.0,0.0,0.0,0.0,0.0,0.0,0.0,0.0,0.0,0.0,0.0,0.0,0.0,0.0,0.0,0.0,0.0,0.0,0.0,0.0,0.0,0.0,0.0,0.0,0.0,0.0,0.0,0.0,0.0,0.0,0.00030159444950899646,-0.9547452578784874,0.005721681317120659,-0.0013353598151918354,0.002229373926187999,0.006200103490870601,0.0,0.0,0.0,0.0,0.0,0.0,0.0,0.0,0.0,0.0,0.0,0.0,0.0,0.0,0.0,0.0,0.0,0.0,0.0,0.0,0.0,0.0,0.0,0.0,0.0,0.0,0.0,0.0,0.0,0.0,0.0,0.0,0.0,0.0,0.0,0.0
8231000000,160,8231000000,world,bluerov2/base_link,9.798932430812672,14.9445754996189,-94.78987300755564,0.0002475571080117278,-0.00019706602325797814,-0.7146936537547448,0.6994375462921287,0.0,0.0,0.0,0.0,0.0,0.0,0.0,0.0,0.0,0.0,0.0,0.0,0.0,0.0,0.0,0.0,0.0,0.0,0.0,0.0,0.0,0.0,0.0,0.0,0.0,0.0,0.0,0.0,0.0,0.0,0.0,0.0,0.0,0.0,0.0,0.0,0.0020488039432183004,-0.9609459303035377,-0.0007785866511386148,0.009974553209913702,-0.0034300126948701446,0.017202433812273918,0.0,0.0,0.0,0.0,0.0,0.0,0.0,0.0,0.0,0.0,0.0,0.0,0.0,0.0,0.0,0.0,0.0,0.0,0.0,0.0,0.0,0.0,0.0,0.0,0.0,0.0,0.0,0.0,0.0,0.0,0.0,0.0,0.0,0.0,0.0,0.0
8281000000,161,8281000000,world,bluerov2/base_link,9.799032172728149,14.896552058641008,-94.78988469572391,0.0003024922340975883,-0.00020350361219848833,-0.7144406722019323,0.699695928949411,0.0,0.0,0.0,0.0,0.0,0.0,0.0,0.0,0.0,0.0,0.0,0.0,0.0,0.0,0.0,0.0,0.0,0.0,0.0,0.0,0.0,0.0,0.0,0.0,0.0,0.0,0.0,0.0,0.0,0.0,0.0,0.0,0.0,0.0,0.0,0.0,0.007030531013456156,-0.9675244366861749,-0.00717470089213834,0.0037584483092879136,-0.0030851125004649365,0.01635483759960566,0.0,0.0,0.0,0.0,0.0,0.0,0.0,0.0,0.0,0.0,0.0,0.0,0.0,0.0,0.0,0.0,0.0,0.0,0.0,0.0,0.0,0.0,0.0,0.0,0.0,0.0,0.0,0.0,0.0,0.0,0.0,0.0,0.0,0.0,0.0,0.0
