%time,field.header.seq,field.header.stamp,field.header.frame_id,field.child_frame_id,field.pose.pose.position.x,field.pose.pose.position.y,field.pose.pose.position.z,field.pose.pose.orientation.x,field.pose.pose.orientation.y,field.pose.pose.orientation.z,field.pose.pose.orientation.w,field.pose.covariance0,field.pose.covariance1,field.pose.covariance2,field.pose.covariance3,field.pose.covariance4,field.pose.covariance5,field.pose.covariance6,field.pose.covariance7,field.pose.covariance8,field.pose.covariance9,field.pose.covariance10,field.pose.covariance11,field.pose.covariance12,field.pose.covariance13,field.pose.covariance14,field.pose.covariance15,field.pose.covariance16,field.pose.covariance17,field.pose.covariance18,field.pose.covariance19,field.pose.covariance20,field.pose.covariance21,field.pose.covariance22,field.pose.covariance23,field.pose.covariance24,field.pose.covariance25,field.pose.covariance26,field.pose.covariance27,field.pose.covariance28,field.pose.covariance29,field.pose.covariance30,field.pose.covariance31,field.pose.covariance32,field.pose.covariance33,field.pose.covariance34,field.pose.covariance35,field.twist.twist.linear.x,field.twist.twist.linear.y,field.twist.twist.linear.z,field.twist.twist.angular.x,field.twist.twist.angular.y,field.twist.twist.angular.z,field.twist.covariance0,field.twist.covariance1,field.twist.covariance2,field.twist.covariance3,field.twist.covariance4,field.twist.covariance5,field.twist.covariance6,field.twist.covariance7,field.twist.covariance8,field.twist.covariance9,field.twist.covariance10,field.twist.covariance11,field.twist.covariance12,field.twist.covariance13,field.twist.covariance14,field.twist.covariance15,field.twist.covariance16,field.twist.covariance17,field.twist.covariance18,field.twist.covariance19,field.twist.covariance20,field.twist.covariance21,field.twist.covariance22,field.twist.covariance23,field.twist.covariance24,field.twist.covariance25,field.twist.covariance26,field.twist.covariance27,field.twist.covariance28,field.twist.covariance29,field.twist.covariance30,field.twist.covariance31,field.twist.covariance32,field.twist.covariance33,field.twist.covariance34,field.twist.covariance35
5631000000,104,5631000000,world,bluerov2/base_link,9.772644239790148,16.84382905486457,-94.78970209734918,0.00025102982682539775,-0.0002034133582719555,-0.7184287151763549,0.6956005152507317,0.0,0.0,0.0,0.0,0.0,0.0,0.0,0.0,0.0,0.0,0.0,0.0,0.0,0.0,0.0,0.0,0.0,0.0,0.0,0.0,0.0,0.0,0.0,0.0,0.0,0.0,0.0,0.0,0.0,0.0,0.0,0.0,0.0,0.0,0.0,0.0,0.0022418496766328944,-1.0251507566553046,-0.003202565771433038,0.001652257256494703,-0.003211251857987365,0.01160694742544935,0.0,0.0,0.0,0.0,0.0,0.0,0.0,0.0,0.0,0.0,0.0,0.0,0.0,0.0,0.0,0.0,0.0,0.0,0.0,0.0,0.0,0.0,0.0,0.0,0.0,0.0,0.0,0.0,0.0,0.0,0.0,0.0,0.0,0.0,0.0,0.0
5681000000,105,5681000000,world,bluerov2/base_link,9.772716718829217,16.792668446617743,-94.7897007819142,0.00031831941446084695,-0.00022117449823833008,-0.7181965774761603,0.6958401582663375,0.0,0.0,0.0,0.0,0.0,0.0,0.0,0.0,0.0,0.0,0.0,0.0,0.0,0.0,0.0,0.0,0.0,0.0,0.0,0.0,0.0,0.0,0.0,0.0,0.0,0.0,0.0,0.0,0.0,0.0,0.0,0.0,0.0,0.0,0.0,0.0,0.0014906618206376636,-1.0171153262888903,0.0075147386381521734,0.004400268433545623,0.009845213827181325,0.0048337931599984315,0.0,0.0,0.0,0.0,0.0,0.0,0.0,0.0,0.0,0.0,0.0,0.0,0.0,0.0,0.0,0.0,0.0,0.0,0.0,0.0,0.0,0.0,0.0,0.0,0.0,0.0,0.0,0.0,0.0,0.0,0.0,0.0,0.0,0.0,0.0,0.0
5731000000,106,5731000000,world,bluerov2/base_link,9.772856121682471,16.741385891614474,-94.78969302011907,0.0002881230543763742,-0.000217886752854828,-0.717989591188437,0.6960537453785662,0.0,0.0,0.0,0.0,0.0,0.0,0.0,0.0,0.0,0.0,0.0,0.0,0.0,0.0,0.0,0.0,0.0,0.0,0.0,0.0,0.0,0.0,0.0,0.0,0.0,0.0,0.0,0.0,0.0,0.0,0.0,0.0,0.0,0.0,0.0,0.0,0.0024646878753104597,-1.0237892845335312,0.0029890248945013513,-0.0005316662036623127,0.008343250639646822,0.006523787219680076,0.0,0.0,0.0,0.0,0.0,0.0,0.0,0.0,0.0,0.0,0.0,0.0,0.0,0.0,0.0,0.0,0.0,0.0,0.0,0.0,0.0,0.0,0.0,0.0,0.0,0.0,0.0,0.0,0.0,0.0,0.0,0.0,0.0,0.0,0.0,0.0
5781000000,107,5781000000,world,bluerov2/base_link,9.77285631858237,16.689982056372187,-94.78971440387902,0.00033422472392867286,-0.00022519696056959806,-0.7176847880072494,0.6963679936952534,0.0,0.0,0.0,0.0,0.0,0.0,0.0,0.0,0.0,0.0,0.0,0.0,0.0,0.0,0.0,0.0,0.0,0.0,0.0,0.0,0.0,0.0,0.0,0.0,0.0,0.0,0.0,0.0,0.0,0.0,0.0,0.0,0.0,0.0,0.0,0.0,-0.0033539551611579312,-1.0310881259983038,-0.002564650920086103,-0.009502728990480182,-0.004594690955675097,0.0205925970334818,0.0,0.0,0.0,0.0,0.0,0.0,0.0,0.0,0.0,0.0,0.0,0.0,0.0,0.0,0.0,0.0,0.0,0.0,0.0,0.0,0.0,0.0,0.0,0.0,0.0,0.0,0.0,0.0,0.0,0.0,0.0,0.0,0.0,0.0,0.0,0.0
5831000000,108,5831000000,world,bluerov2/base_link,9.77295554650175,16.63851875533822,-94.78971625519424,0.00028275343032556984,-0.00019272440713082143,-0.7175235603719823,0.6965341507915568,0.0,0.0,0.0,0.0,0.0,0.0,0.0,0.0,0.0,0.0,0.0,0.0,0.0,0.0,0.0,0.0,0.0,0.0,0.0,0.0,0.0,0.0,0.0,0.0,0.0,0.0,0.0,0.0,0.0,0.0,0.0,0.0,0.0,0.0,0.0,0.0,-0.0008388289182951511,-1.01978549951189,0.010004884106022615,0.00653314963067326,0.002713743312630303,0.00782359883032165,0.0,0.0,0.0,0.0,0.0,0.0,0.0,0.0,0.0,0.0,0.0,0.0,0.0,0.0,0.0,0.0,0.0,0.0,0.0,0.0,0.0,0.0,0.0,0.0,0.0,0.0,0.0,0.0,0.0,0.0,0.0,0.0,0.0,0.0,0.0,0.0
5881000000,109,5881000000,world,bluerov2/base_link,9.772993668169972,16.586989002214796,-94.7897331785741,0.0003353016958707931,-0.0002582058119304827,-0.7172985889917719,0.6967657821197485,0.0,0.0,0.0,0.0,0.0,0.0,0.0,0.0,0.0,0.0,0.0,0.0,0.0,0.0,0.0,0.0,0.0,0.0,0.0,0.0,0.0,0.0,0.0,0.0,0.0,0.0,0.0,0.0,0.0,0.0,0.0,0.0,0.0,0.0,0.0,0.0,0.00021476752613652027,-1.0355097107315838,-0.004660757486433622,-0.001760440354799971,0.0002653065923318059,0.010785453178448421,0.0,0.0,0.0,0.0,0.0,0.0,0.0,0.0,0.0,0.0,0.0,0.0,0.0,0.0,0.0,0.0,0.0,0.0,0.0,0.0,0.0,0.0,0.0,0.0,0.0,0.0,0.0,0.0,0.0,0.0,0.0,0.0,0.0,0.0,0.0,0.0
5931000000,110,5931000000,world,bluerov2/base_link,9.773102286047532,16.535473414508008,-94.78969404460528,0.0003200241319452745,-0.00019769702288443433,-0.717101068277455,0.6969690928411207,0.0,0.0,0.0,0.0,0.0,0.0,0.0,0.0,0.0,0.0,0.0,0.0,0.0,0.0,0.0,0.0,0.0,0.0,0.0,0.0,0.0,0.0,0.0,0.0,0.0,0.0,0.0,0.0,0.0,0.0,0.0,0.0,0.0,0.0,0.0,0.0,0.0029279898833016586,-1.0310177919518584,3.401005197270658e-05,-0.005099056373261174,0.006985652806689103,0.00755149901207178,0.0,0.0,0.0,0.0,0.0,0.0,0.0,0.0,0.0,0.0,0.0,0.0,0.0,0.0,0.0,0.0,0.0,0.0,0.0,0.0,0.0,0.0,0.0,0.0,0.0,0.0,0.0,0.0,0.0,0.0,0.0,0.0,0.0,0.0,0.0,0.0
5981000000,111,5981000000,world,bluerov2/base_link,9.773240635100658,16.4839121051703,-94.78969800427255,0.00033034304921055103,-0.00015405043468547883,-0.7169626869071047,0.697111449285463,0.0,0.0,0.0,0.0,0.0,0.0,0.0,0.0,0.0,0.0,0.0,0.0,0.0,0.0,0.0,0.0,0.0,0.0,0.0,0.0,0.0,0.0,0.0,0.0,0.0,0.0,0.0,0.0,0.0,0.0,0.0,0.0,0.0,0.0,0.0,0.0,0.005446077381537041,-1.035091458503804,-0.003761478002233978,0.004284988015358175,0.006432067147717704,0.004269425783570511,0.0,0.0,0.0,0.0,0.0,0.0,0.0,0.0,0.0,0.0,0.0,0.0,0.0,0.0,0.0,0.0,0.0,0.0,0.0,0.0,0.0,0.0,0.0,0.0,0.0,0.0,0.0,0.0,0.0,0.0,0.0,0.0,0.0,0.0,0.0,0.0
6031000000,112,6031000000,world,bluerov2/base_link,9.77328833723957,16.43229776859848,-94.78972800121444,0.00031509485678250733,-0.000262287134794092,-0.7167806366785083,0.6972986094948435,0.0,0.0,0.0,0.0,0.0,0.0,0.0,0.0,0.0,0.0,0.0,0.0,0.0,0.0,0.0,0.0,0.0,0.0,0.0,0.0,0.0,0.0,0.0,0.0,0.0,0.0,0.0,0.0,0.0,0.0,0.0,0.0,0.0,0.0,0.0,0.0,0.0009535023086220474,-1.03259929255076,-0.0005492588005531142,-0.004203998722679379,-0.0005197749742521399,0.006988611468546598,0.0,0.0,0.0,0.0,0.0,0.0,0.0,0.0,0.0,0.0,0.0,0.0,0.0,0.0,0.0,0.0,0.0,0.0,0.0,0.0,0.0,0.0,0.0,0.0,0.0,0.0,0.0,0.0,0.0,0.0,0.0,0.0,0.0,0.0,0.0,0.0
6081000000,113,6081000000,world,bluerov2/base_link,9.773373765680189,16.380662840396358,-94.78972812136116,0.0003070412983142814,-0.0002234532353840554,-0.716676429144059,0.6974057296177123,0.0,0.0,0.0,0.0,0.0,0.0,0.0,0.0,0.0,0.0,0.0,0.0,0.0,0.0,0.0,0.0,0.0,0.0,0.0,0.0,0.0,0.0,0.0,0.0,0.0,0.0,0.0,0.0,0.0,0.0,0.0,0.0,0.0,0.0,0.0,0.0,0.001983473239695006,-1.0414031644696256,-0.007944216497498966,-0.010462580923550496,-0.004510031771974521,0.009805572752350795,0.0,0.0,0.0,0.0,0.0,0.0,0.0,0.0,0.0,0.0,0.0,0.0,0.0,0.0,0.0,0.0,0.0,0.0,0.0,0.0,0.0,0.0,0.0,0.0,0.0,0.0,0.0,0.0,0.0,0.0,0.0,0.0,0.0,0.0,0.0,0.0
6131000000,114,6131000000,world,bluerov2/base_link,9.773479986811108,16.328922220029703,-94.78975000071708,0.00030791521990757264,-0.0002162654947559756,-0.7166276686151801,0.6974558358725124,0.0,0.0,0.0,0.0,0.0,0.0,0.0,0.0,0.0,0.0,0.0,0.0,0.0,0.0,0.0,0.0,0.0,0.0,0.0,0.0,0.0,0.0,0.0,0.0,0.0,0.0,0.0,0.0,0.0,0.0,0.0,0.0,0.0,0.0,0.0,0.0,0.0040659104725269506,-1.045139783585231,-0.009977430130719283,-0.007355728617344316,-0.0012806379786908348,0.004488801720235831,0.0,0.0,0.0,0.0,0.0,0.0,0.0,0.0,0.0,0.0,0.0,0.0,0.0,0.0,0.0,0.0,0.0,0.0,0.0,0.0,0.0,0.0,0.0,0.0,0.0,0.0,0.0,0.0,0.0,0.0,0.0,0.0,0.0,0.0,0.0,0.0
6181000000,115,6181000000,world,bluerov2/base_link,9.773533970759166,16.277134943950237,-94.78973036900162,0.00031668945922499445,-0.00016918717708362771,-0.7165858394735258,0.6974988213248163,0.0,0.0,0.0,0.0,0.0,0.0,0.0,0.0,0.0,0.0,0.0,0.0,0.0,0.0,0.0,0.0,0.0,0.0,0.0,0.0,0.0,0.0,0.0,0.0,0.0,0.0,0.0,0.0,0.0,0.0,0.0,0.0,0.0,0.0,0.0,0.0,-0.00021629141674463424,-1.038114235569435,-0.0009465084674809955,-0.004547998867594292,-0.002339744643031303,0.005056744004256462,0.0,0.0,0.0,0.0,0.0,0.0,0.0,0.0,0.0,0.0,0.0,0.0,0.0,0.0,0.0,0.0,0.0,0.0,0.0,0.0,0.0,0.0,0.0,0.0,0.0,0.0,0.0,0.0,0.0,0.0,0.0,0.0,0.0,0.0,0.0,0.0
6231000000,116,6231000000,world,bluerov2/base_link,9.77357947267599,16.2252367329591,-94.78972648672685,0.0003415959979167381,-0.00015057558649832074,-0.7165385137742112,0.6975474313029985,0.0,0.0,0.0,0.0,0.0,0.0,0.0,0.0,0.0,0.0,0.0,0.0,0.0,0.0,0.0,0.0,0.0,0.0,0.0,0.0,0.0,0.0,0.0,0.0,0.0,0.0,0.0,0.0,0.0,0.0,0.0,0.0,0.0,0.0,0.0,0.0,0.0019441648689544752,-1.0296816492250769,0.008873099343295802,0.008190381019092724,0.00646700438473659,-0.0023867814800088366,0.0,0.0,0.0,0.0,0.0,0.0,0.0,0.0,0.0,0.0,0.0,0.0,0.0,0.0,0.0,0.0,0.0,0.0,0.0,0.0,0.0,0.0,0.0,0.0,0.0,0.0,0.0,0.0,0.0,0.0,0.0,0.0,0.0,0.0,0.0,0.0
6281000000,117,6281000000,world,bluerov2/base_link,9.773610058903742,16.173295233118754,-94.78975435259238,0.00026839168904144525,-0.000286333917157715,-0.7164797090582412,0.6976078214058434,0.0,0.0,0.0,0.0,0.0,0.0,0.0,0.0,0.0,0.0,0.0,0.0,0.0,0.0,0.0,0.0,0.0,0.0,0.0,0.0,0.0,0.0,0.0,0.0,0.0,0.0,0.0,0.0,0.0,0.0,0.0,0.0,0.0,0.0,0.0,0.0,-0.00028861406415281633,-1.0305412952019153,0.007171972633027312,0.004610770533181911,-0.003705377094727961,0.002384551657777124,0.0,0.0,0.0,0.0,0.0,0.0,0.0,0.0,0.0,0.0,0.0,0.0,0.0,0.0,0.0,0.0,0.0,0.0,0.0,0.0,0.0,0.0,0.0,0.0,0.0,0.0,0.0,0.0,0.0,0.0,0.0,0.0,0.0,0.0,0.0,0.0
6331000000,118,6331000000,world,bluerov2/base_link,9.773717153761613,16.121521528528945,-94.78969288717585,0.0003782299708699395,-6.94362449119719e-05,-0.7164805541015558,0.6976069579032483,0.0,0.0,0.0,0.0,0.0,0.0,0.0,0.0,0.0,0.0,0.0,0.0,0.0,0.0,0.0,0.0,0.0,0.0,0.0,0.0,0.0,0.0,0.0,0.0,0.0,0.0,0.0,0.0,0.0,0.0,0.0,0.0,0.0,0.0,0.0,0.0,0.0015456287681104113,-1.036599846994243,-0.0010137714408744215,0.0020388172568149197,0.00014894181309816986,0.0031294963370623384,0.0,0.0,0.0,0.0,0.0,0.0,0.0,0.0,0.0,0.0,0.0,0.0,0.0,0.0,0.0,0.0,0.0,0.0,0.0,0.0,0.0,0.0,0.0,0.0,0.0,0.0,0.0,0.0,0.0,0.0,0.0,0.0,0.0,0.0,0.0,0.0
6381000000,119,6381000000,world,bluerov2/base_link,9.773694149958692,16.0697246507745,-94.78975494792628,0.0003119303439794391,-0.00024066797777422426,-0.7163716989948297,0.6977187353494574,0.0,0.0,0.0,0.0,0.0,0.0,0.0,0.0,0.0,0.0,0.0,0.0,0.0,0.0,0.0,0.0,0.0,0.0,0.0,0.0,0.0,0.0,0.0,0.0,0.0,0.0,0.0,0.0,0.0,0.0,0.0,0.0,0.0,0.0,0.0,0.0,0.002716242328855195,-1.0338841661242046,0.00011457229796872203,0.004143663041196708,0.0065748447372278316,-0.0016063332283266264,0.0,0.0,0.0,0.0,0.0,0.0,0.0,0.0,0.0,0.0,0.0,0.0,0.0,0.0,0.0,0.0,0.0,0.0,0.0,0.0,0.0,0.0,0.0,0.0,0.0,0.0,0.0,0.0,0.0,0.0,0.0,0.0,0.0,0.0,0.0,0.0
6431000000,120,6431000000,world,bluerov2/base_link,9.773783561315609,16.0180313807624,-94.7897831688549,0.00026361549344824394,-0.00020590690173877033,-0.7163165348176629,0.6977754008676685,0.0,0.0,0.0,0.0,0.0,0.0,0.0,0.0,0.0,0.0,0.0,0.0,0.0,0.0,0.0,0.0,0.0,0.0,0.0,0.0,0.0,0.0,0.0,0.0,0.0,0.0,0.0,0.0,0.0,0.0,0.0,0.0,0.0,0.0,0.0,0.0,0.0020680065624493916,-1.0361055887838357,-0.0035831274999157245,-0.0075009125609169875,0.004195787825788702,0.0014828722131761463,0.0,0.0,0.0,0.0,0.0,0.0,0.0,0.0,0.0,0.0,0.0,0.0,0.0,0.0,0.0,0.0,0.0,0.0,0.0,0.0,0.0,0.0,0.0,0.0,0.0,0.0,0.0,0.0,0.0,0.0,0.0,0.0,0.0,0.0,0.0,0.0
6481000000,121,6481000000,world,bluerov2/base_link,9.773850705697877,15.966424236794236,-94.78978795419849,0.00027946926743818067,-0.00024895201779975346,-0.7161808283221319,0.6979146660327799,0.0,0.0,0.0,0.0,0.0,0.0,0.0,0.0,0.0,0.0,0.0,0.0,0.0,0.0,0.0,0.0,0.0,0.0,0.0,0.0,0.0,0.0,0.0,0.0,0.0,0.0,0.0,0.0,0.0,0.0,0.0,0.0,0.0,0.0,0.0,0.0,0.002643465781244986,-1.0343791499046708,-0.002461230665401603,0.004530604179464609,-0.0002060829201670384,0.009485650809002537,0.0,0.0,0.0,0.0,0.0,0.0,0.0,0.0,0.0,0.0,0.0,0.0,0.0,0.0,0.0,0.0,0.0,0.0,0.0,0.0,0.0,0.0,0.0,0.0,0.0,0.0,0.0,0.0,0.0,0.0,0.0,0.0,0.0,0.0,0.0,0.0
6531000000,122,6531000000,world,bluerov2/base_link,9.773877972395393,15.9148171582315,-94.78979376666261,0.0003101581683232624,-0.00022149569468753985,-0.7160060034660818,0.6980940178386413,0.0,0.0,0.0,0.0,0.0,0.0,0.0,0.0,0.0,0.0,0.0,0.0,0.0,0.0,0.0,0.0,0.0,0.0,0.0,0.0,0.0,0.0,0.0,0.0,0.0,0.0,0.0,0.0,0.0,0.0,0.0,0.0,0.0,0.0,0.0,0.0,-0.0024814328689013146,-1.0222905051223532,0.009880350529553914,0.0023327040784089014,-0.003231537096234492,0.01129397692229072,0.0,0.0,0.0,0.0,0.0,0.0,0.0,0.0,0.0,0.0,0.0,0.0,0.0,0.0,0.0,0.0,0.0,0.0,0.0,0.0,0.0,0.0,0.0,0.0,0.0,0.0,0.0,0.0,0.0,0.0,0.0,0.0,0.0,0.0,0.0,0.0
6581000000,123,6581000000,world,bluerov2/base_link,9.773946199622118,15.863201298006425,-94.78979276807591,0.0002458995426874652,-0.0002055163279619691,-0.7159377490659308,0.6981640471686165,0.0,0.0,0.0,0.0,0.0,0.0,0.0,0.0,0.0,0.0,0.0,0.0,0.0,0.0,0.0,0.0,0.0,0.0,0.0,0.0,0.0,0.0,0.0,0.0,0.0,0.0,0.0,0.0,0.0,0.0,0.0,0.0,0.0,0.0,0.0,0.0,0.002158140983772642,-1.0358262498841417,-0.0032406679962492012,-0.004064495164008604,-0.0004918751681346568,0.0049533804575960395,0.0,0.0,0.0,0.0,0.0,0.0,0.0,0.0,0.0,0.0,0.0,0.0,0.0,0.0,0.0,0.0,0.0,0.0,0.0,0.0,0.0,0.0,0.0,0.0,0.0,0.0,0.0,0.0,0.0,0.0,0.0,0.0,0.0,0.0,0.0,0.0
6631000000,124,6631000000,world,bluerov2/base_link,9.773986689872482,15.811622223490767,-94.78974400258089,0.00035758215609445437,-0.00014416969455196554,-0.7158027810763116,0.6983023914848917,0.0,0.0,0.0,0.0,0.0,0.0,0.0,0.0,0.0,0.0,0.0,0.0,0.0,0.0,0.0,0.0,0.0,0.0,0.0,0.0,0.0,0.0,0.0,0.0,0.0,0.0,0.0,0.0,0.0,0.0,0.0,0.0,0.0,0.0,0.0,0.0,0.0017760427272412213,-1.034214779687309,-0.0020043438173565392,-0.001186762476285601,-0.0002558868703734955,0.005551265082769667,0.0,0.0,0.0,0.0,0.0,0.0,0.0,0.0,0.0,0.0,0.0,0.0,0.0,0.0,0.0,0.0,0.0,0.0,0.0,0.0,0.0,0.0,0.0,0.0,0.0,0.0,0.0,0.0,0.0,0.0,0.0,0.0,0.0,0.0,0.0,0.0
6681000000,125,6681000000,world,bluerov2/base_link,9.77404463511392,15.759978666576707,-94.7897943647572,0.00028327405195492276,-0.00018424363823375277,-0.7156959884090006,0.698411868445373,0.0,0.0,0.0,0.0,0.0,0.0,0.0,0.0,0.0,0.0,0.0,0.0,0.0,0.0,0.0,0.0,0.0,0.0,0.0,0.0,0.0,0.0,0.0,0.0,0.0,0.0,0.0,0.0,0.0,0.0,0.0,0.0,0.0,0.0,0.0,0.0,-0.002988482070347854,-1.0200903792078602,0.011512601305215914,0.011299934293118558,-0.0027476412329709233,0.0143549772671702,0.0,0.0,0.0,0.0,0.0,0.0,0.0,0.0,0.0,0.0,0.0,0.0,0.0,0.0,0.0,0.0,0.0,0.0,0.0,0.0,0.0,0.0,0.0,0.0,0.0,0.0,0.0,0.0,0.0,0.0,0.0,0.0,0.0,0.0,0.0,0.0
6731000000,126,6731000000,world,bluerov2/base_link,9.774030860095946,15.708421545202784,-94.78980219323046,0.00027497437603376124,-0.0002632466695199643,-0.7154682216961442,0.6986451737708066,0.0,0.0,0.0,0.0,0.0,0.0,0.0,0.0,0.0,0.0,0.0,0.0,0.0,0.0,0.0,0.0,0.0,0.0,0.0,0.0,0.0,0.0,0.0,0.0,0.0,0.0,0.0,0.0,0.0,0.0,0.0,0.0,0.0,0.0,0.0,0.0,0.003690922454450661,-1.033354641097909,-0.00305234613404736,-0.00241686262075938,0.0068353692508659365,0.0034588113358241285,0.0,0.0,0.0,0.0,0.0,0.0,0.0,0.0,0.0,0.0,0.0,0.0,0.0,0.0,0.0,0.0,0.0,0.0,0.0,0.0,0.0,0.0,0.0,0.0,0.0,0.0,0.0,0.0,0.0,0.0,0.0,0.0,0.0,0.0,0.0,0.0
6781000000,127,6781000000,world,bluerov2/base_link,9.774035858579268,15.656939457633422,-94.7897956824757,0.0002714134298385543,-0.00024357354512346465,-0.7152364707908181,0.6988824349326385,0.0,0.0,0.0,0.0,0.0,0.0,0.0,0.0,0.0,0.0,0.0,0.0,0.0,0.0,0.0,0.0,0.0,0.0,0.0,0.0,0.0,0.0,0.0,0.0,0.0,0.0,0.0,0.0,0.0,0.0,0.0,0.0,0.0,0.0,0.0,0.0,-0.001541968272291092,-1.028901929040484,0.00047525732104688567,-0.010749633632867064,-0.003069633456143345,0.01582782988691708,0.0,0.0,0.0,0.0,0.0,0.0,0.0,0.0,0.0,0.0,0.0,0.0,0.0,0.0,0.0,0.0,0.0,0.0,0.0,0.0,0.0,0.0,0.0,0.0,0.0,0.0,0.0,0.0,0.0,0.0,0.0,0.0,0.0,0.0,0.0,0.0
6831000000,128,6831000000,world,bluerov2/base_link,9.774084802599498,15.605500481883958,-94.78978110894386,0.0003306212888345891,-0.00018802020363258565,-0.7150087815936639,0.6991153678627803,0.0,0.0,0.0,0.0,0.0,0.0,0.0,0.0,0.0,0.0,0.0,0.0,0.0,0.0,0.0,0.0,0.0,0.0,0.0,0.0,0.0,0.0,0.0,0.0,0.0,0.0,0.0,0.0,0.0,0.0,0.0,0.0,0.0,0.0,0.0,0.0,-0.00010039792240455489,-1.0329060006968553,-0.004263371830020747,-0.003913213586963932,-0.003382310534348239,0.01676594298204511,0.0,0.0,0.0,0.0,0.0,0.0,0.0,0.0,0.0,0.0,0.0,0.0,0.0,0.0,0.0,0.0,0.0,0.0,0.0,0.0,0.0,0.0,0.0,0.0,0.0,0.0,0.0,0.0,0.0,0.0,0.0,0.0,0.0,0.0,0.0,0.0
6881000000,129,6881000000,world,bluerov2/base_link,9.774142990910706,15.554044159359098,-94.78982370389627,0.0002928163535101659,-0.00022141059698845328,-0.7147835373118695,0.6993456656217025,0.0,0.0,0.0,0.0,0.0,0.0,0.0,0.0,0.0,0.0,0.0,0.0,0.0,0.0,0.0,0.0,0.0,0.0,0.0,0.0,0.0,0.0,0.0,0.0,0.0,0.0,0.0,0.0,0.0,0.0,0.0,0.0,0.0,0.0,0.0,0.0,0.0019841677181909327,-1.0359498239126805,-0.008019709935271093,-0.005582589408478191,-0.0016806289534533015,0.01354216084304659,0.0,0.0,0.0,0.0,0.0,0.0,0.0,0.0,0.0,0.0,0.0,0.0,0.0,0.0,0.0,0.0,0.0,0.0,0.0,0.0,0.0,0.0,0.0,0.0,0.0,0.0,0.0,0.0,0.0,0.0,0.0,0.0,0.0,0.0,0.0,0.0
6931000000,130,6931000000,world,bluerov2/base_link,9.774238988500638,15.50269589335063,-94.7898154166324,0.0002377619751519547,-0.0001781175150402659,-0.7147288698662544,0.6994015687164998,0.0,0.0,0.0,0.0,0.0,0.0,0.0,0.0,0.0,0.0,0.0,0.0,0.0,0.0,0.0,0.0,0.0,0.0,0.0,0.0,0.0,0.0,0.0,0.0,0.0,0.0,0.0,0.0,0.0,0.0,0.0,0.0,0.0,0.0,0.0,0.0,0.00275807890650895,-1.0247532291837762,0.0012388059994491226,0.0052671836825277174,0.011311879824413455,-0.0002196873471919325,0.0,0.0,0.0,0.0,0.0,0.0,0.0,0.0,0.0,0.0,0.0,0.0,0.0,0.0,0.0,0.0,0.0,0.0,0.0,0.0,0.0,0.0,0.0,0.0,0.0,0.0,0.0,0.0,0.0,0.0,0.0,0.0,0.0,0.0,0.0,0.0
6981000000,131,6981000000,world,bluerov2/base_link,9.774262613798722,15.451467114898675,-94.7898063283892,0.0003275650721554538,-0.0001508224579732174,-0.7145151249584436,0.6996199012030243,0.0,0.0,0.0,0.0,0.0,0.0,0.0,0.0,0.0,0.0,0.0,0.0,0.0,0.0,0.0,0.0,0.0,0.0,0.0,0.0,0.0,0.0,0.0,0.0,0.0,0.0,0.0,0.0,0.0,0.0,0.0,0.0,0.0,0.0,0.0,0.0,-0.005477473917748236,-1.0231777505305388,0.0006364953385030295,-0.0019231597562596242,-0.009860812702346919,0.021069650933369724,0.0,0.0,0.0,0.0,0.0,0.0,0.0,0.0,0.0,0.0,0.0,0.0,0.0,0.0,0.0,0.0,0.0,0.0,0.0,0.0,0.0,0.0,0.0,0.0,0.0,0.0,0.0,0.0,0.0,0.0,0.0,0.0,0.0,0.0,0.0,0.0
7031000000,132,7031000000,world,bluerov2/base_link,9.774279744035184,15.400325018058492,-94.78981424680852,0.0002467157003521959,-0.00018570930659394313,-0.7143689950286024,0.6997691359192981,0.0,0.0,0.0,0.0,0.0,0.0,0.0,0.0,0.0,0.0,0.0,0.0,0.0,0.0,0.0,0.0,0.0,0.0,0.0,0.0,0.0,0.0,0.0,0.0,0.0,0.0,0.0,0.0,0.0,0.0,0.0,0.0,0.0,0.0,0.0,0.0,0.001626931465977993,-1.0138941652618394,0.007472512650887401,-0.0052489796332846235,0.005911595351362346,0.0005587610494435173,0.0,0.0,0.0,0.0,0.0,0.0,0.0,0.0,0.0,0.0,0.0,0.0,0.0,0.0,0.0,0.0,0.0,0.0,0.0,0.0,0.0,0.0,0.0,0.0,0.0,0.0,0.0,0.0,0.0,0.0,0.0,0.0,0.0,0.0,0.0,0.0
7081000000,133,7081000000,world,bluerov2/base_link,9.774296172537092,15.349320677523794,-94.7898237768339,0.00034283452968903946,-0.0001934079467660193,-0.7141364501370941,0.7000064111445272,0.0,0.0,0.0,0.0,0.0,0.0,0.0,0.0,0.0,0.0,0.0,0.0,0.0,0.0,0.0,0.0,0.0,0.0,0.0,0.0,0.0,0.0,0.0,0.0,0.0,0.0,0.0,0.0,0.0,0.0,0.0,0.0,0.0,0.0,0.0,0.0,-0.0024852943181584626,-1.0099354366515305,0.00863186225563821,9.788600823417963e-05,-0.0013689003042681044,0.015177869507094554,0.0,0.0,0.0,0.0,0.0,0.0,0.0,0.0,0.0,0.0,0.0,0.0,0.0,0.0,0.0,0.0,0.0,0.0,0.0,0.0,0.0,0.0,0.0,0.0,0.0,0.0,0.0,0.0,0.0,0.0,0.0,0.0,0.0,0.0,0.0,0.0
7131000000,134,7131000000,world,bluerov2/base_link,9.77437545443994,15.298481697862186,-94.78982210533191,0.00028043831463753466,-0.00022654526049400403,-0.7139262399468626,0.7002208179902477,0.0,0.0,0.0,0.0,0.0,0.0,0.0,0.0,0.0,0.0,0.0,0.0,0.0,0.0,0.0,0.0,0.0,0.0,0.0,0.0,0.0,0.0,0.0,0.0,0.0,0.0,0.0,0.0,0.0,0.0,0.0,0.0,0.0,0.0,0.0,0.0,-0.0024151311298570106,-1.0117470411413538,0.0031893077865678765,-0.0031881568589446803,-0.004520367963262022,0.017000321370454863,0.0,0.0,0.0,0.0,0.0,0.0,0.0,0.0,0.0,0.0,0.0,0.0,0.0,0.0,0.0,0.0,0.0,0.0,0.0,0.0,0.0,0.0,0.0,0.0,0.0,0.0,0.0,0.0,0.0,0.0,0.0,0.0,0.0,0.0,0.0,0.0
7181000000,135,7181000000,world,bluerov2/base_link,9.774376727414529,15.247807601903613,-94.78985075562684,0.000287837213310666,-0.00022826702409881226,-0.713742738189294,0.7004078588407996,0.0,0.0,0.0,0.0,0.0,0.0,0.0,0.0,0.0,0.0,0.0,0.0,0.0,0.0,0.0,0.0,0.0,0.0,0.0,0.0,0.0,0.0,0.0,0.0,0.0,0.0,0.0,0.0,0.0,0.0,0.0,0.0,0.0,0.0,0.0,0.0,0.0022051564826028307,-1.009464184031018,0.0015077048270868449,-0.00724686043886666,0.007910379321872168,0.001030651873997736,0.0,0.0,0.0,0.0,0.0,0.0,0.0,0.0,0.0,0.0,0.0,0.0,0.0,0.0,0.0,0.0,0.0,0.0,0.0,0.0,0.0,0.0,0.0,0.0,0.0,0.0,0.0,0.0,0.0,0.0,0.0,0.0,0.0,0.0,0.0,0.0
7231000000,136,7231000000,world,bluerov2/base_link,9.774427783955684,15.197368274513416,-94.78983856857766,0.00028907771904102263,-0.00020828924798020322,-0.7135594185388137,0.7005946254890996,0.0,0.0,0.0,0.0,0.0,0.0,0.0,0.0,0.0,0.0,0.0,0.0,0.0,0.0,0.0,0.0,0.0,0.0,0.0,0.0,0.0,0.0,0.0,0.0,0.0,0.0,0.0,0.0,0.0,0.0,0.0,0.0,0.0,0.0,0.0,0.0,0.00349222878931885,-1.0129390237421232,-0.005751655033578875,-0.007828467288504582,0.005180425770399948,0.005180641505503801,0.0,0.0,0.0,0.0,0.0,0.0,0.0,0.0,0.0,0.0,0.0,0.0,0.0,0.0,0.0,0.0,0.0,0.0,0.0,0.0,0.0,0.0,0.0,0.0,0.0,0.0,0.0,0.0,0.0,0.0,0.0,0.0,0.0,0.0,0.0,0.0
7281000000,137,7281000000,world,bluerov2/base_link,9.774448425655473,15.147078110303937,-94.78984296160287,0.0002887606431137028,-0.00022921025754665776,-0.7133781392398862,0.7007792052669561,0.0,0.0,0.0,0.0,0.0,0.0,0.0,0.0,0.0,0.0,0.0,0.0,0.0,0.0,0.0,0.0,0.0,0.0,0.0,0.0,0.0,0.0,0.0,0.0,0.0,0.0,0.0,0.0,0.0,0.0,0.0,0.0,0.0,0.0,0.0,0.0,0.0023092770092182,-1.0023327989306692,0.0021991133483113116,0.011445440450338743,-0.003635815027003139,0.012432483680490016,0.0,0.0,0.0,0.0,0.0,0.0,0.0,0.0,0.0,0.0,0.0,0.0,0.0,0.0,0.0,0.0,0.0,0.0,0.0,0.0,0.0,0.0,0.0,0.0,0.0,0.0,0.0,0.0,0.0,0.0,0.0,0.0,0.0,0.0,0.0,0.0
7331000000,138,7331000000,world,bluerov2/base_link,9.774502152388514,15.096898288678993,-94.78986681678052,0.0002858454119422964,-0.00024761325359702103,-0.7132741464786356,0.7008850468837604,0.0,0.0,0.0,0.0,0.0,0.0,0.0,0.0,0.0,0.0,0.0,0.0,0.0,0.0,0.0,0.0,0.0,0.0,0.0,0.0,0.0,0.0,0.0,0.0,0.0,0.0,0.0,0.0,0.0,0.0,0.0,0.0,0.0,0.0,0.0,0.0,0.0003688529521628277,-1.002997331200292,-0.0014786295153640257,0.0026795895862115333,-0.010481574865364348,0.010324621424197414,0.0,0.0,0.0,0.0,0.0,0.0,0.0,0.0,0.0,0.0,0.0,0.0,0.0,0.0,0.0,0.0,0.0,0.0,0.0,0.0,0.0,0.0,0.0,0.0,0.0,0.0,0.0,0.0,0.0,0.0,0.0,0.0,0.0,0.0,0.0,0.0
7381000000,139,7381000000,world,bluerov2/base_link,9.774611269683076,15.046927265432311,-94.78985550548173,0.0003461953847145767,-0.0001740341899639102,-0.7132664579508018,0.7008928661522913,0.0,0.0,0.0,0.0,0.0,0.0,0.0,0.0,0.0,0.0,0.0,0.0,0.0,0.0,0.0,0.0,0.0,0.0,0.0,0.0,0.0,0.0,0.0,0.0,0.0,0.0,0.0,0.0,0.0,0.0,0.0,0.0,0.0,0.0,0.0,0.0,-0.0007036345888418583,-1.002184827002604,-0.004167721960803368,-0.009099670304534806,-0.003679226443767388,0.0028811292276995654,0.0,0.0,0.0,0.0,0.0,0.0,0.0,0.0,0.0,0.0,0.0,0.0,0.0,0.0,0.0,0.0,0.0,0.0,0.0,0.0,0.0,0.0,0.0,0.0,0.0,0.0,0.0,0.0,0.0,0.0,0.0,0.0,0.0,0.0,0.0,0.0
7431000000,140,7431000000,world,bluerov2/base_link,9.774639991500568,14.997105166873766,-94.78984813927978,0.0003712602829567152,-0.00017692634451323968,-0.7132240726266217,0.7009359835882064,0.0,0.0,0.0,0.0,0.0,0.0,0.0,0.0,0.0,0.0,0.0,0.0,0.0,0.0,0.0,0.0,0.0,0.0,0.0,0.0,0.0,0.0,0.0,0.0,0.0,0.0,0.0,0.0,0.0,0.0,0.0,0.0,0.0,0.0,0.0,0.0,0.0012393823474901244,-1.0023965322650068,-0.0070858957524692024,-0.00025194588146754886,-0.004961815606007348,0.00747793409186893,0.0,0.0,0.0,0.0,0.0,0.0,0.0,0.0,0.0,0.0,0.0,0.0,0.0,0.0,0.0,0.0,0.0,0.0,0.0,0.0,0.0,0.0,0.0,0.0,0.0,0.0,0.0,0.0,0.0,0.0,0.0,0.0,0.0,0.0,0.0,0.0
7481000000,141,7481000000,world,bluerov2/base_link,9.774731163633524,14.947351460552557,-94.78988864170609,0.00029081689613588436,-0.00023993945543647257,-0.7131959652379141,0.7009646018330391,0.0,0.0,0.0,0.0,0.0,0.0,0.0,0.0,0.0,0.0,0.0,0.0,0.0,0.0,0.0,0.0,0.0,0.0,0.0,0.0,0.0,0.0,0.0,0.0,0.0,0.0,0.0,0.0,0.0,0.0,0.0,0.0,0.0,0.0,0.0,0.0,0.0012708086551106476,-0.9957492790129233,-0.0023363619505738253,0.008347186486993582,0.002355453053106572,0.003256129473546237,0.0,0.0,0.0,0.0,0.0,0.0,0.0,0.0,0.0,0.0,0.0,0.0,0.0,0.0,0.0,0.0,0.0,0.0,0.0,0.0,0.0,0.0,0.0,0.0,0.0,0.0,0.0,0.0,0.0,0.0,0.0,0.0,0.0,0.0,0.0,0.0
7530000000,142,7531000000,world,bluerov2/base_link,9.774795453108817,14.897760196549362,-94.78986430729591,0.0003002172987879109,-0.0002204475923473781,-0.7131022449706016,0.701059947144551,0.0,0.0,0.0,0.0,0.0,0.0,0.0,0.0,0.0,0.0,0.0,0.0,0.0,0.0,0.0,0.0,0.0,0.0,0.0,0.0,0.0,0.0,0.0,0.0,0.0,0.0,0.0,0.0,0.0,0.0,0.0,0.0,0.0,0.0,0.0,0.0,0.001062082825300583,-0.9860398098870294,0.005070727220455703,0.0017149935117393926,0.003651529178866628,0.0044706880906975255,0.0,0.0,0.0,0.0,0.0,0.0,0.0,0.0,0.0,0.0,0.0,0.0,0.0,0.0,0.0,0.0,0.0,0.0,0.0,0.0,0.0,0.0,0.0,0.0,0.0,0.0,0.0,0.0,0.0,0.0,0.0,0.0,0.0,0.0,0.0,0.0
7581000000,143,7581000000,world,bluerov2/base_link,9.774863694825079,14.848232565351408,-94.78987878149744,0.0003430353034979998,-0.0001922246682555725,-0.713061704903843,0.7011011698578761,0.0,0.0,0.0,0.0,0.0,0.0,0.0,0.0,0.0,0.0,0.0,0.0,0.0,0.0,0.0,0.0,0.0,0.0,0.0,0.0,0.0,0.0,0.0,0.0,0.0,0.0,0.0,0.0,0.0,0.0,0.0,0.0,0.0,0.0,0.0,0.0,0.0011581923554380721,-0.9813530717147817,0.00845885231956702,0.0009282771861520108,0.003845473958720031,-0.002611872165639756,0.0,0.0,0.0,0.0,0.0,0.0,0.0,0.0,0.0,0.0,0.0,0.0,0.0,0.0,0.0,0.0,0.0,0.0,0.0,0.0,0.0,0.0,0.0,0.0,0.0,0.0,0.0,0.0,0.0,0.0,0.0,0.0,0.0,0.0,0.0,0.0
7631000000,144,7631000000,world,bluerov2/base_link,9.774942838497731,14.79875342930221,-94.78988077623762,0.00032398364697520856,-0.00019313587073872712,-0.7130464949811198,0.7011166477329374,0.0,0.0,0.0,0.0,0.0,0.0,0.0,0.0,0.0,0.0,0.0,0.0,0.0,0.0,0.0,0.0,0.0,0.0,0.0,0.0,0.0,0.0,0.0,0.0,0.0,0.0,0.0,0.0,0.0,0.0,0.0,0.0,0.0,0.0,0.0,0.0,-0.0009481209858124052,-0.9876963962487287,0.0016141180517451456,0.010008316528016842,-0.0027072066550585736,0.007460872349239463,0.0,0.0,0.0,0.0,0.0,0.0,0.0,0.0,0.0,0.0,0.0,0.0,0.0,0.0,0.0,0.0,0.0,0.0,0.0,0.0,0.0,0.0,0.0,0.0,0.0,0.0,0.0,0.0,0.0,0.0,0.0,0.0,0.0,0.0,0.0,0.0
7681000000,145,7681000000,world,bluerov2/base_link,9.775000348348383,14.749332749091936,-94.78988374417482,0.00024904845565909333,-0.00023149035097554197,-0.7129972576103605,0.7011667383919388,0.0,0.0,0.0,0.0,0.0,0.0,0.0,0.0,0.0,0.0,0.0,0.0,0.0,0.0,0.0,0.0,0.0,0.0,0.0,0.0,0.0,0.0,0.0,0.0,0.0,0.0,0.0,0.0,0.0,0.0,0.0,0.0,0.0,0.0,0.0,0.0,0.0008247939382150743,-0.9821943543724699,0.004868454231974135,0.0036143403235221858,-0.005173400512453828,0.00972745051896906,0.0,0.0,0.0,0.0,0.0,0.0,0.0,0.0,0.0,0.0,0.0,0.0,0.0,0.0,0.0,0.0,0.0,0.0,0.0,0.0,0.0,0.0,0.0,0.0,0.0,0.0,0.0,0.0,0.0,0.0,0.0,0.0,0.0,0.0,0.0,0.0
7731000000,146,7731000000,world,bluerov2/base_link,9.77503610140314,14.70006380559809,-94.78988304202144,0.00032367005224783564,-0.00017558397114892228,-0.7128454753644823,0.7013210339497538,0.0,0.0,0.0,0.0,0.0,0.0,0.0,0.0,0.0,0.0,0.0,0.0,0.0,0.0,0.0,0.0,0.0,0.0,0.0,0.0,0.0,0.0,0.0,0.0,0.0,0.0,0.0,0.0,0.0,0.0,0.0,0.0,0.0,0.0,0.0,0.0,-8.1010178883088e-05,-0.9871307500769803,-0.0034178546432255606,-0.005946454118787686,-0.0013259868105244734,0.008835253661342201,0.0,0.0,0.0,0.0,0.0,0.0,0.0,0.0,0.0,0.0,0.0,0.0,0.0,0.0,0.0,0.0,0.0,0.0,0.0,0.0,0.0,0.0,0.0,0.0,0.0,0.0,0.0,0.0,0.0,0.0,0.0,0.0,0.0,0.0,0.0,0.0
7781000000,147,7781000000,world,bluerov2/base_link,9.77505756054589,14.65092694418233,-94.78990629342832,0.00031612008622055313,-0.0001912176075245903,-0.7127156220816924,0.7014529959623981,0.0,0.0,0.0,0.0,0.0,0.0,0.0,0.0,0.0,0.0,0.0,0.0,0.0,0.0,0.0,0.0,0.0,0.0,0.0,0.0,0.0,0.0,0.0,0.0,0.0,0.0,0.0,0.0,0.0,0.0,0.0,0.0,0.0,0.0,0.0,0.0,0.0003682556195539713,-0.9834856950103721,-0.0023643709700476583,0.009246530251080154,0.0009270736492447939,0.008931381450137972,0.0,0.0,0.0,0.0,0.0,0.0,0.0,0.0,0.0,0.0,0.0,0.0,0.0,0.0,0.0,0.0,0.0,0.0,0.0,0.0,0.0,0.0,0.0,0.0,0.0,0.0,0.0,0.0,0.0,0.0,0.0,0.0,0.0,0.0,0.0,0.0
7831000000,148,7831000000,world,bluerov2/base_link,9.775097073218854,14.601937726473839,-94.78989745604989,0.00028944949631352755,-0.0002478315988529749,-0.7125566876223447,0.7016144395058872,0.0,0.0,0.0,0.0,0.0,0.0,0.0,0.0,0.0,0.0,0.0,0.0,0.0,0.0,0.0,0.0,0.0,0.0,0.0,0.0,0.0,0.0,0.0,0.0,0.0,0.0,0.0,0.0,0.0,0.0,0.0,0.0,0.0,0.0,0.0,0.0,0.0017777336558643642,-0.9760756913514576,0.0028486021441811037,0.009240934827823502,-0.011372076452759412,0.01965111109087216,0.0,0.0,0.0,0.0,0.0,0.0,0.0,0.0,0.0,0.0,0.0,0.0,0.0,0.0,0.0,0.0,0.0,0.0,0.0,0.0,0.0,0.0,0.0,0.0,0.0,0.0,0.0,0.0,0.0,0.0,0.0,0.0,0.0,0.0,0.0,0.0
7881000000,149,7881000000,world,bluerov2/base_link,9.775216651786538,14.553008384818533,-94.78990865258078,0.00025184740480801423,-0.00017750943996403836,-0.7124175972561384,0.7017557069116532,0.0,0.0,0.0,0.0,0.0,0.0,0.0,0.0,0.0,0.0,0.0,0.0,0.0,0.0,0.0,0.0,0.0,0.0,0.0,0.0,0.0,0.0,0.0,0.0,0.0,0.0,0.0,0.0,0.0,0.0,0.0,0.0,0.0,0.0,0.0,0.0,0.00287883074785853,-0.9841374891222378,-0.005953661815308297,-0.0037290163441795698,0.0037621537560625536,0.007934727490782561,0.0,0.0,0.0,0.0,0.0,0.0,0.0,0.0,0.0,0.0,0.0,0.0,0.0,0.0,0.0,0.0,0.0,0.0,0.0,0.0,0.0,0.0,0.0,0.0,0.0,0.0,0.0,0.0,0.0,0.0,0.0,0.0,0.0,0.0,0.0,0.0
7931000000,150,7931000000,world,bluerov2/base_link,9.775242518391687,14.504119399406008,-94.78987787230145,0.0003331566976555772,-0.00018413197197652528,-0.7122359446488272,0.7019400360801659,0.0,0.0,0.0,0.0,0.0,0.0,0.0,0.0,0.0,0.0,0.0,0.0,0.0,0.0,0.0,0.0,0.0,0.0,0.0,0.0,0.0,0.0,0.0,0.0,0.0,0.0,0.0,0.0,0.0,0.0,0.0,0.0,0.0,0.0,0.0,0.0,0.0044407014536125425,-0.9759546151521701,0.002684093864368774,0.0038789590156679443,0.008997151641853298,-0.004826008129406632,0.0,0.0,0.0,0.0,0.0,0.0,0.0,0.0,0.0,0.0,0.0,0.0,0.0,0.0,0.0,0.0,0.0,0.0,0.0,0.0,0.0,0.0,0.0,0.0,0.0,0.0,0.0,0.0,0.0,0.0,0.0,0.0,0.0,0.0,0.0,0.0
7981000000,151,7981000000,world,bluerov2/base_link,9.775353057644809,14.455129765725037,-94.78991411338146,0.00028811476244597714,-0.0002584353694530893,-0.7121839490316424,0.7019927869591955,0.0,0.0,0.0,0.0,0.0,0.0,0.0,0.0,0.0,0.0,0.0,0.0,0.0,0.0,0.0,0.0,0.0,0.0,0.0,0.0,0.0,0.0,0.0,0.0,0.0,0.0,0.0,0.0,0.0,0.0,0.0,0.0,0.0,0.0,0.0,0.0,0.0020094687491100196,-0.9800143534060166,-0.0004518099850234741,0.009676141798207407,-0.003563938424980917,0.008484580005425098,0.0,0.0,0.0,0.0,0.0,0.0,0.0,0.0,0.0,0.0,0.0,0.0,0.0,0.0,0.0,0.0,0.0,0.0,0.0,0.0,0.0,0.0,0.0,0.0,0.0,0.0,0.0,0.0,0.0,0.0,0.0,0.0,0.0,0.0,0.0,0.0
8031000000,152,8031000000,world,bluerov2/base_link,9.775498093994342,14.406117952483585,-94.78993974652313,0.0002955098031155696,-0.00023252656259283727,-0.7121316149151518,0.7020458828621475,0.0,0.0,0.0,0.0,0.0,0.0,0.0,0.0,0.0,0.0,0.0,0.0,0.0,0.0,0.0,0.0,0.0,0.0,0.0,0.0,0.0,0.0,0.0,0.0,0.0,0.0,0.0,0.0,0.0,0.0,0.0,0.0,0.0,0.0,0.0,0.0,-0.00394931092794723,-0.9734199716342589,0.00624059547331777,0.0034290122529524666,-0.008515677799908375,0.013711694169908282,0.0,0.0,0.0,0.0,0.0,0.0,0.0,0.0,0.0,0.0,0.0,0.0,0.0,0.0,0.0,0.0,0.0,0.0,0.0,0.0,0.0,0.0,0.0,0.0,0.0,0.0,0.0,0.0,0.0,0.0,0.0,0.0,0.0,0.0,0.0,0.0
8081000000,153,8081000000,world,bluerov2/base_link,9.775554178438155,14.357165633998221,-94.78991887065622,0.0002779565987104122,-0.00020724919163963914,-0.7120699717521024,0.7021084211977964,0.0,0.0,0.0,0.0,0.0,0.0,0.0,0.0,0.0,0.0,0.0,0.0,0.0,0.0,0.0,0.0,0.0,0.0,0.0,0.0,0.0,0.0,0.0,0.0,0.0,0.0,0.0,0.0,0.0,0.0,0.0,0.0,0.0,0.0,0.0,0.0,0.003224653602728607,-0.9838325363595313,-0.004387939378712925,-0.006406447870327252,0.0014557868974225728,0.0009422592491302703,0.0,0.0,0.0,0.0,0.0,0.0,0.0,0.0,0.0,0.0,0.0,0.0,0.0,0.0,0.0,0.0,0.0,0.0,0.0,0.0,0.0,0.0,0.0,0.0,0.0,0.0,0.0,0.0,0.0,0.0,0.0,0.0,0.0,0.0,0.0,0.0
8131000000,154,8131000000,world,bluerov2/base_link,9.7756518957023,14.308171074602818,-94.78993415732292,0.0003152504045478982,-0.00019759859832634786,-0.7120743382436722,0.7021039797542902,0.0,0.0,0.0,0.0,0.0,0.0,0.0,0.0,0.0,0.0,0.0,0.0,0.0,0.0,0.0,0.0,0.0,0.0,0.0,0.0,0.0,0.0,0.0,0.0,0.0,0.0,0.0,0.0,0.0,0.0,0.0,0.0,0.0,0.0,0.0,0.0,0.004357975722274365,-0.9832742851003463,-0.003587820254485503,-0.005500763588406681,0.006527915625536615,-0.007792914437879739,0.0,0.0,0.0,0.0,0.0,0.0,0.0,0.0,0.0,0.0,0.0,0.0,0.0,0.0,0.0,0.0,0.0,0.0,0.0,0.0,0.0,0.0,0.0,0.0,0.0,0.0,0.0,0.0,0.0,0.0,0.0,0.0,0.0,0.0,0.0,0.0
8181000000,155,8181000000,world,bluerov2/base_link,9.77570695436827,14.259173847234402,-94.78993585392331,0.0002945308149982135,-0.00026313885501690797,-0.7120518253935255,0.7021267990635953,0.0,0.0,0.0,0.0,0.0,0.0,0.0,0.0,0.0,0.0,0.0,0.0,0.0,0.0,0.0,0.0,0.0,0.0,0.0,0.0,0.0,0.0,0.0,0.0,0.0,0.0,0.0,0.0,0.0,0.0,0.0,0.0,0.0,0.0,0.0,0.0,0.004249767310328098,-0.9867825177771307,-0.006607711428924534,-0.006879839615501922,0.0014360090609434196,-0.0007453325034280508,0.0,0.0,0.0,0.0,0.0,0.0,0.0,0.0,0.0,0.0,0.0,0.0,0.0,0.0,0.0,0.0,0.0,0.0,0.0,0.0,0.0,0.0,0.0,0.0,0.0,0.0,0.0,0.0,0.0,0.0,0.0,0.0,0.0,0.0,0.0,0.0
8231000000,156,8231000000,world,bluerov2/base_link,9.775789555170894,14.210187789362857,-94.78992835268456,0.00026065262586961953,-0.00023649012730753076,-0.7120324572480976,0.7021464633236176,0.0,0.0,0.0,0.0,0.0,0.0,0.0,0.0,0.0,0.0,0.0,0.0,0.0,0.0,0.0,0.0,0.0,0.0,0.0,0.0,0.0,0.0,0.0,0.0,0.0,0.0,0.0,0.0,0.0,0.0,0.0,0.0,0.0,0.0,0.0,0.0,0.000544178390110896,-0.9848717279578323,-0.0057687515092812195,-0.012188692821006224,-0.006993866805234791,0.0073123246552489465,0.0,0.0,0.0,0.0,0.0,0.0,0.0,0.0,0.0,0.0,0.0,0.0,0.0,0.0,0.0,0.0,0.0,0.0,0.0,0.0,0.0,0.0,0.0,0.0,0.0,0.0,0.0,0.0,0.0,0.0,0.0,0.0,0.0,0.0,0.0,0.0
8281000000,157,8281000000,world,bluerov2/base_link,9.775909852549814,14.16125213122947,-94.78995690993331,0.0002782940189750319,-0.00020298802634942736,-0.7120299915846466,0.7021489674081051,0.0,0.0,0.0,0.0,0.0,0.0,0.0,0.0,0.0,0.0,0.0,0.0,0.0,0.0,0.0,0.0,0.0,0.0,0.0,0.0,0.0,0.0,0.0,0.0,0.0,0.0,0.0,0.0,0.0,0.0,0.0,0.0,0.0,0.0,0.0,0.0,0.0021250528296773807,-0.97702395255418,0.0002489435619686715,0.008242166930325435,0.0162248990501395,-0.010176094307218927,0.0,0.0,0.0,0.0,0.0,0.0,0.0,0.0,0.0,0.0,0.0,0.0,0.0,0.0,0.0,0.0,0.0,0.0,0.0,0.0,0.0,0.0,0.0,0.0,0.0,0.0,0.0,0.0,0.0,0.0,0.0,0.0,0.0,0.0,0.0,0.0
8331000000,158,8331000000,world,bluerov2/base_link,9.77600829012714,14.112467393558017,-94.78991979679938,0.00028749323741850775,-0.0002046277075933208,-0.7120163607119514,0.7021627856513387,0.0,0.0,0.0,0.0,0.0,0.0,0.0,0.0,0.0,0.0,0.0,0.0,0.0,0.0,0.0,0.0,0.0,0.0,0.0,0.0,0.0,0.0,0.0,0.0,0.0,0.0,0.0,0.0,0.0,0.0,0.0,0.0,0.0,0.0,0.0,0.0,-0.0017673368122670828,-0.9747260131148865,0.0010591819855030298,-0.00402009022413664,-0.01066704854436582,0.007888147245119766,0.0,0.0,0.0,0.0,0.0,0.0,0.0,0.0,0.0,0.0,0.0,0.0,0.0,0.0,0.0,0.0,0.0,0.0,0.0,0.0,0.0,0.0,0.0,0.0,0.0,0.0,0.0,0.0,0.0,0.0,0.0,0.0,0.0,0.0,0.0,0.0
8381000000,159,8381000000,world,bluerov2/base_link,9.776079821351244,14.063680111613435,-94.7899218733131,0.00033829148114506753,-0.00016343927944024138,-0.7120502164387081,0.7021284413239964,0.0,0.0,0.0,0.0,0.0,0.0,0.0,0.0,0.0,0.0,0.0,0.0,0.0,0.0,0.0,0.0,0.0,0.0,0.0,0.0,0.0,0.0,0.0,0.0,0.0,0.0,0.0,0.0,0.0,0.0,0.0,0.0,0.0,0.0,0.0,0.0,0.00012773754468624609,-0.9748585487918809,0.0009853137961593704,-0.0067585204632590115,-0.004766250196966614,0.00031650715345882545,0.0,0.0,0.0,0.0,0.0,0.0,0.0,0.0,0.0,0.0,0.0,0.0,0.0,0.0,0.0,0.0,0.0,0.0,0.0,0.0,0.0,0.0,0.0,0.0,0.0,0.0,0.0,0.0,0.0,0.0,0.0,0.0,0.0,0.0,0.0,0.0
8431000000,160,8431000000,world,bluerov2/base_link,9.77615237937923,14.014851453627326,-94.78992361807364,0.0003299548509710404,-0.0002071100142846422,-0.7120529021256873,0.7021257101186544,0.0,0.0,0.0,0.0,0.0,0.0,0.0,0.0,0.0,0.0,0.0,0.0,0.0,0.0,0.0,0.0,0.0,0.0,0.0,0.0,0.0,0.0,0.0,0.0,0.0,0.0,0.0,0.0,0.0,0.0,0.0,0.0,0.0,0.0,0.0,0.0,0.002383960823987274,-0.9786745946600809,-0.0014082567932171253,-0.001280053091965391,-0.0011353691112223558,0.0019439096203850577,0.0,0.0,0.0,0.0,0.0,0.0,0.0,0.0,0.0,0.0,0.0,0.0,0.0,0.0,0.0,0.0,0.0,0.0,0.0,0.0,0.0,0.0,0.0,0.0,0.0,0.0,0.0,0.0,0.0,0.0,0.0,0.0,0.0,0.0,0.0,0.0
8480000000,161,8481000000,world,bluerov2/base_link,9.776242997110414,13.96590422263818,-94.78998000966794,0.00031985588343101044,-0.00022377524690788366,-0.7120317340641222,0.7021471763829089,0.0,0.0,0.0,0.0,0.0,0.0,0.0,0.0,0.0,0.0,0.0,0.0,0.0,0.0,0.0,0.0,0.0,0.0,0.0,0.0,0.0,0.0,0.0,0.0,0.0,0.0,0.0,0.0,0.0,0.0,0.0,0.0,0.0,0.0,0.0,0.0,0.0022647145579543595,-0.9842873794721405,-0.006285653193653321,-0.003268734104801036,-0.0018499957128699333,0.0016145594293417629,0.0,0.0,0.0,0.0,0.0,0.0,0.0,0.0,0.0,0.0,0.0,0.0,0.0,0.0,0.0,0.0,0.0,0.0,0.0,0.0,0.0,0.0,0.0,0.0,0.0,0.0,0.0,0.0,0.0,0.0,0.0,0.0,0.0,0.0,0.0,0.0
8531000000,162,8531000000,world,bluerov2/base_link,9.776334185902796,13.917043202887047,-94.78993949971948,0.00032134477193464895,-0.0002144050821061462,-0.7119793029074081,0.7022003439186566,0.0,0.0,0.0,0.0,0.0,0.0,0.0,0.0,0.0,0.0,0.0,0.0,0.0,0.0,0.0,0.0,0.0,0.0,0.0,0.0,0.0,0.0,0.0,0.0,0.0,0.0,0.0,0.0,0.0,0.0,0.0,0.0,0.0,0.0,0.0,0.0,0.003287341527131069,-0.9771039258011195,0.001078126452595462,-0.006916852731084574,0.005990745987678472,-0.0021278902111138767,0.0,0.0,0.0,0.0,0.0,0.0,0.0,0.0,0.0,0.0,0.0,0.0,0.0,0.0,0.0,0.0,0.0,0.0,0.0,0.0,0.0,0.0,0.0,0.0,0.0,0.0,0.0,0.0,0.0,0.0,0.0,0.0,0.0,0.0,0.0,0.0
8581000000,163,8581000000,world,bluerov2/base_link,9.776436878077117,13.868079403450006,-94.78997689285463,0.00027993198634482637,-0.00020812752735914884,-0.7118808886075606,0.7023001343843851,0.0,0.0,0.0,0.0,0.0,0.0,0.0,0.0,0.0,0.0,0.0,0.0,0.0,0.0,0.0,0.0,0.0,0.0,0.0,0.0,0.0,0.0,0.0,0.0,0.0,0.0,0.0,0.0,0.0,0.0,0.0,0.0,0.0,0.0,0.0,0.0,0.0026947626860601625,-0.9800565017923668,-0.0012121444427303195,0.006261329819643868,-0.001103089428376303,0.010949421620359244,0.0,0.0,0.0,0.0,0.0,0.0,0.0,0.0,0.0,0.0,0.0,0.0,0.0,0.0,0.0,0.0,0.0,0.0,0.0,0.0,0.0,0.0,0.0,0.0,0.0,0.0,0.0,0.0,0.0,0.0,0.0,0.0,0.0,0.0,0.0,0.0
8631000000,164,8631000000,world,bluerov2/base_link,9.776430885718828,13.819109107771883,-94.78997526960009,0.00032010547672557557,-0.00020593980640479874,-0.7117141904411506,0.7024690500271009,0.0,0.0,0.0,0.0,0.0,0.0,0.0,0.0,0.0,0.0,0.0,0.0,0.0,0.0,0.0,0.0,0.0,0.0,0.0,0.0,0.0,0.0,0.0,0.0,0.0,0.0,0.0,0.0,0.0,0.0,0.0,0.0,0.0,0.0,0.0,0.0,-0.002293518474008498,-0.9735007356976211,0.006718733116924486,0.005540226949451219,-0.003389593762634679,0.011367099598293188,0.0,0.0,0.0,0.0,0.0,0.0,0.0,0.0,0.0,0.0,0.0,0.0,0.0,0.0,0.0,0.0,0.0,0.0,0.0,0.0,0.0,0.0,0.0,0.0,0.0,0.0,0.0,0.0,0.0,0.0,0.0,0.0,0.0,0.0,0.0,0.0
8681000000,165,8681000000,world,bluerov2/base_link,9.776485877621626,13.770024856482102,-94.78997516217193,0.00031713060990762917,-0.00024191376476614786,-0.7116106090043102,0.7025739691010631,0.0,0.0,0.0,0.0,0.0,0.0,0.0,0.0,0.0,0.0,0.0,0.0,0.0,0.0,0.0,0.0,0.0,0.0,0.0,0.0,0.0,0.0,0.0,0.0,0.0,0.0,0.0,0.0,0.0,0.0,0.0,0.0,0.0,0.0,0.0,0.0,0.002372593634785092,-0.9767863343015145,0.006720493775768393,-0.00026239936254462666,0.0067671859952795725,-0.0030122810308108143,0.0,0.0,0.0,0.0,0.0,0.0,0.0,0.0,0.0,0.0,0.0,0.0,0.0,0.0,0.0,0.0,0.0,0.0,0.0,0.0,0.0,0.0,0.0,0.0,0.0,0.0,0.0,0.0,0.0,0.0,0.0,0.0,0.0,0.0,0.0,0.0
8731000000,166,8731000000,world,bluerov2/base_link,9.776574834875333,13.720728652132994,-94.78999215771928,0.0003243418429739732,-0.0002162529067330547,-0.7115179085657186,0.7026678545566996,0.0,0.0,0.0,0.0,0.0,0.0,0.0,0.0,0.0,0.0,0.0,0.0,0.0,0.0,0.0,0.0,0.0,0.0,0.0,0.0,0.0,0.0,0.0,0.0,0.0,0.0,0.0,0.0,0.0,0.0,0.0,0.0,0.0,0.0,0.0,0.0,0.0018328092314870612,-0.988216762018174,-0.00077039607612773,-0.006893523458722827,0.008168339274464831,-0.001842547460634015,0.0,0.0,0.0,0.0,0.0,0.0,0.0,0.0,0.0,0.0,0.0,0.0,0.0,0.0,0.0,0.0,0.0,0.0,0.0,0.0,0.0,0.0,0.0,0.0,0.0,0.0,0.0,0.0,0.0,0.0,0.0,0.0,0.0,0.0,0.0,0.0
8781000000,167,8781000000,world,bluerov2/base_link,9.776653889048076,13.671295536940379,-94.7899913561911,0.00029246951275647027,-0.0002467417523765081,-0.7114229034361131,0.7027640472069006,0.0,0.0,0.0,0.0,0.0,0.0,0.0,0.0,0.0,0.0,0.0,0.0,0.0,0.0,0.0,0.0,0.0,0.0,0.0,0.0,0.0,0.0,0.0,0.0,0.0,0.0,0.0,0.0,0.0,0.0,0.0,0.0,0.0,0.0,0.0,0.0,0.00293107031885886,-0.9967080666622016,-0.007373881289337527,-0.009071045214779772,-0.0011451429843664209,0.005210917735803618,0.0,0.0,0.0,0.0,0.0,0.0,0.0,0.0,0.0,0.0,0.0,0.0,0.0,0.0,0.0,0.0,0.0,0.0,0.0,0.0,0.0,0.0,0.0,0.0,0.0,0.0,0.0,0.0,0.0,0.0,0.0,0.0,0.0,0.0,0.0,0.0
8831000000,168,8831000000,world,bluerov2/base_link,9.776705399661086,13.621801536429123,-94.7900086184791,0.00028624819971104497,-0.00024405754633320114,-0.7113520370480682,0.7028357830143867,0.0,0.0,0.0,0.0,0.0,0.0,0.0,0.0,0.0,0.0,0.0,0.0,0.0,0.0,0.0,0.0,0.0,0.0,0.0,0.0,0.0,0.0,0.0,0.0,0.0,0.0,0.0,0.0,0.0,0.0,0.0,0.0,0.0,0.0,0.0,0.0,0.0006341756300343392,-0.9825277570790176,0.0072117932349378055,0.016405454755848287,-0.0008204937233943724,0.004841576788522369,0.0,0.0,0.0,0.0,0.0,0.0,0.0,0.0,0.0,0.0,0.0,0.0,0.0,0.0,0.0,0.0,0.0,0.0,0.0,0.0,0.0,0.0,0.0,0.0,0.0,0.0,0.0,0.0,0.0,0.0,0.0,0.0,0.0,0.0,0.0,0.0
8881000000,169,8881000000,world,bluerov2/base_link,9.776834379435929,13.572349469107133,-94.78999359502755,0.0002671113809218767,-0.00021425789288429437,-0.7113442984680582,0.7028436325257928,0.0,0.0,0.0,0.0,0.0,0.0,0.0,0.0,0.0,0.0,0.0,0.0,0.0,0.0,0.0,0.0,0.0,0.0,0.0,0.0,0.0,0.0,0.0,0.0,0.0,0.0,0.0,0.0,0.0,0.0,0.0,0.0,0.0,0.0,0.0,0.0,0.0006329297634414165,-0.985045106701617,0.0036640401828921137,-0.005163985407247545,-0.0009087411917624756,0.0008932606385315047,0.0,0.0,0.0,0.0,0.0,0.0,0.0,0.0,0.0,0.0,0.0,0.0,0.0,0.0,0.0,0.0,0.0,0.0,0.0,0.0,0.0,0.0,0.0,0.0,0.0,0.0,0.0,0.0,0.0,0.0,0.0,0.0,0.0,0.0,0.0,0.0
8931000000,170,8931000000,world,bluerov2/base_link,9.77691620687653,13.522961545722081,-94.78998589308011,0.0002941184539989396,-0.00022570212852486237,-0.7112895976571886,0.7028989762530311,0.0,0.0,0.0,0.0,0.0,0.0,0.0,0.0,0.0,0.0,0.0,0.0,0.0,0.0,0.0,0.0,0.0,0.0,0.0,0.0,0.0,0.0,0.0,0.0,0.0,0.0,0.0,0.0,0.0,0.0,0.0,0.0,0.0,0.0,0.0,0.0,-0.00010841655246370116,-0.9839752241010213,0.0032026094930789166,-0.0038863971396661486,-0.003222112352740271,0.0048238443149289925,0.0,0.0,0.0,0.0,0.0,0.0,0.0,0.0,0.0,0.0,0.0,0.0,0.0,0.0,0.0,0.0,0.0,0.0,0.0,0.0,0.0,0.0,0.0,0.0,0.0,0.0,0.0,0.0,0.0,0.0,0.0,0.0,0.0,0.0,0.0,0.0
8981000000,171,8981000000,world,bluerov2/base_link,9.776954718830966,13.473588825880388,-94.79001278023918,0.0003115084705424441,-0.00024113680423193203,-0.7112486223370661,0.7029404256685912,0.0,0.0,0.0,0.0,0.0,0.0,0.0,0.0,0.0,0.0,0.0,0.0,0.0,0.0,0.0,0.0,0.0,0.0,0.0,0.0,0.0,0.0,0.0,0.0,0.0,0.0,0.0,0.0,0.0,0.0,0.0,0.0,0.0,0.0,0.0,0.0,-0.0008048633871971608,-0.9905913549325454,-0.003661357504825104,-0.009185557652529956,-0.007481248107061915,0.006845980787818658,0.0,0.0,0.0,0.0,0.0,0.0,0.0,0.0,0.0,0.0,0.0,0.0,0.0,0.0,0.0,0.0,0.0,0.0,0.0,0.0,0.0,0.0,0.0,0.0,0.0,0.0,0.0,0.0,0.0,0.0,0.0,0.0,0.0,0.0,0.0,0.0
9031000000,172,9031000000,world,bluerov2/base_link,9.777055362872703,13.424272778433235,-94.78996696848624,0.00031605494973518017,-0.00017860876295686668,-0.711260486554701,0.7029284376621484,0.0,0.0,0.0,0.0,0.0,0.0,0.0,0.0,0.0,0.0,0.0,0.0,0.0,0.0,0.0,0.0,0.0,0.0,0.0,0.0,0.0,0.0,0.0,0.0,0.0,0.0,0.0,0.0,0.0,0.0,0.0,0.0,0.0,0.0,0.0,0.0,-0.00026425079387862153,-0.9870439012988622,0.00046333648747430616,7.093278797875868e-05,-0.004830985444250438,0.0071527141725430425,0.0,0.0,0.0,0.0,0.0,0.0,0.0,0.0,0.0,0.0,0.0,0.0,0.0,0.0,0.0,0.0,0.0,0.0,0.0,0.0,0.0,0.0,0.0,0.0,0.0,0.0,0.0,0.0,0.0,0.0,0.0,0.0,0.0,0.0,0.0,0.0
9081000000,173,9081000000,world,bluerov2/base_link,9.777112824848201,13.374799943280706,-94.79002207255364,0.0002845258159250137,-0.00019886867307381713,-0.7112392811305494,0.7029499018231742,0.0,0.0,0.0,0.0,0.0,0.0,0.0,0.0,0.0,0.0,0.0,0.0,0.0,0.0,0.0,0.0,0.0,0.0,0.0,0.0,0.0,0.0,0.0,0.0,0.0,0.0,0.0,0.0,0.0,0.0,0.0,0.0,0.0,0.0,0.0,0.0,-0.0005207134083302614,-0.9803500428612199,0.009097784311803697,-0.0034867569087068347,-0.0017334092455521784,0.0011352615471138519,0.0,0.0,0.0,0.0,0.0,0.0,0.0,0.0,0.0,0.0,0.0,0.0,0.0,0.0,0.0,0.0,0.0,0.0,0.0,0.0,0.0,0.0,0.0,0.0,0.0,0.0,0.0,0.0,0.0,0.0,0.0,0.0,0.0,0.0,0.0,0.0
9131000000,174,9131000000,world,bluerov2/base_link,9.777191144767636,13.325242972192703,-94.79003723904916,0.00028819557749720575,-0.00023533059181524938,-0.7112010975134877,0.7029885208582232,0.0,0.0,0.0,0.0,0.0,0.0,0.0,0.0,0.0,0.0,0.0,0.0,0.0,0.0,0.0,0.0,0.0,0.0,0.0,0.0,0.0,0.0,0.0,0.0,0.0,0.0,0.0,0.0,0.0,0.0,0.0,0.0,0.0,0.0,0.0,0.0,0.0009744776909623452,-0.9844785693814855,0.007820600225681061,0.0122809822976174,0.0030587328787892963,0.002513824194910674,0.0,0.0,0.0,0.0,0.0,0.0,0.0,0.0,0.0,0.0,0.0,0.0,0.0,0.0,0.0,0.0,0.0,0.0,0.0,0.0,0.0,0.0,0.0,0.0,0.0,0.0,0.0,0.0,0.0,0.0,0.0,0.0,0.0,0.0,0.0,0.0
9181000000,175,9181000000,world,bluerov2/base_link,9.777219153517468,13.27554916206714,-94.79002904367954,0.0003469070941685698,-0.00023496203555355377,-0.7111161592592207,0.7030744146167778,0.0,0.0,0.0,0.0,0.0,0.0,0.0,0.0,0.0,0.0,0.0,0.0,0.0,0.0,0.0,0.0,0.0,0.0,0.0,0.0,0.0,0.0,0.0,0.0,0.0,0.0,0.0,0.0,0.0,0.0,0.0,0.0,0.0,0.0,0.0,0.0,0.0032382742155599277,-1.0020602847484628,-0.006046424814052826,0.004736849031012052,0.0012872755108919163,0.0003394022714257403,0.0,0.0,0.0,0.0,0.0,0.0,0.0,0.0,0.0,0.0,0.0,0.0,0.0,0.0,0.0,0.0,0.0,0.0,0.0,0.0,0.0,0.0,0.0,0.0,0.0,0.0,0.0,0.0,0.0,0.0,0.0,0.0,0.0,0.0,0.0,0.0
9231000000,176,9231000000,world,bluerov2/base_link,9.77730906065109,13.2256264857504,-94.79004369237717,0.0003033197926156677,-0.00025071009503558906,-0.7111444300616817,0.7030458340206545,0.0,0.0,0.0,0.0,0.0,0.0,0.0,0.0,0.0,0.0,0.0,0.0,0.0,0.0,0.0,0.0,0.0,0.0,0.0,0.0,0.0,0.0,0.0,0.0,0.0,0.0,0.0,0.0,0.0,0.0,0.0,0.0,0.0,0.0,0.0,0.0,0.0006224871553536709,-0.9993566765438902,0.0008247203557574272,0.005760935391852409,0.008499963241572563,-0.005759854794883581,0.0,0.0,0.0,0.0,0.0,0.0,0.0,0.0,0.0,0.0,0.0,0.0,0.0,0.0,0.0,0.0,0.0,0.0,0.0,0.0,0.0,0.0,0.0,0.0,0.0,0.0,0.0,0.0,0.0,0.0,0.0,0.0,0.0,0.0,0.0,0.0
9281000000,177,9281000000,world,bluerov2/base_link,9.777391765536303,13.17552376074546,-94.7900264748078,0.0003081256751768643,-0.00022451577471854268,-0.7111330764930022,0.7030573249521217,0.0,0.0,0.0,0.0,0.0,0.0,0.0,0.0,0.0,0.0,0.0,0.0,0.0,0.0,0.0,0.0,0.0,0.0,0.0,0.0,0.0,0.0,0.0,0.0,0.0,0.0,0.0,0.0,0.0,0.0,0.0,0.0,0.0,0.0,0.0,0.0,0.0006640364812572153,-0.9991504756638949,0.005508367590135567,-0.006215856425847283,-1.050409857445782e-05,0.0004724896208737929,0.0,0.0,0.0,0.0,0.0,0.0,0.0,0.0,0.0,0.0,0.0,0.0,0.0,0.0,0.0,0.0,0.0,0.0,0.0,0.0,0.0,0.0,0.0,0.0,0.0,0.0,0.0,0.0,0.0,0.0,0.0,0.0,0.0,0.0,0.0,0.0
9331000000,178,9331000000,world,bluerov2/base_link,9.77743737652076,13.125155585210532,-94.79003646444826,0.000326306060928221,-0.00018412476647883957,-0.7110756967348579,0.7031153626080584,0.0,0.0,0.0,0.0,0.0,0.0,0.0,0.0,0.0,0.0,0.0,0.0,0.0,0.0,0.0,0.0,0.0,0.0,0.0,0.0,0.0,0.0,0.0,0.0,0.0,0.0,0.0,0.0,0.0,0.0,0.0,0.0,0.0,0.0,0.0,0.0,-0.0007688671085516085,-1.0028865925770793,0.006681615612063963,-0.0031445534788482063,-8.435447949972053e-05,0.004418450659823418,0.0,0.0,0.0,0.0,0.0,0.0,0.0,0.0,0.0,0.0,0.0,0.0,0.0,0.0,0.0,0.0,0.0,0.0,0.0,0.0,0.0,0.0,0.0,0.0,0.0,0.0,0.0,0.0,0.0,0.0,0.0,0.0,0.0,0.0,0.0,0.0
9381000000,179,9381000000,world,bluerov2/base_link,9.777488884551925,13.074563343940842,-94.79006343529,0.00029080594479503696,-0.00022101780906710558,-0.7110324633495347,0.7031590877220625,0.0,0.0,0.0,0.0,0.0,0.0,0.0,0.0,0.0,0.0,0.0,0.0,0.0,0.0,0.0,0.0,0.0,0.0,0.0,0.0,0.0,0.0,0.0,0.0,0.0,0.0,0.0,0.0,0.0,0.0,0.0,0.0,0.0,0.0,0.0,0.0,0.000713935092421584,-1.0150271414121717,-0.0025022396328617654,0.0035637517295653196,-0.004211384630457872,0.007625176296521757,0.0,0.0,0.0,0.0,0.0,0.0,0.0,0.0,0.0,0.0,0.0,0.0,0.0,0.0,0.0,0.0,0.0,0.0,0.0,0.0,0.0,0.0,0.0,0.0,0.0,0.0,0.0,0.0,0.0,0.0,0.0,0.0,0.0,0.0,0.0,0.0
9431000000,180,9431000000,world,bluerov2/base_link,9.77751310209749,13.02392004706109,-94.79003898214197,0.0003258795978990131,-0.00020204963615755837,-0.7109295806035129,0.7032630975682898,0.0,0.0,0.0,0.0,0.0,0.0,0.0,0.0,0.0,0.0,0.0,0.0,0.0,0.0,0.0,0.0,0.0,0.0,0.0,0.0,0.0,0.0,0.0,0.0,0.0,0.0,0.0,0.0,0.0,0.0,0.0,0.0,0.0,0.0,0.0,0.0,0.0022673166940454736,-1.0078986598032609,0.006256770583833507,-0.0021900788380276766,0.007931038106726263,-0.001029195788960786,0.0,0.0,0.0,0.0,0.0,0.0,0.0,0.0,0.0,0.0,0.0,0.0,0.0,0.0,0.0,0.0,0.0,0.0,0.0,0.0,0.0,0.0,0.0,0.0,0.0,0.0,0.0,0.0,0.0,0.0,0.0,0.0,0.0,0.0,0.0,0.0
9481000000,181,9481000000,world,bluerov2/base_link,9.77762825623853,12.973123936659338,-94.7900689386256,0.0003032256214935918,-0.0002231609045560348,-0.7108723181720825,0.7033209832715662,0.0,0.0,0.0,0.0,0.0,0.0,0.0,0.0,0.0,0.0,0.0,0.0,0.0,0.0,0.0,0.0,0.0,0.0,0.0,0.0,0.0,0.0,0.0,0.0,0.0,0.0,0.0,0.0,0.0,0.0,0.0,0.0,0.0,0.0,0.0,0.0,0.0018617264466090464,-1.0164194972250173,0.0003051748947134273,-0.001043732805574897,0.006618938891972427,-0.001928736264155972,0.0,0.0,0.0,0.0,0.0,0.0,0.0,0.0,0.0,0.0,0.0,0.0,0.0,0.0,0.0,0.0,0.0,0.0,0.0,0.0,0.0,0.0,0.0,0.0,0.0,0.0,0.0,0.0,0.0,0.0,0.0,0.0,0.0,0.0,0.0,0.0
9531000000,182,9531000000,world,bluerov2/base_link,9.777674135410194,12.922222645347686,-94.7900554058986,0.0003028266592155587,-0.0002665681765766556,-0.7107960597941348,0.703398037115938,0.0,0.0,0.0,0.0,0.0,0.0,0.0,0.0,0.0,0.0,0.0,0.0,0.0,0.0,0.0,0.0,0.0,0.0,0.0,0.0,0.0,0.0,0.0,0.0,0.0,0.0,0.0,0.0,0.0,0.0,0.0,0.0,0.0,0.0,0.0,0.0,0.0017108326398089712,-1.0177741864094276,0.002081380313592748,0.005035960842388538,0.009531016150305566,-0.004186376180765256,0.0,0.0,0.0,0.0,0.0,0.0,0.0,0.0,0.0,0.0,0.0,0.0,0.0,0.0,0.0,0.0,0.0,0.0,0.0,0.0,0.0,0.0,0.0,0.0,0.0,0.0,0.0,0.0,0.0,0.0,0.0,0.0,0.0,0.0,0.0,0.0
9581000000,183,9581000000,world,bluerov2/base_link,9.777727327859672,12.871107765294829,-94.79007659606083,0.0002745601979923789,-0.00025759296405879336,-0.7107348199166242,0.7034599306432787,0.0,0.0,0.0,0.0,0.0,0.0,0.0,0.0,0.0,0.0,0.0,0.0,0.0,0.0,0.0,0.0,0.0,0.0,0.0,0.0,0.0,0.0,0.0,0.0,0.0,0.0,0.0,0.0,0.0,0.0,0.0,0.0,0.0,0.0,0.0,0.0,0.003828625748248432,-1.0305953427297112,-0.006558534151717877,-0.008700337288132807,0.0021763571300383176,-0.0003444769315106161,0.0,0.0,0.0,0.0,0.0,0.0,0.0,0.0,0.0,0.0,0.0,0.0,0.0,0.0,0.0,0.0,0.0,0.0,0.0,0.0,0.0,0.0,0.0,0.0,0.0,0.0,0.0,0.0,0.0,0.0,0.0,0.0,0.0,0.0,0.0,0.0
9631000000,184,9631000000,world,bluerov2/base_link,9.777853924666383,12.8198101043377,-94.79005998163447,0.00023222048875558727,-0.00020808599885578953,-0.7106925990943764,0.7035026171709255,0.0,0.0,0.0,0.0,0.0,0.0,0.0,0.0,0.0,0.0,0.0,0.0,0.0,0.0,0.0,0.0,0.0,0.0,0.0,0.0,0.0,0.0,0.0,0.0,0.0,0.0,0.0,0.0,0.0,0.0,0.0,0.0,0.0,0.0,0.0,0.0,0.0018522024420905637,-1.0259178405833853,0.002375207571359263,0.0046192454693199094,0.005136298903346316,0.003728850067487932,0.0,0.0,0.0,0.0,0.0,0.0,0.0,0.0,0.0,0.0,0.0,0.0,0.0,0.0,0.0,0.0,0.0,0.0,0.0,0.0,0.0,0.0,0.0,0.0,0.0,0.0,0.0,0.0,0.0,0.0,0.0,0.0,0.0,0.0,0.0,0.0
9681000000,185,9681000000,world,bluerov2/base_link,9.777840851542555,12.76828876886897,-94.79006243268137,0.0003069457130359797,-0.00023765334265517889,-0.7105153937064048,0.7036815505691838,0.0,0.0,0.0,0.0,0.0,0.0,0.0,0.0,0.0,0.0,0.0,0.0,0.0,0.0,0.0,0.0,0.0,0.0,0.0,0.0,0.0,0.0,0.0,0.0,0.0,0.0,0.0,0.0,0.0,0.0,0.0,0.0,0.0,0.0,0.0,0.0,0.0025618597010882036,-1.0341377211889258,-0.001693174050025323,0.004893964440714286,-0.0028673059611477197,0.0051465862429938645,0.0,0.0,0.0,0.0,0.0,0.0,0.0,0.0,0.0,0.0,0.0,0.0,0.0,0.0,0.0,0.0,0.0,0.0,0.0,0.0,0.0,0.0,0.0,0.0,0.0,0.0,0.0,0.0,0.0,0.0,0.0,0.0,0.0,0.0,0.0,0.0
9731000000,186,9731000000,world,bluerov2/base_link,9.777969671936038,12.716547987476607,-94.79007279529327,0.00028897993544328834,-0.00019125202305330798,-0.7105053651611148,0.7036916981111341,0.0,0.0,0.0,0.0,0.0,0.0,0.0,0.0,0.0,0.0,0.0,0.0,0.0,0.0,0.0,0.0,0.0,0.0,0.0,0.0,0.0,0.0,0.0,0.0,0.0,0.0,0.0,0.0,0.0,0.0,0.0,0.0,0.0,0.0,0.0,0.0,0.005073308214902972,-1.0388131561896563,-0.002210680369337063,-0.0017006778050570343,0.008641339263402633,-0.005936321036471834,0.0,0.0,0.0,0.0,0.0,0.0,0.0,0.0,0.0,0.0,0.0,0.0,0.0,0.0,0.0,0.0,0.0,0.0,0.0,0.0,0.0,0.0,0.0,0.0,0.0,0.0,0.0,0.0,0.0,0.0,0.0,0.0,0.0,0.0,0.0,0.0
9781000000,187,9781000000,world,bluerov2/base_link,9.778019326653185,12.66458096944973,-94.79008844803863,0.0003349693450484766,-0.0002664137875486143,-0.7103676906624821,0.7038306336627326,0.0,0.0,0.0,0.0,0.0,0.0,0.0,0.0,0.0,0.0,0.0,0.0,0.0,0.0,0.0,0.0,0.0,0.0,0.0,0.0,0.0,0.0,0.0,0.0,0.0,0.0,0.0,0.0,0.0,0.0,0.0,0.0,0.0,0.0,0.0,0.0,-0.002183037498565627,-1.04109266924531,0.0005433592702182344,-0.0038473641239191374,-0.0029742233610526156,0.010241769790014971,0.0,0.0,0.0,0.0,0.0,0.0,0.0,0.0,0.0,0.0,0.0,0.0,0.0,0.0,0.0,0.0,0.0,0.0,0.0,0.0,0.0,0.0,0.0,0.0,0.0,0.0,0.0,0.0,0.0,0.0,0.0,0.0,0.0,0.0,0.0,0.0
9831000000,188,9831000000,world,bluerov2/base_link,9.778105327457254,12.612343832032336,-94.7901150874466,0.00028085912112782137,-0.00021629397360641616,-0.7103271522504596,0.7038715870887413,0.0,0.0,0.0,0.0,0.0,0.0,0.0,0.0,0.0,0.0,0.0,0.0,0.0,0.0,0.0,0.0,0.0,0.0,0.0,0.0,0.0,0.0,0.0,0.0,0.0,0.0,0.0,0.0,0.0,0.0,0.0,0.0,0.0,0.0,0.0,0.0,0.004897105829897462,-1.0584346539770828,-0.011936346461972534,-0.007959290013395346,-0.0008324352123536355,0.004202715471386126,0.0,0.0,0.0,0.0,0.0,0.0,0.0,0.0,0.0,0.0,0.0,0.0,0.0,0.0,0.0,0.0,0.0,0.0,0.0,0.0,0.0,0.0,0.0,0.0,0.0,0.0,0.0,0.0,0.0,0.0,0.0,0.0,0.0,0.0,0.0,0.0
9881000000,189,9881000000,world,bluerov2/base_link,9.778178004251847,12.559919851287889,-94.79010817488977,0.00029135671262387467,-0.00024077954318617285,-0.7103482685239448,0.7038502642902902,0.0,0.0,0.0,0.0,0.0,0.0,0.0,0.0,0.0,0.0,0.0,0.0,0.0,0.0,0.0,0.0,0.0,0.0,0.0,0.0,0.0,0.0,0.0,0.0,0.0,0.0,0.0,0.0,0.0,0.0,0.0,0.0,0.0,0.0,0.0,0.0,0.0008036591386934127,-1.0514914143584437,-0.0008676517046955974,0.005931444112674482,0.0010461003721008182,0.0016807103251910008,0.0,0.0,0.0,0.0,0.0,0.0,0.0,0.0,0.0,0.0,0.0,0.0,0.0,0.0,0.0,0.0,0.0,0.0,0.0,0.0,0.0,0.0,0.0,0.0,0.0,0.0,0.0,0.0,0.0,0.0,0.0,0.0,0.0,0.0,0.0,0.0
9931000000,190,9931000000,world,bluerov2/base_link,9.778250937220417,12.507323019540271,-94.79010027275437,0.00029300796610268507,-0.0002347756894380152,-0.7103412477705541,0.7038573511319461,0.0,0.0,0.0,0.0,0.0,0.0,0.0,0.0,0.0,0.0,0.0,0.0,0.0,0.0,0.0,0.0,0.0,0.0,0.0,0.0,0.0,0.0,0.0,0.0,0.0,0.0,0.0,0.0,0.0,0.0,0.0,0.0,0.0,0.0,0.0,0.0,0.0016303824708822807,-1.0495117845114779,0.0036541295392822845,0.016036863697072527,0.005553209401545667,-0.00037510185072021603,0.0,0.0,0.0,0.0,0.0,0.0,0.0,0.0,0.0,0.0,0.0,0.0,0.0,0.0,0.0,0.0,0.0,0.0,0.0,0.0,0.0,0.0,0.0,0.0,0.0,0.0,0.0,0.0,0.0,0.0,0.0,0.0,0.0,0.0,0.0,0.0
9981000000,191,9981000000,world,bluerov2/base_link,9.778294177548691,12.454615695843335,-94.79010579026718,0.000279410525360485,-0.00026717661181499455,-0.7103067620630066,0.7038921467909584,0.0,0.0,0.0,0.0,0.0,0.0,0.0,0.0,0.0,0.0,0.0,0.0,0.0,0.0,0.0,0.0,0.0,0.0,0.0,0.0,0.0,0.0,0.0,0.0,0.0,0.0,0.0,0.0,0.0,0.0,0.0,0.0,0.0,0.0,0.0,0.0,0.004492927233825748,-1.0624099440915307,-0.007486551956553673,-0.013879966452086815,0.001329229754914751,-0.002749949381171714,0.0,0.0,0.0,0.0,0.0,0.0,0.0,0.0,0.0,0.0,0.0,0.0,0.0,0.0,0.0,0.0,0.0,0.0,0.0,0.0,0.0,0.0,0.0,0.0,0.0,0.0,0.0,0.0,0.0,0.0,0.0,0.0,0.0,0.0,0.0,0.0
10031000000,192,10031000000,world,bluerov2/base_link,9.778349024474778,12.401848874942308,-94.79008049778444,0.0003223212656688681,-0.0001404347889113324,-0.7102893929034496,0.7039096921593855,0.0,0.0,0.0,0.0,0.0,0.0,0.0,0.0,0.0,0.0,0.0,0.0,0.0,0.0,0.0,0.0,0.0,0.0,0.0,0.0,0.0,0.0,0.0,0.0,0.0,0.0,0.0,0.0,0.0,0.0,0.0,0.0,0.0,0.0,0.0,0.0,-0.0018583606814003156,-1.0581830369389995,-0.0015674306074468748,-0.006864618687963254,-0.00714659476955932,0.008094228499022747,0.0,0.0,0.0,0.0,0.0,0.0,0.0,0.0,0.0,0.0,0.0,0.0,0.0,0.0,0.0,0.0,0.0,0.0,0.0,0.0,0.0,0.0,0.0,0.0,0.0,0.0,0.0,0.0,0.0,0.0,0.0,0.0,0.0,0.0,0.0,0.0
10081000000,193,10081000000,world,bluerov2/base_link,9.778404314084804,12.348964787137765,-94.7901232378389,0.0002862852772956249,-0.00021818492120516728,-0.7102713104361901,0.7039279338166213,0.0,0.0,0.0,0.0,0.0,0.0,0.0,0.0,0.0,0.0,0.0,0.0,0.0,0.0,0.0,0.0,0.0,0.0,0.0,0.0,0.0,0.0,0.0,0.0,0.0,0.0,0.0,0.0,0.0,0.0,0.0,0.0,0.0,0.0,0.0,0.0,0.0019821283885468307,-1.0566705509971275,-2.9954080328276452e-05,0.005407870269024673,0.006512714757066914,-0.0017670869744905802,0.0,0.0,0.0,0.0,0.0,0.0,0.0,0.0,0.0,0.0,0.0,0.0,0.0,0.0,0.0,0.0,0.0,0.0,0.0,0.0,0.0,0.0,0.0,0.0,0.0,0.0,0.0,0.0,0.0,0.0,0.0,0.0,0.0,0.0,0.0,0.0
10131000000,194,10131000000,world,bluerov2/base_link,9.778434876818084,12.296178804379917,-94.79009687990738,0.00030447295351124817,-0.00025591155885967723,-0.710194404784538,0.7040055036846165,0.0,0.0,0.0,0.0,0.0,0.0,0.0,0.0,0.0,0.0,0.0,0.0,0.0,0.0,0.0,0.0,0.0,0.0,0.0,0.0,0.0,0.0,0.0,0.0,0.0,0.0,0.0,0.0,0.0,0.0,0.0,0.0,0.0,0.0,0.0,0.0,0.0035595377585793736,-1.0559587876670857,-4.51982896842196e-05,-0.00827696163226669,0.004078249554472636,-0.0023726241504578795,0.0,0.0,0.0,0.0,0.0,0.0,0.0,0.0,0.0,0.0,0.0,0.0,0.0,0.0,0.0,0.0,0.0,0.0,0.0,0.0,0.0,0.0,0.0,0.0,0.0,0.0,0.0,0.0,0.0,0.0,0.0,0.0,0.0,0.0,0.0,0.0
10181000000,195,10181000000,world,bluerov2/base_link,9.77855705182864,12.243369972555831,-94.79009880062978,0.0003259488936552349,-0.00017027816252978718,-0.7101335671962576,0.7040668870951002,0.0,0.0,0.0,0.0,0.0,0.0,0.0,0.0,0.0,0.0,0.0,0.0,0.0,0.0,0.0,0.0,0.0,0.0,0.0,0.0,0.0,0.0,0.0,0.0,0.0,0.0,0.0,0.0,0.0,0.0,0.0,0.0,0.0,0.0,0.0,0.0,-0.0017734045627798925,-1.0560663618001123,0.0005496934985805631,0.004908933106518142,-0.0062885675498661345,0.013368233484988367,0.0,0.0,0.0,0.0,0.0,0.0,0.0,0.0,0.0,0.0,0.0,0.0,0.0,0.0,0.0,0.0,0.0,0.0,0.0,0.0,0.0,0.0,0.0,0.0,0.0,0.0,0.0,0.0,0.0,0.0,0.0,0.0,0.0,0.0,0.0,0.0
10231000000,196,10231000000,world,bluerov2/base_link,9.77860045156662,12.190504459809054,-94.79010353888482,0.0002736628850805236,-0.0002533975089680574,-0.7100101886994128,0.7041913041506208,0.0,0.0,0.0,0.0,0.0,0.0,0.0,0.0,0.0,0.0,0.0,0.0,0.0,0.0,0.0,0.0,0.0,0.0,0.0,0.0,0.0,0.0,0.0,0.0,0.0,0.0,0.0,0.0,0.0,0.0,0.0,0.0,0.0,0.0,0.0,0.0,0.004171878813318302,-1.059031613924497,-0.0013690818102026145,0.003329675363742625,-0.0008402098750553262,0.009087548453427258,0.0,0.0,0.0,0.0,0.0,0.0,0.0,0.0,0.0,0.0,0.0,0.0,0.0,0.0,0.0,0.0,0.0,0.0,0.0,0.0,0.0,0.0,0.0,0.0,0.0,0.0,0.0,0.0,0.0,0.0,0.0,0.0,0.0,0.0,0.0,0.0
10281000000,197,10281000000,world,bluerov2/base_link,9.778653872641966,12.137596751721684,-94.79009780497083,0.0003918989242718807,-0.00019115287727888302,-0.7097958726432629,0.7044072891831823,0.0,0.0,0.0,0.0,0.0,0.0,0.0,0.0,0.0,0.0,0.0,0.0,0.0,0.0,0.0,0.0,0.0,0.0,0.0,0.0,0.0,0.0,0.0,0.0,0.0,0.0,0.0,0.0,0.0,0.0,0.0,0.0,0.0,0.0,0.0,0.0,0.0009803006580257627,-1.0546537709969586,0.004242570924604527,-0.006274887846705491,0.005043445242472586,0.004369347627950686,0.0,0.0,0.0,0.0,0.0,0.0,0.0,0.0,0.0,0.0,0.0,0.0,0.0,0.0,0.0,0.0,0.0,0.0,0.0,0.0,0.0,0.0,0.0,0.0,0.0,0.0,0.0,0.0,0.0,0.0,0.0,0.0,0.0,0.0,0.0,0.0
10331000000,198,10331000000,world,bluerov2/base_link,9.778824028363454,12.084578314018959,-94.7901378596711,0.00030525511250042005,-0.0001929934754017941,-0.709669067046038,0.7045350841873247,0.0,0.0,0.0,0.0,0.0,0.0,0.0,0.0,0.0,0.0,0.0,0.0,0.0,0.0,0.0,0.0,0.0,0.0,0.0,0.0,0.0,0.0,0.0,0.0,0.0,0.0,0.0,0.0,0.0,0.0,0.0,0.0,0.0,0.0,0.0,0.0,0.004684150115049229,-1.0646285685039083,-0.004452585747151419,0.010997160528526048,-0.006331906609545074,0.019565040618161014,0.0,0.0,0.0,0.0,0.0,0.0,0.0,0.0,0.0,0.0,0.0,0.0,0.0,0.0,0.0,0.0,0.0,0.0,0.0,0.0,0.0,0.0,0.0,0.0,0.0,0.0,0.0,0.0,0.0,0.0,0.0,0.0,0.0,0.0,0.0,0.0
